{
  "home": {
    "venue": {
      "name_en": "Goyang Stadium",
      "name_kr": "고양종합운동장",
      "lat": 37.6556,
      "lng": 126.7714
    },
    "available_count": 25,
    "total_count": 25,
    "lowest_price_krw": 124,
    "last_update": "2026-02-03 21:29:09"
  },
  "map": {
    "venue": {
      "name_en": "Goyang Stadium",
      "lat": 37.6556,
      "lng": 126.7714,
      "type": "venue"
    },
    "local_spots": [
      {
        "name_en": "HYBE INSIGHT",
        "category": "bts",
        "spot_tag": "BTS Museum",
        "lat": 37.526,
        "lng": 127.0405
      },
      {
        "name_en": "HYBE Headquarters",
        "category": "bts",
        "spot_tag": "BTS Home",
        "lat": 37.528,
        "lng": 127.04
      },
      {
        "name_en": "Hongdae Busking Street",
        "category": "bts",
        "spot_tag": "Trainee Memory",
        "lat": 37.5563,
        "lng": 126.922
      },
      {
        "name_en": "MBC Sangam",
        "category": "bts",
        "spot_tag": "Music Show",
        "lat": 37.5786,
        "lng": 126.8918
      },
      {
        "name_en": "Gwangjang Market",
        "category": "bts",
        "spot_tag": "Debut Memory",
        "lat": 37.57,
        "lng": 127.0098
      },
      {
        "name_en": "Ilsan Food Street",
        "category": "restaurant",
        "spot_tag": "Local Eats",
        "lat": 37.658,
        "lng": 126.772
      },
      {
        "name_en": "La Festa Restaurants",
        "category": "restaurant",
        "spot_tag": "Dining Hub",
        "lat": 37.6575,
        "lng": 126.7705
      },
      {
        "name_en": "Western Dom Food Court",
        "category": "restaurant",
        "spot_tag": "Food Court",
        "lat": 37.663,
        "lng": 126.762
      },
      {
        "name_en": "Ilsan Lake Park Cafe Street",
        "category": "cafe",
        "spot_tag": "Lake View",
        "lat": 37.659,
        "lng": 126.76
      },
      {
        "name_en": "La Festa Cafes",
        "category": "cafe",
        "spot_tag": "Trendy Cafe",
        "lat": 37.6572,
        "lng": 126.771
      },
      {
        "name_en": "Ilsan Lake Park",
        "category": "hotspot",
        "spot_tag": "Must Visit",
        "lat": 37.658,
        "lng": 126.759
      },
      {
        "name_en": "One Mount",
        "category": "hotspot",
        "spot_tag": "Entertainment",
        "lat": 37.665,
        "lng": 126.751
      },
      {
        "name_en": "Starfield Goyang",
        "category": "hotspot",
        "spot_tag": "Shopping",
        "lat": 37.645,
        "lng": 126.895
      }
    ],
    "hotels": [
      {
        "id": "hotel_58977",
        "name_en": "블루모텔",
        "lat": 37.656689360076015,
        "lng": 126.77212336495597,
        "price_krw": 196
      },
      {
        "id": "hotel_63658",
        "name_en": "큐브 호텔",
        "lat": 37.6560620136804,
        "lng": 126.77161349546381,
        "price_krw": 233
      },
      {
        "id": "hotel_26905",
        "name_en": "하이루프33 Guest House",
        "lat": 37.656527772772115,
        "lng": 126.770132504902,
        "price_krw": 124
      },
      {
        "id": "hotel_64724",
        "name_en": "브라운도트 사직야구장점",
        "lat": 37.65775820859358,
        "lng": 126.77126379961905,
        "price_krw": 310
      },
      {
        "id": "hotel_94471",
        "name_en": "엘모멘토 오시리아",
        "lat": 37.655972722055175,
        "lng": 126.7676918669243,
        "price_krw": 313
      },
      {
        "id": "hotel_71186",
        "name_en": "엘모멘토 송도",
        "lat": 37.653507276183745,
        "lng": 126.77508018334015,
        "price_krw": 268
      },
      {
        "id": "hotel_19968",
        "name_en": "6번가 스테이",
        "lat": 37.65515567004007,
        "lng": 126.76659948671616,
        "price_krw": 279
      },
      {
        "id": "hotel_55618",
        "name_en": "Shire Hotel Heritage Busan Station",
        "lat": 37.65815173113528,
        "lng": 126.76664335573552,
        "price_krw": 181
      },
      {
        "id": "hotel_69379",
        "name_en": "Shire Hotel Signature Seomyeon",
        "lat": 37.66074307993267,
        "lng": 126.77266691593444,
        "price_krw": 164
      },
      {
        "id": "hotel_09971",
        "name_en": "호텔 모먼트 송정",
        "lat": 37.65090866660154,
        "lng": 126.768193922038,
        "price_krw": 233
      },
      {
        "id": "hotel_94670",
        "name_en": "기장 하운드호텔 일광점",
        "lat": 37.65091750779311,
        "lng": 126.7744829973745,
        "price_krw": 251
      },
      {
        "id": "hotel_76335",
        "name_en": "호텔야자 사상터미널점",
        "lat": 37.650700628026264,
        "lng": 126.76760447414753,
        "price_krw": 301
      },
      {
        "id": "hotel_72677",
        "name_en": "노스하버호텔",
        "lat": 37.659946527886135,
        "lng": 126.76835923620682,
        "price_krw": 320
      },
      {
        "id": "hotel_02455",
        "name_en": "혀니네",
        "lat": 37.65976832637189,
        "lng": 126.77667619471326,
        "price_krw": 265
      },
      {
        "id": "hotel_84870",
        "name_en": "남포 스테이 99",
        "lat": 37.656657834225925,
        "lng": 126.76341224442938,
        "price_krw": 332
      },
      {
        "id": "hotel_45764",
        "name_en": "아난티 앳 부산 코브",
        "lat": 37.64955329847517,
        "lng": 126.77197001577706,
        "price_krw": 345
      },
      {
        "id": "hotel_81512",
        "name_en": "Hotel ARA - Busan Haeundae",
        "lat": 37.66098809308829,
        "lng": 126.76459435092303,
        "price_krw": 289
      },
      {
        "id": "hotel_91099",
        "name_en": "하이루프33 레지던스",
        "lat": 37.657719358916594,
        "lng": 126.78066095243281,
        "price_krw": 298
      },
      {
        "id": "hotel_89897",
        "name_en": "2400sqft On the Beach 1min for big family",
        "lat": 37.662399635834205,
        "lng": 126.77411208535607,
        "price_krw": 335
      },
      {
        "id": "hotel_45112",
        "name_en": "해운대비치레스트필드",
        "lat": 37.663405494364824,
        "lng": 126.76792153788682,
        "price_krw": 251
      },
      {
        "id": "hotel_02485",
        "name_en": "Busan Gwangalli Nuri Hotel",
        "lat": 37.66016928538409,
        "lng": 126.78023253473755,
        "price_krw": 274
      },
      {
        "id": "hotel_90690",
        "name_en": "부산 송정 스테이",
        "lat": 37.662314707402956,
        "lng": 126.76428631638225,
        "price_krw": 248
      },
      {
        "id": "hotel_86501",
        "name_en": "남포 MGM 호텔",
        "lat": 37.65978809934555,
        "lng": 126.78113180570982,
        "price_krw": 251
      },
      {
        "id": "hotel_76457",
        "name_en": "엘모멘토 광안",
        "lat": 37.64645951933064,
        "lng": 126.76666319631336,
        "price_krw": 329
      },
      {
        "id": "hotel_58162",
        "name_en": "준 하우스 (외국인 전용)",
        "lat": 37.647010345758844,
        "lng": 126.76159627062543,
        "price_krw": 295
      }
    ]
  },
  "hotels": [
    {
      "id": "hotel_58977",
      "name_en": "블루모텔",
      "price_krw": 196,
      "rating": 7.57,
      "image_url": "https://cf.bstatic.com/xdata/images/hotel/square240/516282052.webp?k=756cb08bd4ab301ae9e0013e0d5e35a917f0179a6d0c78879075e8922a0866a3&o=",
      "rooms_left": -1,
      "is_available": true,
      "hotel_type": {
        "label_en": "Hotel",
        "color": "#4A90D9"
      },
      "cancellation": {
        "type": "free",
        "label_en": "Free Cancellation",
        "label_kr": "무료 취소",
        "is_refundable": true
      },
      "tags": {
        "list_en": [
          "#FreeCancellation",
          "#ARMYPopular",
          "#WalkToVenue"
        ],
        "list_kr": [
          "#취소가능",
          "#아미인기",
          "#도보가능"
        ],
        "display_en": "#FreeCancellation #ARMYPopular #WalkToVenue",
        "display_kr": "#취소가능 #아미인기 #도보가능"
      },
      "lat": 37.656689360076015,
      "lng": 126.77212336495597,
      "location": {
        "area_en": "Busan",
        "area_kr": "부산",
        "address_en": "Busan, Busan",
        "address_kr": "부산 부산"
      },
      "city_key": "busan",
      "army_density": {
        "value": 65,
        "level_en": "High",
        "level_kr": "높음",
        "label_en": "ARMY 65%",
        "label_kr": "아미 65%"
      },
      "distance": {
        "type": "walk",
        "display_en": "Walk 1min",
        "minutes": 1,
        "distance_km": 0.1
      },
      "transport": {
        "station_en": "Jeongbalsan",
        "line_en": "Line 3",
        "line_color": "#EF7C1C",
        "display_en": "Jeongbalsan (Line 3)"
      },
      "safe_return": {
        "venue_en": "Goyang Stadium",
        "route_en": "Walk from Goyang Stadium → Hotel",
        "transport": "walk",
        "time_min": 1,
        "last_train": "23:50",
        "taxi_krw": 0
      },
      "army_local_guide": {
        "bts": [
          {
            "name_en": "MBC Sangam",
            "spot_tag": "Music Show",
            "description_en": "Music show filming",
            "distance_km": 13.7,
            "lat": 37.5786,
            "lng": 126.8918
          },
          {
            "name_en": "Hongdae Busking Street",
            "spot_tag": "Trainee Memory",
            "description_en": "Pre-debut busking spot",
            "distance_km": 17.3,
            "lat": 37.5563,
            "lng": 126.922
          },
          {
            "name_en": "Gwangjang Market",
            "spot_tag": "Debut Memory",
            "description_en": "2013 debut location",
            "distance_km": 23.0,
            "lat": 37.57,
            "lng": 127.0098
          }
        ],
        "restaurant": [
          {
            "name_en": "Ilsan Food Street",
            "spot_tag": "Local Eats",
            "description_en": "Local food street",
            "distance_km": 0.1,
            "lat": 37.658,
            "lng": 126.772
          },
          {
            "name_en": "La Festa Restaurants",
            "spot_tag": "Dining Hub",
            "description_en": "Restaurant complex",
            "distance_km": 0.2,
            "lat": 37.6575,
            "lng": 126.7705
          },
          {
            "name_en": "Western Dom Food Court",
            "spot_tag": "Food Court",
            "description_en": "Food court",
            "distance_km": 1.1,
            "lat": 37.663,
            "lng": 126.762
          }
        ],
        "cafe": [
          {
            "name_en": "La Festa Cafes",
            "spot_tag": "Trendy Cafe",
            "description_en": "Trendy cafes",
            "distance_km": 0.1,
            "lat": 37.6572,
            "lng": 126.771
          },
          {
            "name_en": "Ilsan Lake Park Cafe Street",
            "spot_tag": "Lake View",
            "description_en": "Scenic cafes",
            "distance_km": 1.1,
            "lat": 37.659,
            "lng": 126.76
          }
        ],
        "hotspot": [
          {
            "name_en": "Ilsan Lake Park",
            "spot_tag": "Must Visit",
            "description_en": "Beautiful lake park",
            "distance_km": 1.2,
            "lat": 37.658,
            "lng": 126.759
          },
          {
            "name_en": "One Mount",
            "spot_tag": "Entertainment",
            "description_en": "Theme park",
            "distance_km": 2.1,
            "lat": 37.665,
            "lng": 126.751
          },
          {
            "name_en": "Starfield Goyang",
            "spot_tag": "Shopping",
            "description_en": "Shopping mall",
            "distance_km": 10.9,
            "lat": 37.645,
            "lng": 126.895
          }
        ]
      },
      "map_detail": {
        "hotel": {
          "name_en": "블루모텔",
          "lat": 37.656689360076015,
          "lng": 126.77212336495597
        },
        "venue": {
          "name_en": "Goyang Stadium",
          "lat": 37.6556,
          "lng": 126.7714
        },
        "nearby_spots": [
          {
            "name_en": "Ilsan Food Street",
            "category": "restaurant",
            "spot_tag": "Local Eats",
            "lat": 37.658,
            "lng": 126.772,
            "distance_km": 0.1
          },
          {
            "name_en": "La Festa Cafes",
            "category": "cafe",
            "spot_tag": "Trendy Cafe",
            "lat": 37.6572,
            "lng": 126.771,
            "distance_km": 0.1
          },
          {
            "name_en": "La Festa Restaurants",
            "category": "restaurant",
            "spot_tag": "Dining Hub",
            "lat": 37.6575,
            "lng": 126.7705,
            "distance_km": 0.2
          },
          {
            "name_en": "Western Dom Food Court",
            "category": "restaurant",
            "spot_tag": "Food Court",
            "lat": 37.663,
            "lng": 126.762,
            "distance_km": 1.1
          },
          {
            "name_en": "Ilsan Lake Park Cafe Street",
            "category": "cafe",
            "spot_tag": "Lake View",
            "lat": 37.659,
            "lng": 126.76,
            "distance_km": 1.1
          }
        ]
      },
      "platform": {
        "name": "Booking.com",
        "booking_url": "https://www.booking.comhttps://www.booking.com/hotel/kr/blue-motel-busangwangyeogsi.ko.html?aid=304142&label=mkt123sc-fb625627-bca1-46ab-a00f-c53653f9d2af&ucfs=1&arphpl=1&checkin=2026-06-11&checkout=2026-06-13&dest_id=-713900&dest_type=city&group_adults=2&req_adults=2&no_rooms=1&group_children=0&req_children=0&hpos=3&hapos=3&sr_order=price&srpvid=1a00f9fccedae77b35cee1c2bb6a6680&srepoch=1770154145&all_sr_blocks=1129141003_385555154_0_0_0&highlighted_blocks=1129141003_385555154_0_0_0&matching_block_id=1129141003_385555154_0_0_0&sr_pri_blocks=1129141003_385555154_0_0_0__57272727&from=searchresults"
      },
      "booking_guide": {
        "steps_en": [
          "1. Search Goyang hotels",
          "2. Filter by 'Free Cancellation'",
          "3. Select room and enter info",
          "4. Pay online or at property",
          "5. Show confirmation at check-in"
        ],
        "tips_en": [
          "Genius membership for discounts",
          "Free cancellation options"
        ],
        "payment_methods": [
          "Credit Card",
          "Pay at Property"
        ],
        "foreigner_friendly": true
      },
      "last_update": "2026-02-03 21:29:09",
      "nearby": [
        {
          "id": "hotel_63658",
          "name_en": "큐브 호텔",
          "price_krw": 233,
          "distance_km": 0.1,
          "image_url": "https://cf.bstatic.com/xdata/images/hotel/square240/388675442.webp?k=7d78587e6c09b5cf1deaac75d1e3e24354e56ee7c10c352fa622c259dd9b8177&o="
        },
        {
          "id": "hotel_64724",
          "name_en": "브라운도트 사직야구장점",
          "price_krw": 310,
          "distance_km": 0.1,
          "image_url": "https://cf.bstatic.com/xdata/images/hotel/square240/492464654.webp?k=e359fb011886d823e0b4d030f29020deb12a77c186c54d7dc0d26b930caf7f7d&o="
        },
        {
          "id": "hotel_26905",
          "name_en": "하이루프33 Guest House",
          "price_krw": 124,
          "distance_km": 0.2,
          "image_url": "https://cf.bstatic.com/xdata/images/hotel/square240/792881448.webp?k=cbbacade7de683f8fdabf74294c136fa418ea5a26f2c1543e229cf9e827092c6&o="
        }
      ]
    },
    {
      "id": "hotel_63658",
      "name_en": "큐브 호텔",
      "price_krw": 233,
      "rating": 0,
      "image_url": "https://cf.bstatic.com/xdata/images/hotel/square240/388675442.webp?k=7d78587e6c09b5cf1deaac75d1e3e24354e56ee7c10c352fa622c259dd9b8177&o=",
      "rooms_left": -1,
      "is_available": true,
      "hotel_type": {
        "label_en": "Hotel",
        "color": "#4A90D9"
      },
      "cancellation": {
        "type": "free",
        "label_en": "Free Cancellation",
        "label_kr": "무료 취소",
        "is_refundable": true
      },
      "tags": {
        "list_en": [
          "#FreeCancellation",
          "#ARMYPopular",
          "#WalkToVenue"
        ],
        "list_kr": [
          "#취소가능",
          "#아미인기",
          "#도보가능"
        ],
        "display_en": "#FreeCancellation #ARMYPopular #WalkToVenue",
        "display_kr": "#취소가능 #아미인기 #도보가능"
      },
      "lat": 37.6560620136804,
      "lng": 126.77161349546381,
      "location": {
        "area_en": "Busan",
        "area_kr": "부산",
        "address_en": "Busan, Busan",
        "address_kr": "부산 부산"
      },
      "city_key": "busan",
      "army_density": {
        "value": 65,
        "level_en": "High",
        "level_kr": "높음",
        "label_en": "ARMY 65%",
        "label_kr": "아미 65%"
      },
      "distance": {
        "type": "walk",
        "display_en": "Walk 0min",
        "minutes": 0,
        "distance_km": 0.1
      },
      "transport": {
        "station_en": "Jeongbalsan",
        "line_en": "Line 3",
        "line_color": "#EF7C1C",
        "display_en": "Jeongbalsan (Line 3)"
      },
      "safe_return": {
        "venue_en": "Goyang Stadium",
        "route_en": "Walk from Goyang Stadium → Hotel",
        "transport": "walk",
        "time_min": 0,
        "last_train": "23:50",
        "taxi_krw": 0
      },
      "army_local_guide": {
        "bts": [
          {
            "name_en": "MBC Sangam",
            "spot_tag": "Music Show",
            "description_en": "Music show filming",
            "distance_km": 13.6,
            "lat": 37.5786,
            "lng": 126.8918
          },
          {
            "name_en": "Hongdae Busking Street",
            "spot_tag": "Trainee Memory",
            "description_en": "Pre-debut busking spot",
            "distance_km": 17.3,
            "lat": 37.5563,
            "lng": 126.922
          },
          {
            "name_en": "Gwangjang Market",
            "spot_tag": "Debut Memory",
            "description_en": "2013 debut location",
            "distance_km": 23.1,
            "lat": 37.57,
            "lng": 127.0098
          }
        ],
        "restaurant": [
          {
            "name_en": "Ilsan Food Street",
            "spot_tag": "Local Eats",
            "description_en": "Local food street",
            "distance_km": 0.2,
            "lat": 37.658,
            "lng": 126.772
          },
          {
            "name_en": "La Festa Restaurants",
            "spot_tag": "Dining Hub",
            "description_en": "Restaurant complex",
            "distance_km": 0.2,
            "lat": 37.6575,
            "lng": 126.7705
          },
          {
            "name_en": "Western Dom Food Court",
            "spot_tag": "Food Court",
            "description_en": "Food court",
            "distance_km": 1.1,
            "lat": 37.663,
            "lng": 126.762
          }
        ],
        "cafe": [
          {
            "name_en": "La Festa Cafes",
            "spot_tag": "Trendy Cafe",
            "description_en": "Trendy cafes",
            "distance_km": 0.1,
            "lat": 37.6572,
            "lng": 126.771
          },
          {
            "name_en": "Ilsan Lake Park Cafe Street",
            "spot_tag": "Lake View",
            "description_en": "Scenic cafes",
            "distance_km": 1.1,
            "lat": 37.659,
            "lng": 126.76
          }
        ],
        "hotspot": [
          {
            "name_en": "Ilsan Lake Park",
            "spot_tag": "Must Visit",
            "description_en": "Beautiful lake park",
            "distance_km": 1.1,
            "lat": 37.658,
            "lng": 126.759
          },
          {
            "name_en": "One Mount",
            "spot_tag": "Entertainment",
            "description_en": "Theme park",
            "distance_km": 2.1,
            "lat": 37.665,
            "lng": 126.751
          },
          {
            "name_en": "Starfield Goyang",
            "spot_tag": "Shopping",
            "description_en": "Shopping mall",
            "distance_km": 10.9,
            "lat": 37.645,
            "lng": 126.895
          }
        ]
      },
      "map_detail": {
        "hotel": {
          "name_en": "큐브 호텔",
          "lat": 37.6560620136804,
          "lng": 126.77161349546381
        },
        "venue": {
          "name_en": "Goyang Stadium",
          "lat": 37.6556,
          "lng": 126.7714
        },
        "nearby_spots": [
          {
            "name_en": "La Festa Cafes",
            "category": "cafe",
            "spot_tag": "Trendy Cafe",
            "lat": 37.6572,
            "lng": 126.771,
            "distance_km": 0.1
          },
          {
            "name_en": "Ilsan Food Street",
            "category": "restaurant",
            "spot_tag": "Local Eats",
            "lat": 37.658,
            "lng": 126.772,
            "distance_km": 0.2
          },
          {
            "name_en": "La Festa Restaurants",
            "category": "restaurant",
            "spot_tag": "Dining Hub",
            "lat": 37.6575,
            "lng": 126.7705,
            "distance_km": 0.2
          },
          {
            "name_en": "Western Dom Food Court",
            "category": "restaurant",
            "spot_tag": "Food Court",
            "lat": 37.663,
            "lng": 126.762,
            "distance_km": 1.1
          },
          {
            "name_en": "Ilsan Lake Park Cafe Street",
            "category": "cafe",
            "spot_tag": "Lake View",
            "lat": 37.659,
            "lng": 126.76,
            "distance_km": 1.1
          }
        ]
      },
      "platform": {
        "name": "Booking.com",
        "booking_url": "https://www.booking.comhttps://www.booking.com/hotel/kr/cube-busan-gwangyeogsi.ko.html?aid=304142&label=mkt123sc-fb625627-bca1-46ab-a00f-c53653f9d2af&ucfs=1&arphpl=1&checkin=2026-06-11&checkout=2026-06-13&dest_id=-713900&dest_type=city&group_adults=2&req_adults=2&no_rooms=1&group_children=0&req_children=0&hpos=6&hapos=6&sr_order=price&srpvid=1a00f9fccedae77b35cee1c2bb6a6680&srepoch=1770154145&all_sr_blocks=900057001_377638251_2_0_0&highlighted_blocks=900057001_377638251_2_0_0&matching_block_id=900057001_377638251_2_0_0&sr_pri_blocks=900057001_377638251_2_0_0__68181818&from=searchresults"
      },
      "booking_guide": {
        "steps_en": [
          "1. Search Goyang hotels",
          "2. Filter by 'Free Cancellation'",
          "3. Select room and enter info",
          "4. Pay online or at property",
          "5. Show confirmation at check-in"
        ],
        "tips_en": [
          "Genius membership for discounts",
          "Free cancellation options"
        ],
        "payment_methods": [
          "Credit Card",
          "Pay at Property"
        ],
        "foreigner_friendly": true
      },
      "last_update": "2026-02-03 21:29:09",
      "nearby": [
        {
          "id": "hotel_26905",
          "name_en": "하이루프33 Guest House",
          "price_krw": 124,
          "distance_km": 0.1,
          "image_url": "https://cf.bstatic.com/xdata/images/hotel/square240/792881448.webp?k=cbbacade7de683f8fdabf74294c136fa418ea5a26f2c1543e229cf9e827092c6&o="
        },
        {
          "id": "hotel_58977",
          "name_en": "블루모텔",
          "price_krw": 196,
          "distance_km": 0.1,
          "image_url": "https://cf.bstatic.com/xdata/images/hotel/square240/516282052.webp?k=756cb08bd4ab301ae9e0013e0d5e35a917f0179a6d0c78879075e8922a0866a3&o="
        },
        {
          "id": "hotel_64724",
          "name_en": "브라운도트 사직야구장점",
          "price_krw": 310,
          "distance_km": 0.2,
          "image_url": "https://cf.bstatic.com/xdata/images/hotel/square240/492464654.webp?k=e359fb011886d823e0b4d030f29020deb12a77c186c54d7dc0d26b930caf7f7d&o="
        }
      ]
    },
    {
      "id": "hotel_26905",
      "name_en": "하이루프33 Guest House",
      "price_krw": 124,
      "rating": 0,
      "image_url": "https://cf.bstatic.com/xdata/images/hotel/square240/792881448.webp?k=cbbacade7de683f8fdabf74294c136fa418ea5a26f2c1543e229cf9e827092c6&o=",
      "rooms_left": -1,
      "is_available": true,
      "hotel_type": {
        "label_en": "Hotel",
        "color": "#4A90D9"
      },
      "cancellation": {
        "type": "free",
        "label_en": "Free Cancellation",
        "label_kr": "무료 취소",
        "is_refundable": true
      },
      "tags": {
        "list_en": [
          "#FreeCancellation",
          "#ARMYPopular",
          "#WalkToVenue"
        ],
        "list_kr": [
          "#취소가능",
          "#아미인기",
          "#도보가능"
        ],
        "display_en": "#FreeCancellation #ARMYPopular #WalkToVenue",
        "display_kr": "#취소가능 #아미인기 #도보가능"
      },
      "lat": 37.656527772772115,
      "lng": 126.770132504902,
      "location": {
        "area_en": "Busan",
        "area_kr": "부산",
        "address_en": "Busan, Busan",
        "address_kr": "부산 부산"
      },
      "city_key": "busan",
      "army_density": {
        "value": 65,
        "level_en": "High",
        "level_kr": "높음",
        "label_en": "ARMY 65%",
        "label_kr": "아미 65%"
      },
      "distance": {
        "type": "walk",
        "display_en": "Walk 1min",
        "minutes": 1,
        "distance_km": 0.2
      },
      "transport": {
        "station_en": "Jeongbalsan",
        "line_en": "Line 3",
        "line_color": "#EF7C1C",
        "display_en": "Jeongbalsan (Line 3)"
      },
      "safe_return": {
        "venue_en": "Goyang Stadium",
        "route_en": "Walk from Goyang Stadium → Hotel",
        "transport": "walk",
        "time_min": 1,
        "last_train": "23:50",
        "taxi_krw": 0
      },
      "army_local_guide": {
        "bts": [
          {
            "name_en": "MBC Sangam",
            "spot_tag": "Music Show",
            "description_en": "Music show filming",
            "distance_km": 13.8,
            "lat": 37.5786,
            "lng": 126.8918
          },
          {
            "name_en": "Hongdae Busking Street",
            "spot_tag": "Trainee Memory",
            "description_en": "Pre-debut busking spot",
            "distance_km": 17.4,
            "lat": 37.5563,
            "lng": 126.922
          },
          {
            "name_en": "Gwangjang Market",
            "spot_tag": "Debut Memory",
            "description_en": "2013 debut location",
            "distance_km": 23.2,
            "lat": 37.57,
            "lng": 127.0098
          }
        ],
        "restaurant": [
          {
            "name_en": "La Festa Restaurants",
            "spot_tag": "Dining Hub",
            "description_en": "Restaurant complex",
            "distance_km": 0.1,
            "lat": 37.6575,
            "lng": 126.7705
          },
          {
            "name_en": "Ilsan Food Street",
            "spot_tag": "Local Eats",
            "description_en": "Local food street",
            "distance_km": 0.2,
            "lat": 37.658,
            "lng": 126.772
          },
          {
            "name_en": "Western Dom Food Court",
            "spot_tag": "Food Court",
            "description_en": "Food court",
            "distance_km": 1.0,
            "lat": 37.663,
            "lng": 126.762
          }
        ],
        "cafe": [
          {
            "name_en": "La Festa Cafes",
            "spot_tag": "Trendy Cafe",
            "description_en": "Trendy cafes",
            "distance_km": 0.1,
            "lat": 37.6572,
            "lng": 126.771
          },
          {
            "name_en": "Ilsan Lake Park Cafe Street",
            "spot_tag": "Lake View",
            "description_en": "Scenic cafes",
            "distance_km": 0.9,
            "lat": 37.659,
            "lng": 126.76
          }
        ],
        "hotspot": [
          {
            "name_en": "Ilsan Lake Park",
            "spot_tag": "Must Visit",
            "description_en": "Beautiful lake park",
            "distance_km": 1.0,
            "lat": 37.658,
            "lng": 126.759
          },
          {
            "name_en": "One Mount",
            "spot_tag": "Entertainment",
            "description_en": "Theme park",
            "distance_km": 1.9,
            "lat": 37.665,
            "lng": 126.751
          },
          {
            "name_en": "Starfield Goyang",
            "spot_tag": "Shopping",
            "description_en": "Shopping mall",
            "distance_km": 11.1,
            "lat": 37.645,
            "lng": 126.895
          }
        ]
      },
      "map_detail": {
        "hotel": {
          "name_en": "하이루프33 Guest House",
          "lat": 37.656527772772115,
          "lng": 126.770132504902
        },
        "venue": {
          "name_en": "Goyang Stadium",
          "lat": 37.6556,
          "lng": 126.7714
        },
        "nearby_spots": [
          {
            "name_en": "La Festa Restaurants",
            "category": "restaurant",
            "spot_tag": "Dining Hub",
            "lat": 37.6575,
            "lng": 126.7705,
            "distance_km": 0.1
          },
          {
            "name_en": "La Festa Cafes",
            "category": "cafe",
            "spot_tag": "Trendy Cafe",
            "lat": 37.6572,
            "lng": 126.771,
            "distance_km": 0.1
          },
          {
            "name_en": "Ilsan Food Street",
            "category": "restaurant",
            "spot_tag": "Local Eats",
            "lat": 37.658,
            "lng": 126.772,
            "distance_km": 0.2
          },
          {
            "name_en": "Ilsan Lake Park Cafe Street",
            "category": "cafe",
            "spot_tag": "Lake View",
            "lat": 37.659,
            "lng": 126.76,
            "distance_km": 0.9
          },
          {
            "name_en": "Western Dom Food Court",
            "category": "restaurant",
            "spot_tag": "Food Court",
            "lat": 37.663,
            "lng": 126.762,
            "distance_km": 1.0
          }
        ]
      },
      "platform": {
        "name": "Booking.com",
        "booking_url": "https://www.booking.comhttps://www.booking.com/hotel/kr/hairupeu33-rejideonseu-d1-s2-1-sincug-haeundae-1bungeori.ko.html?aid=304142&label=mkt123sc-fb625627-bca1-46ab-a00f-c53653f9d2af&ucfs=1&arphpl=1&checkin=2026-06-11&checkout=2026-06-13&dest_id=-713900&dest_type=city&group_adults=2&req_adults=2&no_rooms=1&group_children=0&req_children=0&hpos=1&hapos=1&sr_order=price&srpvid=1a00f9fccedae77b35cee1c2bb6a6680&srepoch=1770154145&all_sr_blocks=1546365907_425909882_2_0_0&highlighted_blocks=1546365907_425909882_2_0_0&matching_block_id=1546365907_425909882_2_0_0&sr_pri_blocks=1546365907_425909882_2_0_0__36363636&from=searchresults"
      },
      "booking_guide": {
        "steps_en": [
          "1. Search Goyang hotels",
          "2. Filter by 'Free Cancellation'",
          "3. Select room and enter info",
          "4. Pay online or at property",
          "5. Show confirmation at check-in"
        ],
        "tips_en": [
          "Genius membership for discounts",
          "Free cancellation options"
        ],
        "payment_methods": [
          "Credit Card",
          "Pay at Property"
        ],
        "foreigner_friendly": true
      },
      "last_update": "2026-02-03 21:29:09",
      "nearby": [
        {
          "id": "hotel_63658",
          "name_en": "큐브 호텔",
          "price_krw": 233,
          "distance_km": 0.1,
          "image_url": "https://cf.bstatic.com/xdata/images/hotel/square240/388675442.webp?k=7d78587e6c09b5cf1deaac75d1e3e24354e56ee7c10c352fa622c259dd9b8177&o="
        },
        {
          "id": "hotel_58977",
          "name_en": "블루모텔",
          "price_krw": 196,
          "distance_km": 0.2,
          "image_url": "https://cf.bstatic.com/xdata/images/hotel/square240/516282052.webp?k=756cb08bd4ab301ae9e0013e0d5e35a917f0179a6d0c78879075e8922a0866a3&o="
        },
        {
          "id": "hotel_64724",
          "name_en": "브라운도트 사직야구장점",
          "price_krw": 310,
          "distance_km": 0.2,
          "image_url": "https://cf.bstatic.com/xdata/images/hotel/square240/492464654.webp?k=e359fb011886d823e0b4d030f29020deb12a77c186c54d7dc0d26b930caf7f7d&o="
        }
      ]
    },
    {
      "id": "hotel_64724",
      "name_en": "브라운도트 사직야구장점",
      "price_krw": 310,
      "rating": 8.38,
      "image_url": "https://cf.bstatic.com/xdata/images/hotel/square240/492464654.webp?k=e359fb011886d823e0b4d030f29020deb12a77c186c54d7dc0d26b930caf7f7d&o=",
      "rooms_left": -1,
      "is_available": true,
      "hotel_type": {
        "label_en": "Hotel",
        "color": "#4A90D9"
      },
      "cancellation": {
        "type": "free",
        "label_en": "Free Cancellation",
        "label_kr": "무료 취소",
        "is_refundable": true
      },
      "tags": {
        "list_en": [
          "#FreeCancellation",
          "#ARMYPopular",
          "#WalkToVenue"
        ],
        "list_kr": [
          "#취소가능",
          "#아미인기",
          "#도보가능"
        ],
        "display_en": "#FreeCancellation #ARMYPopular #WalkToVenue",
        "display_kr": "#취소가능 #아미인기 #도보가능"
      },
      "lat": 37.65775820859358,
      "lng": 126.77126379961905,
      "location": {
        "area_en": "Busan",
        "area_kr": "부산",
        "address_en": "Busan, Busan",
        "address_kr": "부산 부산"
      },
      "city_key": "busan",
      "army_density": {
        "value": 65,
        "level_en": "High",
        "level_kr": "높음",
        "label_en": "ARMY 65%",
        "label_kr": "아미 65%"
      },
      "distance": {
        "type": "walk",
        "display_en": "Walk 2min",
        "minutes": 2,
        "distance_km": 0.2
      },
      "transport": {
        "station_en": "Jeongbalsan",
        "line_en": "Line 3",
        "line_color": "#EF7C1C",
        "display_en": "Jeongbalsan (Line 3)"
      },
      "safe_return": {
        "venue_en": "Goyang Stadium",
        "route_en": "Walk from Goyang Stadium → Hotel",
        "transport": "walk",
        "time_min": 2,
        "last_train": "23:50",
        "taxi_krw": 0
      },
      "army_local_guide": {
        "bts": [
          {
            "name_en": "MBC Sangam",
            "spot_tag": "Music Show",
            "description_en": "Music show filming",
            "distance_km": 13.8,
            "lat": 37.5786,
            "lng": 126.8918
          },
          {
            "name_en": "Hongdae Busking Street",
            "spot_tag": "Trainee Memory",
            "description_en": "Pre-debut busking spot",
            "distance_km": 17.4,
            "lat": 37.5563,
            "lng": 126.922
          },
          {
            "name_en": "Gwangjang Market",
            "spot_tag": "Debut Memory",
            "description_en": "2013 debut location",
            "distance_km": 23.2,
            "lat": 37.57,
            "lng": 127.0098
          }
        ],
        "restaurant": [
          {
            "name_en": "Ilsan Food Street",
            "spot_tag": "Local Eats",
            "description_en": "Local food street",
            "distance_km": 0.1,
            "lat": 37.658,
            "lng": 126.772
          },
          {
            "name_en": "La Festa Restaurants",
            "spot_tag": "Dining Hub",
            "description_en": "Restaurant complex",
            "distance_km": 0.1,
            "lat": 37.6575,
            "lng": 126.7705
          },
          {
            "name_en": "Western Dom Food Court",
            "spot_tag": "Food Court",
            "description_en": "Food court",
            "distance_km": 1.0,
            "lat": 37.663,
            "lng": 126.762
          }
        ],
        "cafe": [
          {
            "name_en": "La Festa Cafes",
            "spot_tag": "Trendy Cafe",
            "description_en": "Trendy cafes",
            "distance_km": 0.1,
            "lat": 37.6572,
            "lng": 126.771
          },
          {
            "name_en": "Ilsan Lake Park Cafe Street",
            "spot_tag": "Lake View",
            "description_en": "Scenic cafes",
            "distance_km": 1.0,
            "lat": 37.659,
            "lng": 126.76
          }
        ],
        "hotspot": [
          {
            "name_en": "Ilsan Lake Park",
            "spot_tag": "Must Visit",
            "description_en": "Beautiful lake park",
            "distance_km": 1.1,
            "lat": 37.658,
            "lng": 126.759
          },
          {
            "name_en": "One Mount",
            "spot_tag": "Entertainment",
            "description_en": "Theme park",
            "distance_km": 2.0,
            "lat": 37.665,
            "lng": 126.751
          },
          {
            "name_en": "Starfield Goyang",
            "spot_tag": "Shopping",
            "description_en": "Shopping mall",
            "distance_km": 11.0,
            "lat": 37.645,
            "lng": 126.895
          }
        ]
      },
      "map_detail": {
        "hotel": {
          "name_en": "브라운도트 사직야구장점",
          "lat": 37.65775820859358,
          "lng": 126.77126379961905
        },
        "venue": {
          "name_en": "Goyang Stadium",
          "lat": 37.6556,
          "lng": 126.7714
        },
        "nearby_spots": [
          {
            "name_en": "Ilsan Food Street",
            "category": "restaurant",
            "spot_tag": "Local Eats",
            "lat": 37.658,
            "lng": 126.772,
            "distance_km": 0.1
          },
          {
            "name_en": "La Festa Restaurants",
            "category": "restaurant",
            "spot_tag": "Dining Hub",
            "lat": 37.6575,
            "lng": 126.7705,
            "distance_km": 0.1
          },
          {
            "name_en": "La Festa Cafes",
            "category": "cafe",
            "spot_tag": "Trendy Cafe",
            "lat": 37.6572,
            "lng": 126.771,
            "distance_km": 0.1
          },
          {
            "name_en": "Western Dom Food Court",
            "category": "restaurant",
            "spot_tag": "Food Court",
            "lat": 37.663,
            "lng": 126.762,
            "distance_km": 1.0
          },
          {
            "name_en": "Ilsan Lake Park Cafe Street",
            "category": "cafe",
            "spot_tag": "Lake View",
            "lat": 37.659,
            "lng": 126.76,
            "distance_km": 1.0
          }
        ]
      },
      "platform": {
        "name": "Booking.com",
        "booking_url": "https://www.booking.comhttps://www.booking.com/hotel/kr/beuraundoteu-sajigyagujangjeom-busan.ko.html?aid=304142&label=mkt123sc-fb625627-bca1-46ab-a00f-c53653f9d2af&ucfs=1&arphpl=1&checkin=2026-06-11&checkout=2026-06-13&dest_id=-713900&dest_type=city&group_adults=2&req_adults=2&no_rooms=1&group_children=0&req_children=0&hpos=18&hapos=18&sr_order=price&srpvid=1a00f9fccedae77b35cee1c2bb6a6680&srepoch=1770154145&all_sr_blocks=1077140002_380302109_2_1_0&highlighted_blocks=1077140002_380302109_2_1_0&matching_block_id=1077140002_380302109_2_1_0&sr_pri_blocks=1077140002_380302109_2_1_0__90909091&from=searchresults"
      },
      "booking_guide": {
        "steps_en": [
          "1. Search Goyang hotels",
          "2. Filter by 'Free Cancellation'",
          "3. Select room and enter info",
          "4. Pay online or at property",
          "5. Show confirmation at check-in"
        ],
        "tips_en": [
          "Genius membership for discounts",
          "Free cancellation options"
        ],
        "payment_methods": [
          "Credit Card",
          "Pay at Property"
        ],
        "foreigner_friendly": true
      },
      "last_update": "2026-02-03 21:29:09",
      "nearby": [
        {
          "id": "hotel_58977",
          "name_en": "블루모텔",
          "price_krw": 196,
          "distance_km": 0.1,
          "image_url": "https://cf.bstatic.com/xdata/images/hotel/square240/516282052.webp?k=756cb08bd4ab301ae9e0013e0d5e35a917f0179a6d0c78879075e8922a0866a3&o="
        },
        {
          "id": "hotel_26905",
          "name_en": "하이루프33 Guest House",
          "price_krw": 124,
          "distance_km": 0.2,
          "image_url": "https://cf.bstatic.com/xdata/images/hotel/square240/792881448.webp?k=cbbacade7de683f8fdabf74294c136fa418ea5a26f2c1543e229cf9e827092c6&o="
        },
        {
          "id": "hotel_63658",
          "name_en": "큐브 호텔",
          "price_krw": 233,
          "distance_km": 0.2,
          "image_url": "https://cf.bstatic.com/xdata/images/hotel/square240/388675442.webp?k=7d78587e6c09b5cf1deaac75d1e3e24354e56ee7c10c352fa622c259dd9b8177&o="
        }
      ]
    },
    {
      "id": "hotel_94471",
      "name_en": "엘모멘토 오시리아",
      "price_krw": 313,
      "rating": 8.78,
      "image_url": "https://cf.bstatic.com/xdata/images/hotel/square240/487544692.webp?k=4e263cca54514805e93172a96d5874a80db92e961926f0fc8c471db243cd60f0&o=",
      "rooms_left": -1,
      "is_available": true,
      "hotel_type": {
        "label_en": "Hotel",
        "color": "#4A90D9"
      },
      "cancellation": {
        "type": "free",
        "label_en": "Free Cancellation",
        "label_kr": "무료 취소",
        "is_refundable": true
      },
      "tags": {
        "list_en": [
          "#FreeCancellation",
          "#ARMYPopular",
          "#WalkToVenue"
        ],
        "list_kr": [
          "#취소가능",
          "#아미인기",
          "#도보가능"
        ],
        "display_en": "#FreeCancellation #ARMYPopular #WalkToVenue",
        "display_kr": "#취소가능 #아미인기 #도보가능"
      },
      "lat": 37.655972722055175,
      "lng": 126.7676918669243,
      "location": {
        "area_en": "Busan",
        "area_kr": "부산",
        "address_en": "Busan, Busan",
        "address_kr": "부산 부산"
      },
      "city_key": "busan",
      "army_density": {
        "value": 65,
        "level_en": "High",
        "level_kr": "높음",
        "label_en": "ARMY 65%",
        "label_kr": "아미 65%"
      },
      "distance": {
        "type": "walk",
        "display_en": "Walk 3min",
        "minutes": 3,
        "distance_km": 0.3
      },
      "transport": {
        "station_en": "Jeongbalsan",
        "line_en": "Line 3",
        "line_color": "#EF7C1C",
        "display_en": "Jeongbalsan (Line 3)"
      },
      "safe_return": {
        "venue_en": "Goyang Stadium",
        "route_en": "Walk from Goyang Stadium → Hotel",
        "transport": "walk",
        "time_min": 3,
        "last_train": "23:50",
        "taxi_krw": 0
      },
      "army_local_guide": {
        "bts": [
          {
            "name_en": "MBC Sangam",
            "spot_tag": "Music Show",
            "description_en": "Music show filming",
            "distance_km": 13.9,
            "lat": 37.5786,
            "lng": 126.8918
          },
          {
            "name_en": "Hongdae Busking Street",
            "spot_tag": "Trainee Memory",
            "description_en": "Pre-debut busking spot",
            "distance_km": 17.5,
            "lat": 37.5563,
            "lng": 126.922
          },
          {
            "name_en": "Gwangjang Market",
            "spot_tag": "Debut Memory",
            "description_en": "2013 debut location",
            "distance_km": 23.4,
            "lat": 37.57,
            "lng": 127.0098
          }
        ],
        "restaurant": [
          {
            "name_en": "La Festa Restaurants",
            "spot_tag": "Dining Hub",
            "description_en": "Restaurant complex",
            "distance_km": 0.3,
            "lat": 37.6575,
            "lng": 126.7705
          },
          {
            "name_en": "Ilsan Food Street",
            "spot_tag": "Local Eats",
            "description_en": "Local food street",
            "distance_km": 0.4,
            "lat": 37.658,
            "lng": 126.772
          },
          {
            "name_en": "Western Dom Food Court",
            "spot_tag": "Food Court",
            "description_en": "Food court",
            "distance_km": 0.9,
            "lat": 37.663,
            "lng": 126.762
          }
        ],
        "cafe": [
          {
            "name_en": "La Festa Cafes",
            "spot_tag": "Trendy Cafe",
            "description_en": "Trendy cafes",
            "distance_km": 0.3,
            "lat": 37.6572,
            "lng": 126.771
          },
          {
            "name_en": "Ilsan Lake Park Cafe Street",
            "spot_tag": "Lake View",
            "description_en": "Scenic cafes",
            "distance_km": 0.8,
            "lat": 37.659,
            "lng": 126.76
          }
        ],
        "hotspot": [
          {
            "name_en": "Ilsan Lake Park",
            "spot_tag": "Must Visit",
            "description_en": "Beautiful lake park",
            "distance_km": 0.8,
            "lat": 37.658,
            "lng": 126.759
          },
          {
            "name_en": "One Mount",
            "spot_tag": "Entertainment",
            "description_en": "Theme park",
            "distance_km": 1.8,
            "lat": 37.665,
            "lng": 126.751
          },
          {
            "name_en": "Starfield Goyang",
            "spot_tag": "Shopping",
            "description_en": "Shopping mall",
            "distance_km": 11.3,
            "lat": 37.645,
            "lng": 126.895
          }
        ]
      },
      "map_detail": {
        "hotel": {
          "name_en": "엘모멘토 오시리아",
          "lat": 37.655972722055175,
          "lng": 126.7676918669243
        },
        "venue": {
          "name_en": "Goyang Stadium",
          "lat": 37.6556,
          "lng": 126.7714
        },
        "nearby_spots": [
          {
            "name_en": "La Festa Restaurants",
            "category": "restaurant",
            "spot_tag": "Dining Hub",
            "lat": 37.6575,
            "lng": 126.7705,
            "distance_km": 0.3
          },
          {
            "name_en": "La Festa Cafes",
            "category": "cafe",
            "spot_tag": "Trendy Cafe",
            "lat": 37.6572,
            "lng": 126.771,
            "distance_km": 0.3
          },
          {
            "name_en": "Ilsan Food Street",
            "category": "restaurant",
            "spot_tag": "Local Eats",
            "lat": 37.658,
            "lng": 126.772,
            "distance_km": 0.4
          },
          {
            "name_en": "Ilsan Lake Park Cafe Street",
            "category": "cafe",
            "spot_tag": "Lake View",
            "lat": 37.659,
            "lng": 126.76,
            "distance_km": 0.8
          },
          {
            "name_en": "Ilsan Lake Park",
            "category": "hotspot",
            "spot_tag": "Must Visit",
            "lat": 37.658,
            "lng": 126.759,
            "distance_km": 0.8
          }
        ]
      },
      "platform": {
        "name": "Booking.com",
        "booking_url": "https://www.booking.comhttps://www.booking.com/hotel/kr/sota-collection-the-osiria.ko.html?aid=304142&label=mkt123sc-fb625627-bca1-46ab-a00f-c53653f9d2af&ucfs=1&arphpl=1&checkin=2026-06-11&checkout=2026-06-13&dest_id=-713900&dest_type=city&group_adults=2&req_adults=2&no_rooms=1&group_children=0&req_children=0&hpos=20&hapos=20&sr_order=price&srpvid=1a00f9fccedae77b35cee1c2bb6a6680&srepoch=1770154145&all_sr_blocks=910581101_411021663_4_0_0&highlighted_blocks=910581101_411021663_4_0_0&matching_block_id=910581101_411021663_4_0_0&sr_pri_blocks=910581101_411021663_4_0_0__91554545&from=searchresults"
      },
      "booking_guide": {
        "steps_en": [
          "1. Search Goyang hotels",
          "2. Filter by 'Free Cancellation'",
          "3. Select room and enter info",
          "4. Pay online or at property",
          "5. Show confirmation at check-in"
        ],
        "tips_en": [
          "Genius membership for discounts",
          "Free cancellation options"
        ],
        "payment_methods": [
          "Credit Card",
          "Pay at Property"
        ],
        "foreigner_friendly": true
      },
      "last_update": "2026-02-03 21:29:09",
      "nearby": [
        {
          "id": "hotel_19968",
          "name_en": "6번가 스테이",
          "price_krw": 279,
          "distance_km": 0.1,
          "image_url": "https://cf.bstatic.com/xdata/images/hotel/square240/757438729.webp?k=d48acdbd99c7c017e82c0e9741ed45e4c8f205673d2d4a7cc8d0d15af02f2a92&o="
        },
        {
          "id": "hotel_26905",
          "name_en": "하이루프33 Guest House",
          "price_krw": 124,
          "distance_km": 0.2,
          "image_url": "https://cf.bstatic.com/xdata/images/hotel/square240/792881448.webp?k=cbbacade7de683f8fdabf74294c136fa418ea5a26f2c1543e229cf9e827092c6&o="
        },
        {
          "id": "hotel_55618",
          "name_en": "Shire Hotel Heritage Busan Station",
          "price_krw": 181,
          "distance_km": 0.3,
          "image_url": "https://cf.bstatic.com/xdata/images/hotel/square240/794728611.webp?k=ee35082267610dfec1572d39c2286cad9a3925c74dac5eb09729023263ce7f72&o="
        }
      ]
    },
    {
      "id": "hotel_71186",
      "name_en": "엘모멘토 송도",
      "price_krw": 268,
      "rating": 9.19,
      "image_url": "https://cf.bstatic.com/xdata/images/hotel/square240/582995875.webp?k=2c7789027c8f8452a701cf38931dfe114743f4d45d493af4056c10af925900e0&o=",
      "rooms_left": -1,
      "is_available": true,
      "hotel_type": {
        "label_en": "Hotel",
        "color": "#4A90D9"
      },
      "cancellation": {
        "type": "free",
        "label_en": "Free Cancellation",
        "label_kr": "무료 취소",
        "is_refundable": true
      },
      "tags": {
        "list_en": [
          "#FreeCancellation",
          "#ARMYPopular",
          "#WalkToVenue"
        ],
        "list_kr": [
          "#취소가능",
          "#아미인기",
          "#도보가능"
        ],
        "display_en": "#FreeCancellation #ARMYPopular #WalkToVenue",
        "display_kr": "#취소가능 #아미인기 #도보가능"
      },
      "lat": 37.653507276183745,
      "lng": 126.77508018334015,
      "location": {
        "area_en": "Busan",
        "area_kr": "부산",
        "address_en": "Busan, Busan",
        "address_kr": "부산 부산"
      },
      "city_key": "busan",
      "army_density": {
        "value": 65,
        "level_en": "High",
        "level_kr": "높음",
        "label_en": "ARMY 65%",
        "label_kr": "아미 65%"
      },
      "distance": {
        "type": "walk",
        "display_en": "Walk 4min",
        "minutes": 4,
        "distance_km": 0.4
      },
      "transport": {
        "station_en": "Jeongbalsan",
        "line_en": "Line 3",
        "line_color": "#EF7C1C",
        "display_en": "Jeongbalsan (Line 3)"
      },
      "safe_return": {
        "venue_en": "Goyang Stadium",
        "route_en": "Walk from Goyang Stadium → Hotel",
        "transport": "walk",
        "time_min": 4,
        "last_train": "23:50",
        "taxi_krw": 0
      },
      "army_local_guide": {
        "bts": [
          {
            "name_en": "MBC Sangam",
            "spot_tag": "Music Show",
            "description_en": "Music show filming",
            "distance_km": 13.2,
            "lat": 37.5786,
            "lng": 126.8918
          },
          {
            "name_en": "Hongdae Busking Street",
            "spot_tag": "Trainee Memory",
            "description_en": "Pre-debut busking spot",
            "distance_km": 16.9,
            "lat": 37.5563,
            "lng": 126.922
          },
          {
            "name_en": "Gwangjang Market",
            "spot_tag": "Debut Memory",
            "description_en": "2013 debut location",
            "distance_km": 22.7,
            "lat": 37.57,
            "lng": 127.0098
          }
        ],
        "restaurant": [
          {
            "name_en": "Ilsan Food Street",
            "spot_tag": "Local Eats",
            "description_en": "Local food street",
            "distance_km": 0.6,
            "lat": 37.658,
            "lng": 126.772
          },
          {
            "name_en": "La Festa Restaurants",
            "spot_tag": "Dining Hub",
            "description_en": "Restaurant complex",
            "distance_km": 0.6,
            "lat": 37.6575,
            "lng": 126.7705
          },
          {
            "name_en": "Western Dom Food Court",
            "spot_tag": "Food Court",
            "description_en": "Food court",
            "distance_km": 1.6,
            "lat": 37.663,
            "lng": 126.762
          }
        ],
        "cafe": [
          {
            "name_en": "La Festa Cafes",
            "spot_tag": "Trendy Cafe",
            "description_en": "Trendy cafes",
            "distance_km": 0.5,
            "lat": 37.6572,
            "lng": 126.771
          },
          {
            "name_en": "Ilsan Lake Park Cafe Street",
            "spot_tag": "Lake View",
            "description_en": "Scenic cafes",
            "distance_km": 1.5,
            "lat": 37.659,
            "lng": 126.76
          }
        ],
        "hotspot": [
          {
            "name_en": "Ilsan Lake Park",
            "spot_tag": "Must Visit",
            "description_en": "Beautiful lake park",
            "distance_km": 1.5,
            "lat": 37.658,
            "lng": 126.759
          },
          {
            "name_en": "One Mount",
            "spot_tag": "Entertainment",
            "description_en": "Theme park",
            "distance_km": 2.5,
            "lat": 37.665,
            "lng": 126.751
          },
          {
            "name_en": "Starfield Goyang",
            "spot_tag": "Shopping",
            "description_en": "Shopping mall",
            "distance_km": 10.6,
            "lat": 37.645,
            "lng": 126.895
          }
        ]
      },
      "map_detail": {
        "hotel": {
          "name_en": "엘모멘토 송도",
          "lat": 37.653507276183745,
          "lng": 126.77508018334015
        },
        "venue": {
          "name_en": "Goyang Stadium",
          "lat": 37.6556,
          "lng": 126.7714
        },
        "nearby_spots": [
          {
            "name_en": "La Festa Cafes",
            "category": "cafe",
            "spot_tag": "Trendy Cafe",
            "lat": 37.6572,
            "lng": 126.771,
            "distance_km": 0.5
          },
          {
            "name_en": "Ilsan Food Street",
            "category": "restaurant",
            "spot_tag": "Local Eats",
            "lat": 37.658,
            "lng": 126.772,
            "distance_km": 0.6
          },
          {
            "name_en": "La Festa Restaurants",
            "category": "restaurant",
            "spot_tag": "Dining Hub",
            "lat": 37.6575,
            "lng": 126.7705,
            "distance_km": 0.6
          },
          {
            "name_en": "Ilsan Lake Park Cafe Street",
            "category": "cafe",
            "spot_tag": "Lake View",
            "lat": 37.659,
            "lng": 126.76,
            "distance_km": 1.5
          },
          {
            "name_en": "Ilsan Lake Park",
            "category": "hotspot",
            "spot_tag": "Must Visit",
            "lat": 37.658,
            "lng": 126.759,
            "distance_km": 1.5
          }
        ]
      },
      "platform": {
        "name": "Booking.com",
        "booking_url": "https://www.booking.comhttps://www.booking.com/hotel/kr/elmomento-songdo.ko.html?aid=304142&label=mkt123sc-fb625627-bca1-46ab-a00f-c53653f9d2af&ucfs=1&arphpl=1&checkin=2026-06-11&checkout=2026-06-13&dest_id=-713900&dest_type=city&group_adults=2&req_adults=2&no_rooms=1&group_children=0&req_children=0&hpos=12&hapos=12&sr_order=price&srpvid=1a00f9fccedae77b35cee1c2bb6a6680&srepoch=1770154145&all_sr_blocks=1252007302_411021631_2_2_0&highlighted_blocks=1252007302_411021631_2_2_0&matching_block_id=1252007302_411021631_2_2_0&sr_pri_blocks=1252007302_411021631_2_2_0__78381818&from=searchresults"
      },
      "booking_guide": {
        "steps_en": [
          "1. Search Goyang hotels",
          "2. Filter by 'Free Cancellation'",
          "3. Select room and enter info",
          "4. Pay online or at property",
          "5. Show confirmation at check-in"
        ],
        "tips_en": [
          "Genius membership for discounts",
          "Free cancellation options"
        ],
        "payment_methods": [
          "Credit Card",
          "Pay at Property"
        ],
        "foreigner_friendly": true
      },
      "last_update": "2026-02-03 21:29:09",
      "nearby": [
        {
          "id": "hotel_94670",
          "name_en": "기장 하운드호텔 일광점",
          "price_krw": 251,
          "distance_km": 0.3,
          "image_url": "https://cf.bstatic.com/xdata/images/hotel/square240/272313819.webp?k=269c082f13bf586d55271676736d5426f2520b147972af161aa0bf57e811973e&o="
        },
        {
          "id": "hotel_58977",
          "name_en": "블루모텔",
          "price_krw": 196,
          "distance_km": 0.4,
          "image_url": "https://cf.bstatic.com/xdata/images/hotel/square240/516282052.webp?k=756cb08bd4ab301ae9e0013e0d5e35a917f0179a6d0c78879075e8922a0866a3&o="
        },
        {
          "id": "hotel_63658",
          "name_en": "큐브 호텔",
          "price_krw": 233,
          "distance_km": 0.4,
          "image_url": "https://cf.bstatic.com/xdata/images/hotel/square240/388675442.webp?k=7d78587e6c09b5cf1deaac75d1e3e24354e56ee7c10c352fa622c259dd9b8177&o="
        }
      ]
    },
    {
      "id": "hotel_19968",
      "name_en": "6번가 스테이",
      "price_krw": 279,
      "rating": 4.84,
      "image_url": "https://cf.bstatic.com/xdata/images/hotel/square240/757438729.webp?k=d48acdbd99c7c017e82c0e9741ed45e4c8f205673d2d4a7cc8d0d15af02f2a92&o=",
      "rooms_left": -1,
      "is_available": true,
      "hotel_type": {
        "label_en": "Hotel",
        "color": "#4A90D9"
      },
      "cancellation": {
        "type": "free",
        "label_en": "Free Cancellation",
        "label_kr": "무료 취소",
        "is_refundable": true
      },
      "tags": {
        "list_en": [
          "#FreeCancellation",
          "#ARMYPopular",
          "#WalkToVenue"
        ],
        "list_kr": [
          "#취소가능",
          "#아미인기",
          "#도보가능"
        ],
        "display_en": "#FreeCancellation #ARMYPopular #WalkToVenue",
        "display_kr": "#취소가능 #아미인기 #도보가능"
      },
      "lat": 37.65515567004007,
      "lng": 126.76659948671616,
      "location": {
        "area_en": "Busan",
        "area_kr": "부산",
        "address_en": "Busan, Busan",
        "address_kr": "부산 부산"
      },
      "city_key": "busan",
      "army_density": {
        "value": 65,
        "level_en": "High",
        "level_kr": "높음",
        "label_en": "ARMY 65%",
        "label_kr": "아미 65%"
      },
      "distance": {
        "type": "walk",
        "display_en": "Walk 5min",
        "minutes": 5,
        "distance_km": 0.4
      },
      "transport": {
        "station_en": "Jeongbalsan",
        "line_en": "Line 3",
        "line_color": "#EF7C1C",
        "display_en": "Jeongbalsan (Line 3)"
      },
      "safe_return": {
        "venue_en": "Goyang Stadium",
        "route_en": "Walk from Goyang Stadium → Hotel",
        "transport": "walk",
        "time_min": 5,
        "last_train": "23:50",
        "taxi_krw": 0
      },
      "army_local_guide": {
        "bts": [
          {
            "name_en": "MBC Sangam",
            "spot_tag": "Music Show",
            "description_en": "Music show filming",
            "distance_km": 13.9,
            "lat": 37.5786,
            "lng": 126.8918
          },
          {
            "name_en": "Hongdae Busking Street",
            "spot_tag": "Trainee Memory",
            "description_en": "Pre-debut busking spot",
            "distance_km": 17.6,
            "lat": 37.5563,
            "lng": 126.922
          },
          {
            "name_en": "Gwangjang Market",
            "spot_tag": "Debut Memory",
            "description_en": "2013 debut location",
            "distance_km": 23.4,
            "lat": 37.57,
            "lng": 127.0098
          }
        ],
        "restaurant": [
          {
            "name_en": "La Festa Restaurants",
            "spot_tag": "Dining Hub",
            "description_en": "Restaurant complex",
            "distance_km": 0.4,
            "lat": 37.6575,
            "lng": 126.7705
          },
          {
            "name_en": "Ilsan Food Street",
            "spot_tag": "Local Eats",
            "description_en": "Local food street",
            "distance_km": 0.6,
            "lat": 37.658,
            "lng": 126.772
          },
          {
            "name_en": "Western Dom Food Court",
            "spot_tag": "Food Court",
            "description_en": "Food court",
            "distance_km": 1.0,
            "lat": 37.663,
            "lng": 126.762
          }
        ],
        "cafe": [
          {
            "name_en": "La Festa Cafes",
            "spot_tag": "Trendy Cafe",
            "description_en": "Trendy cafes",
            "distance_km": 0.4,
            "lat": 37.6572,
            "lng": 126.771
          },
          {
            "name_en": "Ilsan Lake Park Cafe Street",
            "spot_tag": "Lake View",
            "description_en": "Scenic cafes",
            "distance_km": 0.7,
            "lat": 37.659,
            "lng": 126.76
          }
        ],
        "hotspot": [
          {
            "name_en": "Ilsan Lake Park",
            "spot_tag": "Must Visit",
            "description_en": "Beautiful lake park",
            "distance_km": 0.7,
            "lat": 37.658,
            "lng": 126.759
          },
          {
            "name_en": "One Mount",
            "spot_tag": "Entertainment",
            "description_en": "Theme park",
            "distance_km": 1.8,
            "lat": 37.665,
            "lng": 126.751
          },
          {
            "name_en": "Starfield Goyang",
            "spot_tag": "Shopping",
            "description_en": "Shopping mall",
            "distance_km": 11.4,
            "lat": 37.645,
            "lng": 126.895
          }
        ]
      },
      "map_detail": {
        "hotel": {
          "name_en": "6번가 스테이",
          "lat": 37.65515567004007,
          "lng": 126.76659948671616
        },
        "venue": {
          "name_en": "Goyang Stadium",
          "lat": 37.6556,
          "lng": 126.7714
        },
        "nearby_spots": [
          {
            "name_en": "La Festa Restaurants",
            "category": "restaurant",
            "spot_tag": "Dining Hub",
            "lat": 37.6575,
            "lng": 126.7705,
            "distance_km": 0.4
          },
          {
            "name_en": "La Festa Cafes",
            "category": "cafe",
            "spot_tag": "Trendy Cafe",
            "lat": 37.6572,
            "lng": 126.771,
            "distance_km": 0.4
          },
          {
            "name_en": "Ilsan Food Street",
            "category": "restaurant",
            "spot_tag": "Local Eats",
            "lat": 37.658,
            "lng": 126.772,
            "distance_km": 0.6
          },
          {
            "name_en": "Ilsan Lake Park Cafe Street",
            "category": "cafe",
            "spot_tag": "Lake View",
            "lat": 37.659,
            "lng": 126.76,
            "distance_km": 0.7
          },
          {
            "name_en": "Ilsan Lake Park",
            "category": "hotspot",
            "spot_tag": "Must Visit",
            "lat": 37.658,
            "lng": 126.759,
            "distance_km": 0.7
          }
        ]
      },
      "platform": {
        "name": "Booking.com",
        "booking_url": "https://www.booking.comhttps://www.booking.com/hotel/kr/6beonga-seutei.ko.html?aid=304142&label=mkt123sc-fb625627-bca1-46ab-a00f-c53653f9d2af&ucfs=1&arphpl=1&checkin=2026-06-11&checkout=2026-06-13&dest_id=-713900&dest_type=city&group_adults=2&req_adults=2&no_rooms=1&group_children=0&req_children=0&hpos=19&hapos=19&sr_order=price&srpvid=1a00f9fccedae77b35cee1c2bb6a6680&srepoch=1770154145&all_sr_blocks=1503883101_422107495_2_0_0&highlighted_blocks=1503883101_422107495_2_0_0&matching_block_id=1503883101_422107495_2_0_0&sr_pri_blocks=1503883101_422107495_2_0_0__81818182&from=searchresults"
      },
      "booking_guide": {
        "steps_en": [
          "1. Search Goyang hotels",
          "2. Filter by 'Free Cancellation'",
          "3. Select room and enter info",
          "4. Pay online or at property",
          "5. Show confirmation at check-in"
        ],
        "tips_en": [
          "Genius membership for discounts",
          "Free cancellation options"
        ],
        "payment_methods": [
          "Credit Card",
          "Pay at Property"
        ],
        "foreigner_friendly": true
      },
      "last_update": "2026-02-03 21:29:09",
      "nearby": [
        {
          "id": "hotel_94471",
          "name_en": "엘모멘토 오시리아",
          "price_krw": 313,
          "distance_km": 0.1,
          "image_url": "https://cf.bstatic.com/xdata/images/hotel/square240/487544692.webp?k=4e263cca54514805e93172a96d5874a80db92e961926f0fc8c471db243cd60f0&o="
        },
        {
          "id": "hotel_26905",
          "name_en": "하이루프33 Guest House",
          "price_krw": 124,
          "distance_km": 0.3,
          "image_url": "https://cf.bstatic.com/xdata/images/hotel/square240/792881448.webp?k=cbbacade7de683f8fdabf74294c136fa418ea5a26f2c1543e229cf9e827092c6&o="
        },
        {
          "id": "hotel_55618",
          "name_en": "Shire Hotel Heritage Busan Station",
          "price_krw": 181,
          "distance_km": 0.3,
          "image_url": "https://cf.bstatic.com/xdata/images/hotel/square240/794728611.webp?k=ee35082267610dfec1572d39c2286cad9a3925c74dac5eb09729023263ce7f72&o="
        }
      ]
    },
    {
      "id": "hotel_55618",
      "name_en": "Shire Hotel Heritage Busan Station",
      "price_krw": 181,
      "rating": 8.08,
      "image_url": "https://cf.bstatic.com/xdata/images/hotel/square240/794728611.webp?k=ee35082267610dfec1572d39c2286cad9a3925c74dac5eb09729023263ce7f72&o=",
      "rooms_left": -1,
      "is_available": true,
      "hotel_type": {
        "label_en": "Hotel",
        "color": "#4A90D9"
      },
      "cancellation": {
        "type": "free",
        "label_en": "Free Cancellation",
        "label_kr": "무료 취소",
        "is_refundable": true
      },
      "tags": {
        "list_en": [
          "#FreeCancellation",
          "#ARMYPopular",
          "#WalkToVenue"
        ],
        "list_kr": [
          "#취소가능",
          "#아미인기",
          "#도보가능"
        ],
        "display_en": "#FreeCancellation #ARMYPopular #WalkToVenue",
        "display_kr": "#취소가능 #아미인기 #도보가능"
      },
      "lat": 37.65815173113528,
      "lng": 126.76664335573552,
      "location": {
        "area_en": "Busan",
        "area_kr": "부산",
        "address_en": "Busan, Busan",
        "address_kr": "부산 부산"
      },
      "city_key": "busan",
      "army_density": {
        "value": 65,
        "level_en": "High",
        "level_kr": "높음",
        "label_en": "ARMY 65%",
        "label_kr": "아미 65%"
      },
      "distance": {
        "type": "walk",
        "display_en": "Walk 6min",
        "minutes": 6,
        "distance_km": 0.5
      },
      "transport": {
        "station_en": "Jeongbalsan",
        "line_en": "Line 3",
        "line_color": "#EF7C1C",
        "display_en": "Jeongbalsan (Line 3)"
      },
      "safe_return": {
        "venue_en": "Goyang Stadium",
        "route_en": "Walk from Goyang Stadium → Hotel",
        "transport": "walk",
        "time_min": 6,
        "last_train": "23:50",
        "taxi_krw": 0
      },
      "army_local_guide": {
        "bts": [
          {
            "name_en": "MBC Sangam",
            "spot_tag": "Music Show",
            "description_en": "Music show filming",
            "distance_km": 14.1,
            "lat": 37.5786,
            "lng": 126.8918
          },
          {
            "name_en": "Hongdae Busking Street",
            "spot_tag": "Trainee Memory",
            "description_en": "Pre-debut busking spot",
            "distance_km": 17.8,
            "lat": 37.5563,
            "lng": 126.922
          },
          {
            "name_en": "Gwangjang Market",
            "spot_tag": "Debut Memory",
            "description_en": "2013 debut location",
            "distance_km": 23.6,
            "lat": 37.57,
            "lng": 127.0098
          }
        ],
        "restaurant": [
          {
            "name_en": "La Festa Restaurants",
            "spot_tag": "Dining Hub",
            "description_en": "Restaurant complex",
            "distance_km": 0.3,
            "lat": 37.6575,
            "lng": 126.7705
          },
          {
            "name_en": "Ilsan Food Street",
            "spot_tag": "Local Eats",
            "description_en": "Local food street",
            "distance_km": 0.5,
            "lat": 37.658,
            "lng": 126.772
          },
          {
            "name_en": "Western Dom Food Court",
            "spot_tag": "Food Court",
            "description_en": "Food court",
            "distance_km": 0.7,
            "lat": 37.663,
            "lng": 126.762
          }
        ],
        "cafe": [
          {
            "name_en": "La Festa Cafes",
            "spot_tag": "Trendy Cafe",
            "description_en": "Trendy cafes",
            "distance_km": 0.4,
            "lat": 37.6572,
            "lng": 126.771
          },
          {
            "name_en": "Ilsan Lake Park Cafe Street",
            "spot_tag": "Lake View",
            "description_en": "Scenic cafes",
            "distance_km": 0.6,
            "lat": 37.659,
            "lng": 126.76
          }
        ],
        "hotspot": [
          {
            "name_en": "Ilsan Lake Park",
            "spot_tag": "Must Visit",
            "description_en": "Beautiful lake park",
            "distance_km": 0.7,
            "lat": 37.658,
            "lng": 126.759
          },
          {
            "name_en": "One Mount",
            "spot_tag": "Entertainment",
            "description_en": "Theme park",
            "distance_km": 1.6,
            "lat": 37.665,
            "lng": 126.751
          },
          {
            "name_en": "Starfield Goyang",
            "spot_tag": "Shopping",
            "description_en": "Shopping mall",
            "distance_km": 11.4,
            "lat": 37.645,
            "lng": 126.895
          }
        ]
      },
      "map_detail": {
        "hotel": {
          "name_en": "Shire Hotel Heritage Busan Station",
          "lat": 37.65815173113528,
          "lng": 126.76664335573552
        },
        "venue": {
          "name_en": "Goyang Stadium",
          "lat": 37.6556,
          "lng": 126.7714
        },
        "nearby_spots": [
          {
            "name_en": "La Festa Restaurants",
            "category": "restaurant",
            "spot_tag": "Dining Hub",
            "lat": 37.6575,
            "lng": 126.7705,
            "distance_km": 0.3
          },
          {
            "name_en": "La Festa Cafes",
            "category": "cafe",
            "spot_tag": "Trendy Cafe",
            "lat": 37.6572,
            "lng": 126.771,
            "distance_km": 0.4
          },
          {
            "name_en": "Ilsan Food Street",
            "category": "restaurant",
            "spot_tag": "Local Eats",
            "lat": 37.658,
            "lng": 126.772,
            "distance_km": 0.5
          },
          {
            "name_en": "Ilsan Lake Park Cafe Street",
            "category": "cafe",
            "spot_tag": "Lake View",
            "lat": 37.659,
            "lng": 126.76,
            "distance_km": 0.6
          },
          {
            "name_en": "Western Dom Food Court",
            "category": "restaurant",
            "spot_tag": "Food Court",
            "lat": 37.663,
            "lng": 126.762,
            "distance_km": 0.7
          }
        ]
      },
      "platform": {
        "name": "Booking.com",
        "booking_url": "https://www.booking.comhttps://www.booking.com/hotel/kr/syaieohotel-busanyeog-busan.ko.html?aid=304142&label=mkt123sc-fb625627-bca1-46ab-a00f-c53653f9d2af&ucfs=1&arphpl=1&checkin=2026-06-11&checkout=2026-06-13&dest_id=-713900&dest_type=city&group_adults=2&req_adults=2&no_rooms=1&group_children=0&req_children=0&hpos=4&hapos=4&sr_order=price&srpvid=1a00f9fccedae77b35cee1c2bb6a6680&srepoch=1770154145&all_sr_blocks=0_0_2_0_0&highlighted_blocks=0_0_2_0_0&matching_block_id=0_0_2_0_0&sr_pri_blocks=0_0_2_0_0__57740132&from=searchresults"
      },
      "booking_guide": {
        "steps_en": [
          "1. Search Goyang hotels",
          "2. Filter by 'Free Cancellation'",
          "3. Select room and enter info",
          "4. Pay online or at property",
          "5. Show confirmation at check-in"
        ],
        "tips_en": [
          "Genius membership for discounts",
          "Free cancellation options"
        ],
        "payment_methods": [
          "Credit Card",
          "Pay at Property"
        ],
        "foreigner_friendly": true
      },
      "last_update": "2026-02-03 21:29:09",
      "nearby": [
        {
          "id": "hotel_19968",
          "name_en": "6번가 스테이",
          "price_krw": 279,
          "distance_km": 0.3,
          "image_url": "https://cf.bstatic.com/xdata/images/hotel/square240/757438729.webp?k=d48acdbd99c7c017e82c0e9741ed45e4c8f205673d2d4a7cc8d0d15af02f2a92&o="
        },
        {
          "id": "hotel_94471",
          "name_en": "엘모멘토 오시리아",
          "price_krw": 313,
          "distance_km": 0.3,
          "image_url": "https://cf.bstatic.com/xdata/images/hotel/square240/487544692.webp?k=4e263cca54514805e93172a96d5874a80db92e961926f0fc8c471db243cd60f0&o="
        },
        {
          "id": "hotel_72677",
          "name_en": "노스하버호텔",
          "price_krw": 320,
          "distance_km": 0.3,
          "image_url": "https://cf.bstatic.com/xdata/images/hotel/square240/603749266.webp?k=cb6f684ece87cdc950de47c35916a9713853802744e336645ad1e54e1fd21eda&o="
        }
      ]
    },
    {
      "id": "hotel_69379",
      "name_en": "Shire Hotel Signature Seomyeon",
      "price_krw": 164,
      "rating": 8.28,
      "image_url": "https://cf.bstatic.com/xdata/images/hotel/square240/507241504.webp?k=e453411a45c9e28e83be19585d504d03570933f9393288ac756199d2d43f13d5&o=",
      "rooms_left": -1,
      "is_available": true,
      "hotel_type": {
        "label_en": "Hotel",
        "color": "#4A90D9"
      },
      "cancellation": {
        "type": "free",
        "label_en": "Free Cancellation",
        "label_kr": "무료 취소",
        "is_refundable": true
      },
      "tags": {
        "list_en": [
          "#FreeCancellation",
          "#ARMYPopular",
          "#WalkToVenue"
        ],
        "list_kr": [
          "#취소가능",
          "#아미인기",
          "#도보가능"
        ],
        "display_en": "#FreeCancellation #ARMYPopular #WalkToVenue",
        "display_kr": "#취소가능 #아미인기 #도보가능"
      },
      "lat": 37.66074307993267,
      "lng": 126.77266691593444,
      "location": {
        "area_en": "Busan",
        "area_kr": "부산",
        "address_en": "Busan, Busan",
        "address_kr": "부산 부산"
      },
      "city_key": "busan",
      "army_density": {
        "value": 65,
        "level_en": "High",
        "level_kr": "높음",
        "label_en": "ARMY 65%",
        "label_kr": "아미 65%"
      },
      "distance": {
        "type": "walk",
        "display_en": "Walk 6min",
        "minutes": 6,
        "distance_km": 0.6
      },
      "transport": {
        "station_en": "Jeongbalsan",
        "line_en": "Line 3",
        "line_color": "#EF7C1C",
        "display_en": "Jeongbalsan (Line 3)"
      },
      "safe_return": {
        "venue_en": "Goyang Stadium",
        "route_en": "Walk from Goyang Stadium → Hotel",
        "transport": "walk",
        "time_min": 6,
        "last_train": "23:50",
        "taxi_krw": 0
      },
      "army_local_guide": {
        "bts": [
          {
            "name_en": "MBC Sangam",
            "spot_tag": "Music Show",
            "description_en": "Music show filming",
            "distance_km": 13.9,
            "lat": 37.5786,
            "lng": 126.8918
          },
          {
            "name_en": "Hongdae Busking Street",
            "spot_tag": "Trainee Memory",
            "description_en": "Pre-debut busking spot",
            "distance_km": 17.5,
            "lat": 37.5563,
            "lng": 126.922
          },
          {
            "name_en": "Gwangjang Market",
            "spot_tag": "Debut Memory",
            "description_en": "2013 debut location",
            "distance_km": 23.2,
            "lat": 37.57,
            "lng": 127.0098
          }
        ],
        "restaurant": [
          {
            "name_en": "Ilsan Food Street",
            "spot_tag": "Local Eats",
            "description_en": "Local food street",
            "distance_km": 0.3,
            "lat": 37.658,
            "lng": 126.772
          },
          {
            "name_en": "La Festa Restaurants",
            "spot_tag": "Dining Hub",
            "description_en": "Restaurant complex",
            "distance_km": 0.4,
            "lat": 37.6575,
            "lng": 126.7705
          },
          {
            "name_en": "Western Dom Food Court",
            "spot_tag": "Food Court",
            "description_en": "Food court",
            "distance_km": 1.0,
            "lat": 37.663,
            "lng": 126.762
          }
        ],
        "cafe": [
          {
            "name_en": "La Festa Cafes",
            "spot_tag": "Trendy Cafe",
            "description_en": "Trendy cafes",
            "distance_km": 0.4,
            "lat": 37.6572,
            "lng": 126.771
          },
          {
            "name_en": "Ilsan Lake Park Cafe Street",
            "spot_tag": "Lake View",
            "description_en": "Scenic cafes",
            "distance_km": 1.1,
            "lat": 37.659,
            "lng": 126.76
          }
        ],
        "hotspot": [
          {
            "name_en": "Ilsan Lake Park",
            "spot_tag": "Must Visit",
            "description_en": "Beautiful lake park",
            "distance_km": 1.2,
            "lat": 37.658,
            "lng": 126.759
          },
          {
            "name_en": "One Mount",
            "spot_tag": "Entertainment",
            "description_en": "Theme park",
            "distance_km": 2.0,
            "lat": 37.665,
            "lng": 126.751
          },
          {
            "name_en": "Starfield Goyang",
            "spot_tag": "Shopping",
            "description_en": "Shopping mall",
            "distance_km": 10.9,
            "lat": 37.645,
            "lng": 126.895
          }
        ]
      },
      "map_detail": {
        "hotel": {
          "name_en": "Shire Hotel Signature Seomyeon",
          "lat": 37.66074307993267,
          "lng": 126.77266691593444
        },
        "venue": {
          "name_en": "Goyang Stadium",
          "lat": 37.6556,
          "lng": 126.7714
        },
        "nearby_spots": [
          {
            "name_en": "Ilsan Food Street",
            "category": "restaurant",
            "spot_tag": "Local Eats",
            "lat": 37.658,
            "lng": 126.772,
            "distance_km": 0.3
          },
          {
            "name_en": "La Festa Restaurants",
            "category": "restaurant",
            "spot_tag": "Dining Hub",
            "lat": 37.6575,
            "lng": 126.7705,
            "distance_km": 0.4
          },
          {
            "name_en": "La Festa Cafes",
            "category": "cafe",
            "spot_tag": "Trendy Cafe",
            "lat": 37.6572,
            "lng": 126.771,
            "distance_km": 0.4
          },
          {
            "name_en": "Western Dom Food Court",
            "category": "restaurant",
            "spot_tag": "Food Court",
            "lat": 37.663,
            "lng": 126.762,
            "distance_km": 1.0
          },
          {
            "name_en": "Ilsan Lake Park Cafe Street",
            "category": "cafe",
            "spot_tag": "Lake View",
            "lat": 37.659,
            "lng": 126.76,
            "distance_km": 1.1
          }
        ]
      },
      "platform": {
        "name": "Booking.com",
        "booking_url": "https://www.booking.comhttps://www.booking.com/hotel/kr/syaieohotel-seomyeon-busan1.ko.html?aid=304142&label=mkt123sc-fb625627-bca1-46ab-a00f-c53653f9d2af&ucfs=1&arphpl=1&checkin=2026-06-11&checkout=2026-06-13&dest_id=-713900&dest_type=city&group_adults=2&req_adults=2&no_rooms=1&group_children=0&req_children=0&hpos=2&hapos=2&sr_order=price&srpvid=1a00f9fccedae77b35cee1c2bb6a6680&srepoch=1770154145&all_sr_blocks=0_0_2_0_0&highlighted_blocks=0_0_2_0_0&matching_block_id=0_0_2_0_0&sr_pri_blocks=0_0_2_0_0__52552130&from=searchresults"
      },
      "booking_guide": {
        "steps_en": [
          "1. Search Goyang hotels",
          "2. Filter by 'Free Cancellation'",
          "3. Select room and enter info",
          "4. Pay online or at property",
          "5. Show confirmation at check-in"
        ],
        "tips_en": [
          "Genius membership for discounts",
          "Free cancellation options"
        ],
        "payment_methods": [
          "Credit Card",
          "Pay at Property"
        ],
        "foreigner_friendly": true
      },
      "last_update": "2026-02-03 21:29:09",
      "nearby": [
        {
          "id": "hotel_89897",
          "name_en": "2400sqft On the Beach 1min for big family",
          "price_krw": 335,
          "distance_km": 0.2,
          "image_url": "https://cf.bstatic.com/xdata/images/hotel/square240/709626014.webp?k=2ddca033f91deaae7e30e8022d066183c472d1c7b4902ba331dec31c4f5de81e&o="
        },
        {
          "id": "hotel_02455",
          "name_en": "혀니네",
          "price_krw": 265,
          "distance_km": 0.4,
          "image_url": "https://cf.bstatic.com/xdata/images/hotel/square240/790445736.webp?k=7e5b69183effbd63c5635e060588531f67d108f0ec52b8b9f44c014c46fe3c56&o="
        },
        {
          "id": "hotel_64724",
          "name_en": "브라운도트 사직야구장점",
          "price_krw": 310,
          "distance_km": 0.4,
          "image_url": "https://cf.bstatic.com/xdata/images/hotel/square240/492464654.webp?k=e359fb011886d823e0b4d030f29020deb12a77c186c54d7dc0d26b930caf7f7d&o="
        }
      ]
    },
    {
      "id": "hotel_09971",
      "name_en": "호텔 모먼트 송정",
      "price_krw": 233,
      "rating": 7.67,
      "image_url": "https://cf.bstatic.com/xdata/images/hotel/square240/412709673.webp?k=70700d2a68d6f3aa63f526a77fa73600b1e27afb0f959dc87e70f5d57d275e8c&o=",
      "rooms_left": -1,
      "is_available": true,
      "hotel_type": {
        "label_en": "Hotel",
        "color": "#4A90D9"
      },
      "cancellation": {
        "type": "free",
        "label_en": "Free Cancellation",
        "label_kr": "무료 취소",
        "is_refundable": true
      },
      "tags": {
        "list_en": [
          "#FreeCancellation",
          "#ARMYPopular",
          "#WalkToVenue"
        ],
        "list_kr": [
          "#취소가능",
          "#아미인기",
          "#도보가능"
        ],
        "display_en": "#FreeCancellation #ARMYPopular #WalkToVenue",
        "display_kr": "#취소가능 #아미인기 #도보가능"
      },
      "lat": 37.65090866660154,
      "lng": 126.768193922038,
      "location": {
        "area_en": "Busan",
        "area_kr": "부산",
        "address_en": "Busan, Busan",
        "address_kr": "부산 부산"
      },
      "city_key": "busan",
      "army_density": {
        "value": 65,
        "level_en": "High",
        "level_kr": "높음",
        "label_en": "ARMY 65%",
        "label_kr": "아미 65%"
      },
      "distance": {
        "type": "walk",
        "display_en": "Walk 7min",
        "minutes": 7,
        "distance_km": 0.6
      },
      "transport": {
        "station_en": "Jeongbalsan",
        "line_en": "Line 3",
        "line_color": "#EF7C1C",
        "display_en": "Jeongbalsan (Line 3)"
      },
      "safe_return": {
        "venue_en": "Goyang Stadium",
        "route_en": "Walk from Goyang Stadium → Hotel",
        "transport": "walk",
        "time_min": 7,
        "last_train": "23:50",
        "taxi_krw": 0
      },
      "army_local_guide": {
        "bts": [
          {
            "name_en": "MBC Sangam",
            "spot_tag": "Music Show",
            "description_en": "Music show filming",
            "distance_km": 13.5,
            "lat": 37.5786,
            "lng": 126.8918
          },
          {
            "name_en": "Hongdae Busking Street",
            "spot_tag": "Trainee Memory",
            "description_en": "Pre-debut busking spot",
            "distance_km": 17.2,
            "lat": 37.5563,
            "lng": 126.922
          },
          {
            "name_en": "Gwangjang Market",
            "spot_tag": "Debut Memory",
            "description_en": "2013 debut location",
            "distance_km": 23.1,
            "lat": 37.57,
            "lng": 127.0098
          }
        ],
        "restaurant": [
          {
            "name_en": "La Festa Restaurants",
            "spot_tag": "Dining Hub",
            "description_en": "Restaurant complex",
            "distance_km": 0.8,
            "lat": 37.6575,
            "lng": 126.7705
          },
          {
            "name_en": "Ilsan Food Street",
            "spot_tag": "Local Eats",
            "description_en": "Local food street",
            "distance_km": 0.9,
            "lat": 37.658,
            "lng": 126.772
          },
          {
            "name_en": "Western Dom Food Court",
            "spot_tag": "Food Court",
            "description_en": "Food court",
            "distance_km": 1.5,
            "lat": 37.663,
            "lng": 126.762
          }
        ],
        "cafe": [
          {
            "name_en": "La Festa Cafes",
            "spot_tag": "Trendy Cafe",
            "description_en": "Trendy cafes",
            "distance_km": 0.7,
            "lat": 37.6572,
            "lng": 126.771
          },
          {
            "name_en": "Ilsan Lake Park Cafe Street",
            "spot_tag": "Lake View",
            "description_en": "Scenic cafes",
            "distance_km": 1.2,
            "lat": 37.659,
            "lng": 126.76
          }
        ],
        "hotspot": [
          {
            "name_en": "Ilsan Lake Park",
            "spot_tag": "Must Visit",
            "description_en": "Beautiful lake park",
            "distance_km": 1.1,
            "lat": 37.658,
            "lng": 126.759
          },
          {
            "name_en": "One Mount",
            "spot_tag": "Entertainment",
            "description_en": "Theme park",
            "distance_km": 2.2,
            "lat": 37.665,
            "lng": 126.751
          },
          {
            "name_en": "Starfield Goyang",
            "spot_tag": "Shopping",
            "description_en": "Shopping mall",
            "distance_km": 11.2,
            "lat": 37.645,
            "lng": 126.895
          }
        ]
      },
      "map_detail": {
        "hotel": {
          "name_en": "호텔 모먼트 송정",
          "lat": 37.65090866660154,
          "lng": 126.768193922038
        },
        "venue": {
          "name_en": "Goyang Stadium",
          "lat": 37.6556,
          "lng": 126.7714
        },
        "nearby_spots": [
          {
            "name_en": "La Festa Cafes",
            "category": "cafe",
            "spot_tag": "Trendy Cafe",
            "lat": 37.6572,
            "lng": 126.771,
            "distance_km": 0.7
          },
          {
            "name_en": "La Festa Restaurants",
            "category": "restaurant",
            "spot_tag": "Dining Hub",
            "lat": 37.6575,
            "lng": 126.7705,
            "distance_km": 0.8
          },
          {
            "name_en": "Ilsan Food Street",
            "category": "restaurant",
            "spot_tag": "Local Eats",
            "lat": 37.658,
            "lng": 126.772,
            "distance_km": 0.9
          },
          {
            "name_en": "Ilsan Lake Park",
            "category": "hotspot",
            "spot_tag": "Must Visit",
            "lat": 37.658,
            "lng": 126.759,
            "distance_km": 1.1
          },
          {
            "name_en": "Ilsan Lake Park Cafe Street",
            "category": "cafe",
            "spot_tag": "Lake View",
            "lat": 37.659,
            "lng": 126.76,
            "distance_km": 1.2
          }
        ]
      },
      "platform": {
        "name": "Booking.com",
        "booking_url": "https://www.booking.comhttps://www.booking.com/hotel/kr/eastern-amber.ko.html?aid=304142&label=mkt123sc-fb625627-bca1-46ab-a00f-c53653f9d2af&ucfs=1&arphpl=1&checkin=2026-06-11&checkout=2026-06-13&dest_id=-713900&dest_type=city&group_adults=2&req_adults=2&no_rooms=1&group_children=0&req_children=0&hpos=5&hapos=5&sr_order=price&srpvid=1a00f9fccedae77b35cee1c2bb6a6680&srepoch=1770154145&all_sr_blocks=698902702_288003381_2_0_0&highlighted_blocks=698902702_288003381_2_0_0&matching_block_id=698902702_288003381_2_0_0&sr_pri_blocks=698902702_288003381_2_0_0__68181818&from=searchresults"
      },
      "booking_guide": {
        "steps_en": [
          "1. Search Goyang hotels",
          "2. Filter by 'Free Cancellation'",
          "3. Select room and enter info",
          "4. Pay online or at property",
          "5. Show confirmation at check-in"
        ],
        "tips_en": [
          "Genius membership for discounts",
          "Free cancellation options"
        ],
        "payment_methods": [
          "Credit Card",
          "Pay at Property"
        ],
        "foreigner_friendly": true
      },
      "last_update": "2026-02-03 21:29:09",
      "nearby": [
        {
          "id": "hotel_76335",
          "name_en": "호텔야자 사상터미널점",
          "price_krw": 301,
          "distance_km": 0.1,
          "image_url": "https://cf.bstatic.com/xdata/images/hotel/square240/766681829.webp?k=b5385fe5e8d5358e3bef2424b932a1192bab5186ba3a81b817502a501f2bfe64&o="
        },
        {
          "id": "hotel_45764",
          "name_en": "아난티 앳 부산 코브",
          "price_krw": 345,
          "distance_km": 0.4,
          "image_url": "https://cf.bstatic.com/xdata/images/hotel/square240/802608919.webp?k=2064e5bef761da15a996db89a3110ccabfd47a1032893d73892b947893522aa3&o="
        },
        {
          "id": "hotel_19968",
          "name_en": "6번가 스테이",
          "price_krw": 279,
          "distance_km": 0.5,
          "image_url": "https://cf.bstatic.com/xdata/images/hotel/square240/757438729.webp?k=d48acdbd99c7c017e82c0e9741ed45e4c8f205673d2d4a7cc8d0d15af02f2a92&o="
        }
      ]
    },
    {
      "id": "hotel_94670",
      "name_en": "기장 하운드호텔 일광점",
      "price_krw": 251,
      "rating": 8.08,
      "image_url": "https://cf.bstatic.com/xdata/images/hotel/square240/272313819.webp?k=269c082f13bf586d55271676736d5426f2520b147972af161aa0bf57e811973e&o=",
      "rooms_left": -1,
      "is_available": true,
      "hotel_type": {
        "label_en": "Hotel",
        "color": "#4A90D9"
      },
      "cancellation": {
        "type": "free",
        "label_en": "Free Cancellation",
        "label_kr": "무료 취소",
        "is_refundable": true
      },
      "tags": {
        "list_en": [
          "#FreeCancellation",
          "#ARMYPopular",
          "#WalkToVenue"
        ],
        "list_kr": [
          "#취소가능",
          "#아미인기",
          "#도보가능"
        ],
        "display_en": "#FreeCancellation #ARMYPopular #WalkToVenue",
        "display_kr": "#취소가능 #아미인기 #도보가능"
      },
      "lat": 37.65091750779311,
      "lng": 126.7744829973745,
      "location": {
        "area_en": "Busan",
        "area_kr": "부산",
        "address_en": "Busan, Busan",
        "address_kr": "부산 부산"
      },
      "city_key": "busan",
      "army_density": {
        "value": 65,
        "level_en": "High",
        "level_kr": "높음",
        "label_en": "ARMY 65%",
        "label_kr": "아미 65%"
      },
      "distance": {
        "type": "walk",
        "display_en": "Walk 7min",
        "minutes": 7,
        "distance_km": 0.6
      },
      "transport": {
        "station_en": "Jeongbalsan",
        "line_en": "Line 3",
        "line_color": "#EF7C1C",
        "display_en": "Jeongbalsan (Line 3)"
      },
      "safe_return": {
        "venue_en": "Goyang Stadium",
        "route_en": "Walk from Goyang Stadium → Hotel",
        "transport": "walk",
        "time_min": 7,
        "last_train": "23:50",
        "taxi_krw": 0
      },
      "army_local_guide": {
        "bts": [
          {
            "name_en": "MBC Sangam",
            "spot_tag": "Music Show",
            "description_en": "Music show filming",
            "distance_km": 13.1,
            "lat": 37.5786,
            "lng": 126.8918
          },
          {
            "name_en": "Hongdae Busking Street",
            "spot_tag": "Trainee Memory",
            "description_en": "Pre-debut busking spot",
            "distance_km": 16.7,
            "lat": 37.5563,
            "lng": 126.922
          },
          {
            "name_en": "Gwangjang Market",
            "spot_tag": "Debut Memory",
            "description_en": "2013 debut location",
            "distance_km": 22.6,
            "lat": 37.57,
            "lng": 127.0098
          }
        ],
        "restaurant": [
          {
            "name_en": "Ilsan Food Street",
            "spot_tag": "Local Eats",
            "description_en": "Local food street",
            "distance_km": 0.8,
            "lat": 37.658,
            "lng": 126.772
          },
          {
            "name_en": "La Festa Restaurants",
            "spot_tag": "Dining Hub",
            "description_en": "Restaurant complex",
            "distance_km": 0.8,
            "lat": 37.6575,
            "lng": 126.7705
          },
          {
            "name_en": "Western Dom Food Court",
            "spot_tag": "Food Court",
            "description_en": "Food court",
            "distance_km": 1.7,
            "lat": 37.663,
            "lng": 126.762
          }
        ],
        "cafe": [
          {
            "name_en": "La Festa Cafes",
            "spot_tag": "Trendy Cafe",
            "description_en": "Trendy cafes",
            "distance_km": 0.8,
            "lat": 37.6572,
            "lng": 126.771
          },
          {
            "name_en": "Ilsan Lake Park Cafe Street",
            "spot_tag": "Lake View",
            "description_en": "Scenic cafes",
            "distance_km": 1.6,
            "lat": 37.659,
            "lng": 126.76
          }
        ],
        "hotspot": [
          {
            "name_en": "Ilsan Lake Park",
            "spot_tag": "Must Visit",
            "description_en": "Beautiful lake park",
            "distance_km": 1.6,
            "lat": 37.658,
            "lng": 126.759
          },
          {
            "name_en": "One Mount",
            "spot_tag": "Entertainment",
            "description_en": "Theme park",
            "distance_km": 2.6,
            "lat": 37.665,
            "lng": 126.751
          },
          {
            "name_en": "Starfield Goyang",
            "spot_tag": "Shopping",
            "description_en": "Shopping mall",
            "distance_km": 10.6,
            "lat": 37.645,
            "lng": 126.895
          }
        ]
      },
      "map_detail": {
        "hotel": {
          "name_en": "기장 하운드호텔 일광점",
          "lat": 37.65091750779311,
          "lng": 126.7744829973745
        },
        "venue": {
          "name_en": "Goyang Stadium",
          "lat": 37.6556,
          "lng": 126.7714
        },
        "nearby_spots": [
          {
            "name_en": "Ilsan Food Street",
            "category": "restaurant",
            "spot_tag": "Local Eats",
            "lat": 37.658,
            "lng": 126.772,
            "distance_km": 0.8
          },
          {
            "name_en": "La Festa Restaurants",
            "category": "restaurant",
            "spot_tag": "Dining Hub",
            "lat": 37.6575,
            "lng": 126.7705,
            "distance_km": 0.8
          },
          {
            "name_en": "La Festa Cafes",
            "category": "cafe",
            "spot_tag": "Trendy Cafe",
            "lat": 37.6572,
            "lng": 126.771,
            "distance_km": 0.8
          },
          {
            "name_en": "Ilsan Lake Park Cafe Street",
            "category": "cafe",
            "spot_tag": "Lake View",
            "lat": 37.659,
            "lng": 126.76,
            "distance_km": 1.6
          },
          {
            "name_en": "Ilsan Lake Park",
            "category": "hotspot",
            "spot_tag": "Must Visit",
            "lat": 37.658,
            "lng": 126.759,
            "distance_km": 1.6
          }
        ]
      },
      "platform": {
        "name": "Booking.com",
        "booking_url": "https://www.booking.comhttps://www.booking.com/hotel/kr/gijanghaundeuhotel-ilgwangjeom.ko.html?aid=304142&label=mkt123sc-fb625627-bca1-46ab-a00f-c53653f9d2af&ucfs=1&arphpl=1&checkin=2026-06-11&checkout=2026-06-13&dest_id=-713900&dest_type=city&group_adults=2&req_adults=2&no_rooms=1&group_children=0&req_children=0&hpos=8&hapos=8&sr_order=price&srpvid=1a00f9fccedae77b35cee1c2bb6a6680&srepoch=1770154145&all_sr_blocks=682122801_377356780_2_1_0&highlighted_blocks=682122801_377356780_2_1_0&matching_block_id=682122801_377356780_2_1_0&sr_pri_blocks=682122801_377356780_2_1_0__73409091&from=searchresults"
      },
      "booking_guide": {
        "steps_en": [
          "1. Search Goyang hotels",
          "2. Filter by 'Free Cancellation'",
          "3. Select room and enter info",
          "4. Pay online or at property",
          "5. Show confirmation at check-in"
        ],
        "tips_en": [
          "Genius membership for discounts",
          "Free cancellation options"
        ],
        "payment_methods": [
          "Credit Card",
          "Pay at Property"
        ],
        "foreigner_friendly": true
      },
      "last_update": "2026-02-03 21:29:09",
      "nearby": [
        {
          "id": "hotel_71186",
          "name_en": "엘모멘토 송도",
          "price_krw": 268,
          "distance_km": 0.3,
          "image_url": "https://cf.bstatic.com/xdata/images/hotel/square240/582995875.webp?k=2c7789027c8f8452a701cf38931dfe114743f4d45d493af4056c10af925900e0&o="
        },
        {
          "id": "hotel_45764",
          "name_en": "아난티 앳 부산 코브",
          "price_krw": 345,
          "distance_km": 0.3,
          "image_url": "https://cf.bstatic.com/xdata/images/hotel/square240/802608919.webp?k=2064e5bef761da15a996db89a3110ccabfd47a1032893d73892b947893522aa3&o="
        },
        {
          "id": "hotel_09971",
          "name_en": "호텔 모먼트 송정",
          "price_krw": 233,
          "distance_km": 0.6,
          "image_url": "https://cf.bstatic.com/xdata/images/hotel/square240/412709673.webp?k=70700d2a68d6f3aa63f526a77fa73600b1e27afb0f959dc87e70f5d57d275e8c&o="
        }
      ]
    },
    {
      "id": "hotel_76335",
      "name_en": "호텔야자 사상터미널점",
      "price_krw": 301,
      "rating": 0,
      "image_url": "https://cf.bstatic.com/xdata/images/hotel/square240/766681829.webp?k=b5385fe5e8d5358e3bef2424b932a1192bab5186ba3a81b817502a501f2bfe64&o=",
      "rooms_left": -1,
      "is_available": true,
      "hotel_type": {
        "label_en": "Hotel",
        "color": "#4A90D9"
      },
      "cancellation": {
        "type": "free",
        "label_en": "Free Cancellation",
        "label_kr": "무료 취소",
        "is_refundable": true
      },