{
  "home": {
    "venue": {
      "name_en": "Goyang Stadium",
      "name_kr": "고양종합운동장",
      "latitude": 37.6556,
      "longitude": 126.7714
    },
    "available_count": 60,
    "total_count": 65,
    "lowest_price_krw": 27535,
    "highest_price_krw": 316869,
    "last_update": "2026-01-26 03:15:15"
  },
  "map": {
    "venue": {
      "name_en": "Goyang Stadium",
      "latitude": 37.6556,
      "longitude": 126.7714,
      "type": "venue"
    },
    "local_spots": [
      {
        "name_en": "HYBE INSIGHT",
        "category": "bts",
        "spot_tag": "BTS Museum",
        "latitude": 37.526,
        "longitude": 127.0405
      },
      {
        "name_en": "HYBE Headquarters",
        "category": "bts",
        "spot_tag": "BTS Home",
        "latitude": 37.528,
        "longitude": 127.04
      },
      {
        "name_en": "Hongdae Busking Street",
        "category": "bts",
        "spot_tag": "Trainee Memory",
        "latitude": 37.5563,
        "longitude": 126.922
      },
      {
        "name_en": "MBC Sangam",
        "category": "bts",
        "spot_tag": "Music Show",
        "latitude": 37.5786,
        "longitude": 126.8918
      },
      {
        "name_en": "Gwangjang Market",
        "category": "bts",
        "spot_tag": "Debut Memory",
        "latitude": 37.57,
        "longitude": 127.0098
      },
      {
        "name_en": "Ilsan Food Street",
        "category": "restaurant",
        "spot_tag": "Local Eats",
        "latitude": 37.658,
        "longitude": 126.772
      },
      {
        "name_en": "La Festa Restaurants",
        "category": "restaurant",
        "spot_tag": "Dining Hub",
        "latitude": 37.6575,
        "longitude": 126.7705
      },
      {
        "name_en": "Western Dom Food Court",
        "category": "restaurant",
        "spot_tag": "Food Court",
        "latitude": 37.663,
        "longitude": 126.762
      },
      {
        "name_en": "Ilsan Lake Park Cafe Street",
        "category": "cafe",
        "spot_tag": "Lake View Cafe",
        "latitude": 37.659,
        "longitude": 126.76
      },
      {
        "name_en": "La Festa Cafes",
        "category": "cafe",
        "spot_tag": "Trendy Cafe",
        "latitude": 37.6572,
        "longitude": 126.771
      },
      {
        "name_en": "Ilsan Lake Park",
        "category": "hotspot",
        "spot_tag": "Must Visit",
        "latitude": 37.658,
        "longitude": 126.759
      },
      {
        "name_en": "One Mount",
        "category": "hotspot",
        "spot_tag": "Entertainment",
        "latitude": 37.665,
        "longitude": 126.751
      },
      {
        "name_en": "Starfield Goyang",
        "category": "hotspot",
        "spot_tag": "Shopping",
        "latitude": 37.645,
        "longitude": 126.895
      }
    ],
    "hotels": [
      {
        "id": "hotel_15129",
        "name_en": "MVL Hotel Goyang",
        "latitude": 37.656,
        "longitude": 126.77,
        "price_krw": 243941,
        "type": "hotel"
      },
      {
        "id": "hotel_66536",
        "name_en": "Goyang Cozy Room",
        "latitude": 37.656,
        "longitude": 126.772,
        "price_krw": 70542,
        "type": "hotel"
      },
      {
        "id": "hotel_80128",
        "name_en": "Ilsan Residence",
        "latitude": 37.6545,
        "longitude": 126.773,
        "price_krw": 150616,
        "type": "hotel"
      },
      {
        "id": "hotel_29377",
        "name_en": "La Festa Residence",
        "latitude": 37.6575,
        "longitude": 126.7705,
        "price_krw": 113998,
        "type": "hotel"
      },
      {
        "id": "hotel_42942",
        "name_en": "Best Western Premier Kukdo",
        "latitude": 37.6555,
        "longitude": 126.775,
        "price_krw": 142311,
        "type": "hotel"
      },
      {
        "id": "hotel_31601",
        "name_en": "Goyang Stay Residence",
        "latitude": 37.657,
        "longitude": 126.774,
        "price_krw": 131943,
        "type": "hotel"
      },
      {
        "id": "hotel_03352",
        "name_en": "Jeongbalsan Modern Studio",
        "latitude": 37.655,
        "longitude": 126.768,
        "price_krw": 50234,
        "type": "hotel"
      },
      {
        "id": "hotel_79457",
        "name_en": "Hotel Icon Ilsan",
        "latitude": 37.653,
        "longitude": 126.771,
        "price_krw": 70908,
        "type": "hotel"
      },
      {
        "id": "hotel_95012",
        "name_en": "Ilsan The Stay",
        "latitude": 37.6585,
        "longitude": 126.7725,
        "price_krw": 119827,
        "type": "hotel"
      },
      {
        "id": "hotel_30136",
        "name_en": "Ramada Encore Goyang",
        "latitude": 37.658,
        "longitude": 126.768,
        "price_krw": 141426,
        "type": "hotel"
      },
      {
        "id": "hotel_33334",
        "name_en": "Ilsan ARMY House",
        "latitude": 37.6535,
        "longitude": 126.766,
        "price_krw": 37652,
        "type": "hotel"
      },
      {
        "id": "hotel_75984",
        "name_en": "Hotel Mare Ilsan",
        "latitude": 37.655,
        "longitude": 126.778,
        "price_krw": 116191,
        "type": "hotel"
      },
      {
        "id": "hotel_97779",
        "name_en": "Ilsan Sky Hotel",
        "latitude": 37.659,
        "longitude": 126.765,
        "price_krw": 82865,
        "type": "hotel"
      },
      {
        "id": "hotel_37363",
        "name_en": "Madu Station Room",
        "latitude": 37.6518,
        "longitude": 126.7781,
        "price_krw": 50243,
        "type": "hotel"
      },
      {
        "id": "hotel_35517",
        "name_en": "Ilsan Central Hotel",
        "latitude": 37.6555,
        "longitude": 126.763,
        "price_krw": 122067,
        "type": "hotel"
      },
      {
        "id": "hotel_72156",
        "name_en": "Ilsan Loft Airbnb",
        "latitude": 37.6605,
        "longitude": 126.767,
        "price_krw": 53860,
        "type": "hotel"
      },
      {
        "id": "hotel_93984",
        "name_en": "Ilsan Hostel 808",
        "latitude": 37.649,
        "longitude": 126.775,
        "price_krw": 27535,
        "type": "hotel"
      },
      {
        "id": "hotel_24250",
        "name_en": "Lake Park View Apt",
        "latitude": 37.658,
        "longitude": 126.759,
        "price_krw": 43747,
        "type": "hotel"
      },
      {
        "id": "hotel_61213",
        "name_en": "Grace Hotel Ilsan",
        "latitude": 37.65,
        "longitude": 126.782,
        "price_krw": 100575,
        "type": "hotel"
      },
      {
        "id": "hotel_06898",
        "name_en": "Western Dom Residence",
        "latitude": 37.663,
        "longitude": 126.762,
        "price_krw": 144809,
        "type": "hotel"
      },
      {
        "id": "hotel_27453",
        "name_en": "Hotel Castle Ilsan",
        "latitude": 37.662,
        "longitude": 126.7595,
        "price_krw": 117253,
        "type": "hotel"
      },
      {
        "id": "hotel_60499",
        "name_en": "Baekseok Guesthouse",
        "latitude": 37.648,
        "longitude": 126.782,
        "price_krw": 34098,
        "type": "hotel"
      },
      {
        "id": "hotel_61969",
        "name_en": "Hotel Atrium Ilsan",
        "latitude": 37.66,
        "longitude": 126.758,
        "price_krw": 141994,
        "type": "hotel"
      },
      {
        "id": "hotel_26976",
        "name_en": "Hotel W Ilsan",
        "latitude": 37.6615,
        "longitude": 126.756,
        "price_krw": 136402,
        "type": "hotel"
      },
      {
        "id": "hotel_71544",
        "name_en": "Jeongbalsan Residence",
        "latitude": 37.661,
        "longitude": 126.755,
        "price_krw": 160859,
        "type": "hotel"
      },
      {
        "id": "hotel_64705",
        "name_en": "Hotel Renaissance Ilsan",
        "latitude": 37.664,
        "longitude": 126.7515,
        "price_krw": 149699,
        "type": "hotel"
      },
      {
        "id": "hotel_15330",
        "name_en": "Baekma Hostel",
        "latitude": 37.642,
        "longitude": 126.788,
        "price_krw": 30254,
        "type": "hotel"
      },
      {
        "id": "hotel_41499",
        "name_en": "Hwajeong Residence",
        "latitude": 37.635,
        "longitude": 126.829,
        "price_krw": 162430,
        "type": "hotel"
      },
      {
        "id": "hotel_69201",
        "name_en": "Unjeong Lake Airbnb",
        "latitude": 37.706,
        "longitude": 126.765,
        "price_krw": 45498,
        "type": "hotel"
      },
      {
        "id": "hotel_65683",
        "name_en": "Hwajeong Business Hotel",
        "latitude": 37.634,
        "longitude": 126.832,
        "price_krw": 101506,
        "type": "hotel"
      },
      {
        "id": "hotel_13093",
        "name_en": "Paju Residence",
        "latitude": 37.708,
        "longitude": 126.762,
        "price_krw": 103588,
        "type": "hotel"
      },
      {
        "id": "hotel_79710",
        "name_en": "Unjeong Guesthouse",
        "latitude": 37.7095,
        "longitude": 126.755,
        "price_krw": 52642,
        "type": "hotel"
      },
      {
        "id": "hotel_29318",
        "name_en": "Unjeong Business Hotel",
        "latitude": 37.71,
        "longitude": 126.753,
        "price_krw": 107944,
        "type": "hotel"
      },
      {
        "id": "hotel_31281",
        "name_en": "Unjeong Hotel",
        "latitude": 37.712,
        "longitude": 126.758,
        "price_krw": 93068,
        "type": "hotel"
      },
      {
        "id": "hotel_79979",
        "name_en": "Paju The Stay",
        "latitude": 37.714,
        "longitude": 126.748,
        "price_krw": 167894,
        "type": "hotel"
      },
      {
        "id": "hotel_14048",
        "name_en": "Haengsin Residence",
        "latitude": 37.612,
        "longitude": 126.835,
        "price_krw": 126039,
        "type": "hotel"
      },
      {
        "id": "hotel_35308",
        "name_en": "Paju Premium Hotel",
        "latitude": 37.718,
        "longitude": 126.735,
        "price_krw": 132236,
        "type": "hotel"
      },
      {
        "id": "hotel_22229",
        "name_en": "Paju Peace Hostel",
        "latitude": 37.72,
        "longitude": 126.718,
        "price_krw": 27713,
        "type": "hotel"
      },
      {
        "id": "hotel_55797",
        "name_en": "Paju Book City Hotel",
        "latitude": 37.735,
        "longitude": 126.715,
        "price_krw": 122009,
        "type": "hotel"
      },
      {
        "id": "hotel_07016",
        "name_en": "Heyri Art Village Airbnb",
        "latitude": 37.745,
        "longitude": 126.685,
        "price_krw": 112626,
        "type": "hotel"
      },
      {
        "id": "hotel_61236",
        "name_en": "Stanford Hotel Sangam",
        "latitude": 37.5795,
        "longitude": 126.8898,
        "price_krw": 138467,
        "type": "hotel"
      },
      {
        "id": "hotel_09859",
        "name_en": "Sangam Park Studio",
        "latitude": 37.5765,
        "longitude": 126.8855,
        "price_krw": 106093,
        "type": "hotel"
      },
      {
        "id": "hotel_37974",
        "name_en": "Sangam Residence Hotel",
        "latitude": 37.577,
        "longitude": 126.8875,
        "price_krw": 91768,
        "type": "hotel"
      },
      {
        "id": "hotel_49097",
        "name_en": "MBC Press Center Hotel",
        "latitude": 37.578,
        "longitude": 126.891,
        "price_krw": 142578,
        "type": "hotel"
      },
      {
        "id": "hotel_79467",
        "name_en": "DMC Guesthouse",
        "latitude": 37.5788,
        "longitude": 126.893,
        "price_krw": 46120,
        "type": "hotel"
      },
      {
        "id": "hotel_43302",
        "name_en": "Courtyard by Marriott Sangam",
        "latitude": 37.5768,
        "longitude": 126.892,
        "price_krw": 196433,
        "type": "hotel"
      },
      {
        "id": "hotel_13844",
        "name_en": "Sangam Skyview Hotel",
        "latitude": 37.575,
        "longitude": 126.8905,
        "price_krw": 143565,
        "type": "hotel"
      },
      {
        "id": "hotel_68323",
        "name_en": "DMC Business Hotel",
        "latitude": 37.5755,
        "longitude": 126.895,
        "price_krw": 127221,
        "type": "hotel"
      },
      {
        "id": "hotel_97451",
        "name_en": "Sky Park View Apartment",
        "latitude": 37.572,
        "longitude": 126.892,
        "price_krw": 82835,
        "type": "hotel"
      },
      {
        "id": "hotel_88347",
        "name_en": "World Cup Stadium Hostel",
        "latitude": 37.5682,
        "longitude": 126.8972,
        "price_krw": 15791,
        "type": "hotel"
      },
      {
        "id": "hotel_18666",
        "name_en": "Safe Stay Hongdae",
        "latitude": 37.5598,
        "longitude": 126.9185,
        "price_krw": 30442,
        "type": "hotel"
      },
      {
        "id": "hotel_40758",
        "name_en": "Marigold Hotel Hongdae",
        "latitude": 37.559,
        "longitude": 126.9198,
        "price_krw": 179239,
        "type": "hotel"
      },
      {
        "id": "hotel_10046",
        "name_en": "Hongdae Art Residence",
        "latitude": 37.558,
        "longitude": 126.92,
        "price_krw": 113064,
        "type": "hotel"
      },
      {
        "id": "hotel_97498",
        "name_en": "Purple House Hongdae",
        "latitude": 37.5592,
        "longitude": 126.9208,
        "price_krw": 75618,
        "type": "hotel"
      },
      {
        "id": "hotel_05825",
        "name_en": "Yeonnam Retro House",
        "latitude": 37.562,
        "longitude": 126.9255,
        "price_krw": 92435,
        "type": "hotel"
      },
      {
        "id": "hotel_14638",
        "name_en": "RYSE Autograph Collection",
        "latitude": 37.5559,
        "longitude": 126.9213,
        "price_krw": 316869,
        "type": "hotel"
      },
      {
        "id": "hotel_89354",
        "name_en": "Hongdae Stay Hotel",
        "latitude": 37.5578,
        "longitude": 126.922,
        "price_krw": 178062,
        "type": "hotel"
      },
      {
        "id": "hotel_52249",
        "name_en": "L7 Hongdae by Lotte",
        "latitude": 37.5567,
        "longitude": 126.9236,
        "price_krw": 204942,
        "type": "hotel"
      },
      {
        "id": "hotel_60871",
        "name_en": "Hongdae ARMY Guesthouse",
        "latitude": 37.5585,
        "longitude": 126.9245,
        "price_krw": 57689,
        "type": "hotel"
      },
      {
        "id": "hotel_57216",
        "name_en": "Hongdae Modern Studio",
        "latitude": 37.5572,
        "longitude": 126.9235,
        "price_krw": 109843,
        "type": "hotel"
      },
      {
        "id": "hotel_42901",
        "name_en": "Mr. Hong Guesthouse",
        "latitude": 37.557,
        "longitude": 126.9255,
        "price_krw": 41424,
        "type": "hotel"
      },
      {
        "id": "hotel_02158",
        "name_en": "Hotel River Hongdae",
        "latitude": 37.5549,
        "longitude": 126.9262,
        "price_krw": 76485,
        "type": "hotel"
      },
      {
        "id": "hotel_65487",
        "name_en": "The Local Hongdae",
        "latitude": 37.5545,
        "longitude": 126.9245,
        "price_krw": 176460,
        "type": "hotel"
      },
      {
        "id": "hotel_82725",
        "name_en": "Hi Hongdae Hostel",
        "latitude": 37.554,
        "longitude": 126.9295,
        "price_krw": 31790,
        "type": "hotel"
      },
      {
        "id": "hotel_90835",
        "name_en": "Amanti Hotel Hongdae",
        "latitude": 37.5535,
        "longitude": 126.931,
        "price_krw": 182376,
        "type": "hotel"
      }
    ]
  },
  "hotels": [
    {
      "id": "hotel_15129",
      "name_en": "MVL Hotel Goyang",
      "area": "Ilsan/KINTEX",
      "latitude": 37.656,
      "longitude": 126.77,
      "price_krw": 243941,
      "distance": {
        "type": "walk",
        "display_en": "Walk 1min",
        "display_kr": "도보 1분",
        "minutes": 1,
        "distance_km": 0.1
      },
      "display_tags": {
        "type": {
          "label_en": "5-Star Hotel",
          "label_kr": "5성급",
          "color": "#FFD700"
        },
        "density": {
          "value": 56,
          "label_en": "ARMY 56%",
          "label_kr": "아미 56%"
        },
        "transport": {
          "station_en": "Jeongbalsan",
          "station_kr": "정발산역",
          "line_en": "Line 3",
          "line_kr": "3호선",
          "line_color": "#EF7C1C",
          "to_venue_min": 10,
          "display_en": "Jeongbalsan (Line 3)",
          "display_kr": "정발산역 (3호선)"
        },
        "army_spot": {
          "name_en": "MBC Sangam",
          "spot_tag": "Music Show",
          "distance_km": 13.8
        }
      },
      "platform": {
        "name": "Hotels.com",
        "rating": 4.4,
        "booking_url": "https://kr.hotels.com/search.do?destination-id=759818"
      },
      "rooms_left": 8,
      "is_available": true,
      "status_en": "8 rooms left",
      "image_url": "https://images.unsplash.com/photo-1582719508461-905c673771fd?w=800",
      "safe_return": {
        "venue_name_en": "Goyang Stadium",
        "venue_name_kr": "고양종합운동장",
        "route_detail_en": "Walk from Goyang Stadium → MVL Hotel Goyang",
        "route_summary_en": "Goyang Stadium → Line 3 → Hotel",
        "route_summary_kr": "고양종합운동장 → 3호선 → 숙소",
        "transport_type": "walk",
        "travel_time_min": 1,
        "last_train_time": "23:50",
        "concert_end_estimate": "22:00",
        "safe_return_possible": true,
        "line_color": "#EF7C1C",
        "station_en": "Jeongbalsan",
        "taxi_estimate_krw": 0
      },
      "army_local_guide": {
        "bts_spots": [
          {
            "name_en": "MBC Sangam",
            "spot_tag": "Music Show",
            "description_en": "Music show filming location",
            "distance_km": 13.8,
            "latitude": 37.5786,
            "longitude": 126.8918
          },
          {
            "name_en": "Hongdae Busking Street",
            "spot_tag": "Trainee Memory",
            "description_en": "Pre-debut busking location of BTS",
            "distance_km": 17.4,
            "latitude": 37.5563,
            "longitude": 126.922
          },
          {
            "name_en": "Gwangjang Market",
            "spot_tag": "Debut Memory",
            "description_en": "2013 debut stage location",
            "distance_km": 23.2,
            "latitude": 37.57,
            "longitude": 127.0098
          }
        ],
        "restaurants": [
          {
            "name_en": "La Festa Restaurants",
            "spot_tag": "Dining Hub",
            "description_en": "Various restaurants in La Festa complex",
            "distance_km": 0.2,
            "latitude": 37.6575,
            "longitude": 126.7705
          },
          {
            "name_en": "Ilsan Food Street",
            "spot_tag": "Local Eats",
            "description_en": "Popular local food street near stadium",
            "distance_km": 0.3,
            "latitude": 37.658,
            "longitude": 126.772
          },
          {
            "name_en": "Western Dom Food Court",
            "spot_tag": "Food Court",
            "description_en": "Food court with Korean and international options",
            "distance_km": 1.0,
            "latitude": 37.663,
            "longitude": 126.762
          }
        ],
        "cafes": [
          {
            "name_en": "La Festa Cafes",
            "spot_tag": "Trendy Cafe",
            "description_en": "Trendy cafes in La Festa area",
            "distance_km": 0.2,
            "latitude": 37.6572,
            "longitude": 126.771
          },
          {
            "name_en": "Ilsan Lake Park Cafe Street",
            "spot_tag": "Lake View Cafe",
            "description_en": "Scenic cafes along Ilsan Lake Park",
            "distance_km": 0.9,
            "latitude": 37.659,
            "longitude": 126.76
          }
        ],
        "hotspots": [
          {
            "name_en": "Ilsan Lake Park",
            "spot_tag": "Must Visit",
            "description_en": "Beautiful lake park, great for walks",
            "distance_km": 1.0,
            "latitude": 37.658,
            "longitude": 126.759
          },
          {
            "name_en": "One Mount",
            "spot_tag": "Entertainment",
            "description_en": "Theme park with water park and snow park",
            "distance_km": 1.9,
            "latitude": 37.665,
            "longitude": 126.751
          },
          {
            "name_en": "Starfield Goyang",
            "spot_tag": "Shopping",
            "description_en": "Large shopping mall with various stores",
            "distance_km": 11.1,
            "latitude": 37.645,
            "longitude": 126.895
          }
        ]
      },
      "booking_guide": {
        "platform": "Hotels.com",
        "steps_en": [
          "1. Search 'Goyang, South Korea' on Hotels.com",
          "2. Filter by price, rating, or amenities",
          "3. Select hotel and room type",
          "4. Enter guest details and payment info",
          "5. Collect stamps for free nights reward"
        ],
        "tips_en": [
          "Collect 10 stamps = 1 free night",
          "Price match guarantee available",
          "Secret prices for app users"
        ],
        "payment_methods": [
          "Credit Card",
          "PayPal"
        ],
        "foreigner_friendly": true
      },
      "last_update": "2026-01-26 03:15:15",
      "nearby_recommendations": [
        {
          "id": "hotel_66536",
          "name_en": "Goyang Cozy Room",
          "price_krw": 70542,
          "distance_km": 0.2,
          "image_url": "https://images.unsplash.com/photo-1501183638710-841dd1904471?w=800",
          "platform_name": "Agoda",
          "rating": 3.8
        },
        {
          "id": "hotel_29377",
          "name_en": "La Festa Residence",
          "price_krw": 113998,
          "distance_km": 0.2,
          "image_url": "https://images.unsplash.com/photo-1502672260266-1c1ef2d93688?w=800",
          "platform_name": "Agoda",
          "rating": 3.9
        },
        {
          "id": "hotel_03352",
          "name_en": "Jeongbalsan Modern Studio",
          "price_krw": 50234,
          "distance_km": 0.2,
          "image_url": "https://images.unsplash.com/photo-1501183638710-841dd1904471?w=800",
          "platform_name": "Agoda",
          "rating": 4.3
        }
      ]
    },
    {
      "id": "hotel_66536",
      "name_en": "Goyang Cozy Room",
      "area": "Ilsan/KINTEX",
      "latitude": 37.656,
      "longitude": 126.772,
      "price_krw": 70542,
      "distance": {
        "type": "walk",
        "display_en": "Walk 0min",
        "display_kr": "도보 0분",
        "minutes": 0,
        "distance_km": 0.1
      },
      "display_tags": {
        "type": {
          "label_en": "Airbnb",
          "label_kr": "에어비앤비",
          "color": "#FF5A5F"
        },
        "density": {
          "value": 53,
          "label_en": "ARMY 53%",
          "label_kr": "아미 53%"
        },
        "transport": {
          "station_en": "Jeongbalsan",
          "station_kr": "정발산역",
          "line_en": "Line 3",
          "line_kr": "3호선",
          "line_color": "#EF7C1C",
          "to_venue_min": 10,
          "display_en": "Jeongbalsan (Line 3)",
          "display_kr": "정발산역 (3호선)"
        },
        "army_spot": {
          "name_en": "MBC Sangam",
          "spot_tag": "Music Show",
          "distance_km": 13.6
        }
      },
      "platform": {
        "name": "Agoda",
        "rating": 3.8,
        "booking_url": "https://www.agoda.com/search?city=14690"
      },
      "rooms_left": 10,
      "is_available": true,
      "status_en": "10 rooms left",
      "image_url": "https://images.unsplash.com/photo-1501183638710-841dd1904471?w=800",
      "safe_return": {
        "venue_name_en": "Goyang Stadium",
        "venue_name_kr": "고양종합운동장",
        "route_detail_en": "Walk from Goyang Stadium → Goyang Cozy Room",
        "route_summary_en": "Goyang Stadium → Line 3 → Hotel",
        "route_summary_kr": "고양종합운동장 → 3호선 → 숙소",
        "transport_type": "walk",
        "travel_time_min": 0,
        "last_train_time": "23:50",
        "concert_end_estimate": "22:00",
        "safe_return_possible": true,
        "line_color": "#EF7C1C",
        "station_en": "Jeongbalsan",
        "taxi_estimate_krw": 0
      },
      "army_local_guide": {
        "bts_spots": [
          {
            "name_en": "MBC Sangam",
            "spot_tag": "Music Show",
            "description_en": "Music show filming location",
            "distance_km": 13.6,
            "latitude": 37.5786,
            "longitude": 126.8918
          },
          {
            "name_en": "Hongdae Busking Street",
            "spot_tag": "Trainee Memory",
            "description_en": "Pre-debut busking location of BTS",
            "distance_km": 17.2,
            "latitude": 37.5563,
            "longitude": 126.922
          },
          {
            "name_en": "Gwangjang Market",
            "spot_tag": "Debut Memory",
            "description_en": "2013 debut stage location",
            "distance_km": 23.0,
            "latitude": 37.57,
            "longitude": 127.0098
          }
        ],
        "restaurants": [
          {
            "name_en": "Ilsan Food Street",
            "spot_tag": "Local Eats",
            "description_en": "Popular local food street near stadium",
            "distance_km": 0.2,
            "latitude": 37.658,
            "longitude": 126.772
          },
          {
            "name_en": "La Festa Restaurants",
            "spot_tag": "Dining Hub",
            "description_en": "Various restaurants in La Festa complex",
            "distance_km": 0.2,
            "latitude": 37.6575,
            "longitude": 126.7705
          },
          {
            "name_en": "Western Dom Food Court",
            "spot_tag": "Food Court",
            "description_en": "Food court with Korean and international options",
            "distance_km": 1.2,
            "latitude": 37.663,
            "longitude": 126.762
          }
        ],
        "cafes": [
          {
            "name_en": "La Festa Cafes",
            "spot_tag": "Trendy Cafe",
            "description_en": "Trendy cafes in La Festa area",
            "distance_km": 0.2,
            "latitude": 37.6572,
            "longitude": 126.771
          },
          {
            "name_en": "Ilsan Lake Park Cafe Street",
            "spot_tag": "Lake View Cafe",
            "description_en": "Scenic cafes along Ilsan Lake Park",
            "distance_km": 1.1,
            "latitude": 37.659,
            "longitude": 126.76
          }
        ],
        "hotspots": [
          {
            "name_en": "Ilsan Lake Park",
            "spot_tag": "Must Visit",
            "description_en": "Beautiful lake park, great for walks",
            "distance_km": 1.2,
            "latitude": 37.658,
            "longitude": 126.759
          },
          {
            "name_en": "One Mount",
            "spot_tag": "Entertainment",
            "description_en": "Theme park with water park and snow park",
            "distance_km": 2.1,
            "latitude": 37.665,
            "longitude": 126.751
          },
          {
            "name_en": "Starfield Goyang",
            "spot_tag": "Shopping",
            "description_en": "Large shopping mall with various stores",
            "distance_km": 10.9,
            "latitude": 37.645,
            "longitude": 126.895
          }
        ]
      },
      "booking_guide": {
        "platform": "Agoda",
        "steps_en": [
          "1. Select your dates and search for hotels",
          "2. Choose your room and click 'Book Now'",
          "3. Enter guest details (passport name required)",
          "4. Pay with international credit card or PayPal",
          "5. Receive confirmation email instantly"
        ],
        "tips_en": [
          "Use 'Pay at Hotel' option if available for flexibility",
          "Check cancellation policy before booking",
          "AgodaCash can be used for discounts"
        ],
        "payment_methods": [
          "Credit Card",
          "PayPal",
          "Pay at Hotel"
        ],
        "foreigner_friendly": true
      },
      "last_update": "2026-01-26 03:15:15",
      "nearby_recommendations": [
        {
          "id": "hotel_15129",
          "name_en": "MVL Hotel Goyang",
          "price_krw": 243941,
          "distance_km": 0.2,
          "image_url": "https://images.unsplash.com/photo-1582719508461-905c673771fd?w=800",
          "platform_name": "Hotels.com",
          "rating": 4.4
        },
        {
          "id": "hotel_80128",
          "name_en": "Ilsan Residence",
          "price_krw": 150616,
          "distance_km": 0.2,
          "image_url": "https://images.unsplash.com/photo-1502672260266-1c1ef2d93688?w=800",
          "platform_name": "Agoda",
          "rating": 3.9
        },
        {
          "id": "hotel_29377",
          "name_en": "La Festa Residence",
          "price_krw": 113998,
          "distance_km": 0.2,
          "image_url": "https://images.unsplash.com/photo-1502672260266-1c1ef2d93688?w=800",
          "platform_name": "Agoda",
          "rating": 3.9
        }
      ]
    },
    {
      "id": "hotel_80128",
      "name_en": "Ilsan Residence",
      "area": "Ilsan/KINTEX",
      "latitude": 37.6545,
      "longitude": 126.773,
      "price_krw": 150616,
      "distance": {
        "type": "walk",
        "display_en": "Walk 2min",
        "display_kr": "도보 2분",
        "minutes": 2,
        "distance_km": 0.2
      },
      "display_tags": {
        "type": {
          "label_en": "Residence",
          "label_kr": "레지던스",
          "color": "#87CEEB"
        },
        "density": {
          "value": 51,
          "label_en": "ARMY 51%",
          "label_kr": "아미 51%"
        },
        "transport": {
          "station_en": "Jeongbalsan",
          "station_kr": "정발산역",
          "line_en": "Line 3",
          "line_kr": "3호선",
          "line_color": "#EF7C1C",
          "to_venue_min": 10,
          "display_en": "Jeongbalsan (Line 3)",
          "display_kr": "정발산역 (3호선)"
        },
        "army_spot": {
          "name_en": "MBC Sangam",
          "spot_tag": "Music Show",
          "distance_km": 13.4
        }
      },
      "platform": {
        "name": "Agoda",
        "rating": 3.9,
        "booking_url": "https://www.agoda.com/search?city=14690"
      },
      "rooms_left": 0,
      "is_available": false,
      "status_en": "Sold Out",
      "image_url": "https://images.unsplash.com/photo-1502672260266-1c1ef2d93688?w=800",
      "safe_return": {
        "venue_name_en": "Goyang Stadium",
        "venue_name_kr": "고양종합운동장",
        "route_detail_en": "Walk from Goyang Stadium → Ilsan Residence",
        "route_summary_en": "Goyang Stadium → Line 3 → Hotel",
        "route_summary_kr": "고양종합운동장 → 3호선 → 숙소",
        "transport_type": "walk",
        "travel_time_min": 2,
        "last_train_time": "23:50",
        "concert_end_estimate": "22:00",
        "safe_return_possible": true,
        "line_color": "#EF7C1C",
        "station_en": "Jeongbalsan",
        "taxi_estimate_krw": 0
      },
      "army_local_guide": {
        "bts_spots": [
          {
            "name_en": "MBC Sangam",
            "spot_tag": "Music Show",
            "description_en": "Music show filming location",
            "distance_km": 13.4,
            "latitude": 37.5786,
            "longitude": 126.8918
          },
          {
            "name_en": "Hongdae Busking Street",
            "spot_tag": "Trainee Memory",
            "description_en": "Pre-debut busking location of BTS",
            "distance_km": 17.1,
            "latitude": 37.5563,
            "longitude": 126.922
          },
          {
            "name_en": "Gwangjang Market",
            "spot_tag": "Debut Memory",
            "description_en": "2013 debut stage location",
            "distance_km": 22.9,
            "latitude": 37.57,
            "longitude": 127.0098
          }
        ],
        "restaurants": [
          {
            "name_en": "Ilsan Food Street",
            "spot_tag": "Local Eats",
            "description_en": "Popular local food street near stadium",
            "distance_km": 0.4,
            "latitude": 37.658,
            "longitude": 126.772
          },
          {
            "name_en": "La Festa Restaurants",
            "spot_tag": "Dining Hub",
            "description_en": "Various restaurants in La Festa complex",
            "distance_km": 0.4,
            "latitude": 37.6575,
            "longitude": 126.7705
          },
          {
            "name_en": "Western Dom Food Court",
            "spot_tag": "Food Court",
            "description_en": "Food court with Korean and international options",
            "distance_km": 1.4,
            "latitude": 37.663,
            "longitude": 126.762
          }
        ],
        "cafes": [
          {
            "name_en": "La Festa Cafes",
            "spot_tag": "Trendy Cafe",
            "description_en": "Trendy cafes in La Festa area",
            "distance_km": 0.3,
            "latitude": 37.6572,
            "longitude": 126.771
          },
          {
            "name_en": "Ilsan Lake Park Cafe Street",
            "spot_tag": "Lake View Cafe",
            "description_en": "Scenic cafes along Ilsan Lake Park",
            "distance_km": 1.2,
            "latitude": 37.659,
            "longitude": 126.76
          }
        ],
        "hotspots": [
          {
            "name_en": "Ilsan Lake Park",
            "spot_tag": "Must Visit",
            "description_en": "Beautiful lake park, great for walks",
            "distance_km": 1.3,
            "latitude": 37.658,
            "longitude": 126.759
          },
          {
            "name_en": "One Mount",
            "spot_tag": "Entertainment",
            "description_en": "Theme park with water park and snow park",
            "distance_km": 2.3,
            "latitude": 37.665,
            "longitude": 126.751
          },
          {
            "name_en": "Starfield Goyang",
            "spot_tag": "Shopping",
            "description_en": "Large shopping mall with various stores",
            "distance_km": 10.8,
            "latitude": 37.645,
            "longitude": 126.895
          }
        ]
      },
      "booking_guide": {
        "platform": "Agoda",
        "steps_en": [
          "1. Select your dates and search for hotels",
          "2. Choose your room and click 'Book Now'",
          "3. Enter guest details (passport name required)",
          "4. Pay with international credit card or PayPal",
          "5. Receive confirmation email instantly"
        ],
        "tips_en": [
          "Use 'Pay at Hotel' option if available for flexibility",
          "Check cancellation policy before booking",
          "AgodaCash can be used for discounts"
        ],
        "payment_methods": [
          "Credit Card",
          "PayPal",
          "Pay at Hotel"
        ],
        "foreigner_friendly": true
      },
      "last_update": "2026-01-26 03:15:15",
      "nearby_recommendations": [
        {
          "id": "hotel_66536",
          "name_en": "Goyang Cozy Room",
          "price_krw": 70542,
          "distance_km": 0.2,
          "image_url": "https://images.unsplash.com/photo-1501183638710-841dd1904471?w=800",
          "platform_name": "Agoda",
          "rating": 3.8
        },
        {
          "id": "hotel_42942",
          "name_en": "Best Western Premier Kukdo",
          "price_krw": 142311,
          "distance_km": 0.2,
          "image_url": "https://images.unsplash.com/photo-1551882547-ff40c63fe5fa?w=800",
          "platform_name": "Booking.com",
          "rating": 4.1
        },
        {
          "id": "hotel_79457",
          "name_en": "Hotel Icon Ilsan",
          "price_krw": 70908,
          "distance_km": 0.2,
          "image_url": "https://images.unsplash.com/photo-1631049307264-da0ec9d70304?w=800",
          "platform_name": "Booking.com",
          "rating": 4.0
        }
      ]
    },
    {
      "id": "hotel_29377",
      "name_en": "La Festa Residence",
      "area": "Ilsan/KINTEX",
      "latitude": 37.6575,
      "longitude": 126.7705,
      "price_krw": 113998,
      "distance": {
        "type": "walk",
        "display_en": "Walk 2min",
        "display_kr": "도보 2분",
        "minutes": 2,
        "distance_km": 0.2
      },
      "display_tags": {
        "type": {
          "label_en": "Residence",
          "label_kr": "레지던스",
          "color": "#87CEEB"
        },
        "density": {
          "value": 50,
          "label_en": "ARMY 50%",
          "label_kr": "아미 50%"
        },
        "transport": {
          "station_en": "Jeongbalsan",
          "station_kr": "정발산역",
          "line_en": "Line 3",
          "line_kr": "3호선",
          "line_color": "#EF7C1C",
          "to_venue_min": 10,
          "display_en": "Jeongbalsan (Line 3)",
          "display_kr": "정발산역 (3호선)"
        },
        "army_spot": {
          "name_en": "MBC Sangam",
          "spot_tag": "Music Show",
          "distance_km": 13.8
        }
      },
      "platform": {
        "name": "Agoda",
        "rating": 3.9,
        "booking_url": "https://www.agoda.com/search?city=14690"
      },
      "rooms_left": 9,
      "is_available": true,
      "status_en": "9 rooms left",
      "image_url": "https://images.unsplash.com/photo-1502672260266-1c1ef2d93688?w=800",
      "safe_return": {
        "venue_name_en": "Goyang Stadium",
        "venue_name_kr": "고양종합운동장",
        "route_detail_en": "Walk from Goyang Stadium → La Festa Residence",
        "route_summary_en": "Goyang Stadium → Line 3 → Hotel",
        "route_summary_kr": "고양종합운동장 → 3호선 → 숙소",
        "transport_type": "walk",
        "travel_time_min": 2,
        "last_train_time": "23:50",
        "concert_end_estimate": "22:00",
        "safe_return_possible": true,
        "line_color": "#EF7C1C",
        "station_en": "Jeongbalsan",
        "taxi_estimate_krw": 0
      },
      "army_local_guide": {
        "bts_spots": [
          {
            "name_en": "MBC Sangam",
            "spot_tag": "Music Show",
            "description_en": "Music show filming location",
            "distance_km": 13.8,
            "latitude": 37.5786,
            "longitude": 126.8918
          },
          {
            "name_en": "Hongdae Busking Street",
            "spot_tag": "Trainee Memory",
            "description_en": "Pre-debut busking location of BTS",
            "distance_km": 17.5,
            "latitude": 37.5563,
            "longitude": 126.922
          },
          {
            "name_en": "Gwangjang Market",
            "spot_tag": "Debut Memory",
            "description_en": "2013 debut stage location",
            "distance_km": 23.2,
            "latitude": 37.57,
            "longitude": 127.0098
          }
        ],
        "restaurants": [
          {
            "name_en": "La Festa Restaurants",
            "spot_tag": "Dining Hub",
            "description_en": "Various restaurants in La Festa complex",
            "distance_km": 0.0,
            "latitude": 37.6575,
            "longitude": 126.7705
          },
          {
            "name_en": "Ilsan Food Street",
            "spot_tag": "Local Eats",
            "description_en": "Popular local food street near stadium",
            "distance_km": 0.1,
            "latitude": 37.658,
            "longitude": 126.772
          },
          {
            "name_en": "Western Dom Food Court",
            "spot_tag": "Food Court",
            "description_en": "Food court with Korean and international options",
            "distance_km": 1.0,
            "latitude": 37.663,
            "longitude": 126.762
          }
        ],
        "cafes": [
          {
            "name_en": "La Festa Cafes",
            "spot_tag": "Trendy Cafe",
            "description_en": "Trendy cafes in La Festa area",
            "distance_km": 0.1,
            "latitude": 37.6572,
            "longitude": 126.771
          },
          {
            "name_en": "Ilsan Lake Park Cafe Street",
            "spot_tag": "Lake View Cafe",
            "description_en": "Scenic cafes along Ilsan Lake Park",
            "distance_km": 0.9,
            "latitude": 37.659,
            "longitude": 126.76
          }
        ],
        "hotspots": [
          {
            "name_en": "Ilsan Lake Park",
            "spot_tag": "Must Visit",
            "description_en": "Beautiful lake park, great for walks",
            "distance_km": 1.0,
            "latitude": 37.658,
            "longitude": 126.759
          },
          {
            "name_en": "One Mount",
            "spot_tag": "Entertainment",
            "description_en": "Theme park with water park and snow park",
            "distance_km": 1.9,
            "latitude": 37.665,
            "longitude": 126.751
          },
          {
            "name_en": "Starfield Goyang",
            "spot_tag": "Shopping",
            "description_en": "Large shopping mall with various stores",
            "distance_km": 11.0,
            "latitude": 37.645,
            "longitude": 126.895
          }
        ]
      },
      "booking_guide": {
        "platform": "Agoda",
        "steps_en": [
          "1. Select your dates and search for hotels",
          "2. Choose your room and click 'Book Now'",
          "3. Enter guest details (passport name required)",
          "4. Pay with international credit card or PayPal",
          "5. Receive confirmation email instantly"
        ],
        "tips_en": [
          "Use 'Pay at Hotel' option if available for flexibility",
          "Check cancellation policy before booking",
          "AgodaCash can be used for discounts"
        ],
        "payment_methods": [
          "Credit Card",
          "PayPal",
          "Pay at Hotel"
        ],
        "foreigner_friendly": true
      },
      "last_update": "2026-01-26 03:15:15",
      "nearby_recommendations": [
        {
          "id": "hotel_15129",
          "name_en": "MVL Hotel Goyang",
          "price_krw": 243941,
          "distance_km": 0.2,
          "image_url": "https://images.unsplash.com/photo-1582719508461-905c673771fd?w=800",
          "platform_name": "Hotels.com",
          "rating": 4.4
        },
        {
          "id": "hotel_66536",
          "name_en": "Goyang Cozy Room",
          "price_krw": 70542,
          "distance_km": 0.2,
          "image_url": "https://images.unsplash.com/photo-1501183638710-841dd1904471?w=800",
          "platform_name": "Agoda",
          "rating": 3.8
        },
        {
          "id": "hotel_95012",
          "name_en": "Ilsan The Stay",
          "price_krw": 119827,
          "distance_km": 0.2,
          "image_url": "https://images.unsplash.com/photo-1502672260266-1c1ef2d93688?w=800",
          "platform_name": "야놀자",
          "rating": 4.2
        }
      ]
    },
    {
      "id": "hotel_42942",
      "name_en": "Best Western Premier Kukdo",
      "area": "Ilsan/KINTEX",
      "latitude": 37.6555,
      "longitude": 126.775,
      "price_krw": 142311,
      "distance": {
        "type": "walk",
        "display_en": "Walk 3min",
        "display_kr": "도보 3분",
        "minutes": 3,
        "distance_km": 0.3
      },
      "display_tags": {
        "type": {
          "label_en": "4-Star Hotel",
          "label_kr": "4성급",
          "color": "#C0C0C0"
        },
        "density": {
          "value": 60,
          "label_en": "ARMY 60%",
          "label_kr": "아미 60%"
        },
        "transport": {
          "station_en": "Jeongbalsan",
          "station_kr": "정발산역",
          "line_en": "Line 3",
          "line_kr": "3호선",
          "line_color": "#EF7C1C",
          "to_venue_min": 10,
          "display_en": "Jeongbalsan (Line 3)",
          "display_kr": "정발산역 (3호선)"
        },
        "army_spot": {
          "name_en": "MBC Sangam",
          "spot_tag": "Music Show",
          "distance_km": 13.4
        }
      },
      "platform": {
        "name": "Booking.com",
        "rating": 4.1,
        "booking_url": "https://www.booking.com/searchresults.ko.html?dest_id=-716583"
      },
      "rooms_left": 9,
      "is_available": true,
      "status_en": "9 rooms left",
      "image_url": "https://images.unsplash.com/photo-1551882547-ff40c63fe5fa?w=800",
      "safe_return": {
        "venue_name_en": "Goyang Stadium",
        "venue_name_kr": "고양종합운동장",
        "route_detail_en": "Walk from Goyang Stadium → Best Western Premier Kukdo",
        "route_summary_en": "Goyang Stadium → Line 3 → Hotel",
        "route_summary_kr": "고양종합운동장 → 3호선 → 숙소",
        "transport_type": "walk",
        "travel_time_min": 3,
        "last_train_time": "23:50",
        "concert_end_estimate": "22:00",
        "safe_return_possible": true,
        "line_color": "#EF7C1C",
        "station_en": "Jeongbalsan",
        "taxi_estimate_krw": 0
      },
      "army_local_guide": {
        "bts_spots": [
          {
            "name_en": "MBC Sangam",
            "spot_tag": "Music Show",
            "description_en": "Music show filming location",
            "distance_km": 13.4,
            "latitude": 37.5786,
            "longitude": 126.8918
          },
          {
            "name_en": "Hongdae Busking Street",
            "spot_tag": "Trainee Memory",
            "description_en": "Pre-debut busking location of BTS",
            "distance_km": 17.0,
            "latitude": 37.5563,
            "longitude": 126.922
          },
          {
            "name_en": "Gwangjang Market",
            "spot_tag": "Debut Memory",
            "description_en": "2013 debut stage location",
            "distance_km": 22.8,
            "latitude": 37.57,
            "longitude": 127.0098
          }
        ],
        "restaurants": [
          {
            "name_en": "Ilsan Food Street",
            "spot_tag": "Local Eats",
            "description_en": "Popular local food street near stadium",
            "distance_km": 0.4,
            "latitude": 37.658,
            "longitude": 126.772
          },
          {
            "name_en": "La Festa Restaurants",
            "spot_tag": "Dining Hub",
            "description_en": "Various restaurants in La Festa complex",
            "distance_km": 0.5,
            "latitude": 37.6575,
            "longitude": 126.7705
          },
          {
            "name_en": "Western Dom Food Court",
            "spot_tag": "Food Court",
            "description_en": "Food court with Korean and international options",
            "distance_km": 1.4,
            "latitude": 37.663,
            "longitude": 126.762
          }
        ],
        "cafes": [
          {
            "name_en": "La Festa Cafes",
            "spot_tag": "Trendy Cafe",
            "description_en": "Trendy cafes in La Festa area",
            "distance_km": 0.4,
            "latitude": 37.6572,
            "longitude": 126.771
          },
          {
            "name_en": "Ilsan Lake Park Cafe Street",
            "spot_tag": "Lake View Cafe",
            "description_en": "Scenic cafes along Ilsan Lake Park",
            "distance_km": 1.4,
            "latitude": 37.659,
            "longitude": 126.76
          }
        ],
        "hotspots": [
          {
            "name_en": "Ilsan Lake Park",
            "spot_tag": "Must Visit",
            "description_en": "Beautiful lake park, great for walks",
            "distance_km": 1.4,
            "latitude": 37.658,
            "longitude": 126.759
          },
          {
            "name_en": "One Mount",
            "spot_tag": "Entertainment",
            "description_en": "Theme park with water park and snow park",
            "distance_km": 2.4,
            "latitude": 37.665,
            "longitude": 126.751
          },
          {
            "name_en": "Starfield Goyang",
            "spot_tag": "Shopping",
            "description_en": "Large shopping mall with various stores",
            "distance_km": 10.6,
            "latitude": 37.645,
            "longitude": 126.895
          }
        ]
      },
      "booking_guide": {
        "platform": "Booking.com",
        "steps_en": [
          "1. Search for Goyang hotels with your dates",
          "2. Filter by 'Free Cancellation' for flexibility",
          "3. Select room and enter guest information",
          "4. Choose 'Pay at Property' or prepay online",
          "5. Show confirmation at check-in"
        ],
        "tips_en": [
          "Genius membership gives extra discounts",
          "Many hotels offer free cancellation",
          "Mobile app has exclusive deals"
        ],
        "payment_methods": [
          "Credit Card",
          "Pay at Property"
        ],
        "foreigner_friendly": true
      },
      "last_update": "2026-01-26 03:15:15",
      "nearby_recommendations": [
        {
          "id": "hotel_80128",
          "name_en": "Ilsan Residence",
          "price_krw": 150616,
          "distance_km": 0.2,
          "image_url": "https://images.unsplash.com/photo-1502672260266-1c1ef2d93688?w=800",
          "platform_name": "Agoda",
          "rating": 3.9
        },
        {
          "id": "hotel_31601",
          "name_en": "Goyang Stay Residence",
          "price_krw": 131943,
          "distance_km": 0.2,
          "image_url": "https://images.unsplash.com/photo-1502672260266-1c1ef2d93688?w=800",
          "platform_name": "야놀자",
          "rating": 4.0
        },
        {
          "id": "hotel_66536",
          "name_en": "Goyang Cozy Room",
          "price_krw": 70542,
          "distance_km": 0.3,
          "image_url": "https://images.unsplash.com/photo-1501183638710-841dd1904471?w=800",
          "platform_name": "Agoda",
          "rating": 3.8
        }
      ]
    },
    {
      "id": "hotel_31601",
      "name_en": "Goyang Stay Residence",
      "area": "Ilsan/KINTEX",
      "latitude": 37.657,
      "longitude": 126.774,
      "price_krw": 131943,
      "distance": {
        "type": "walk",
        "display_en": "Walk 3min",
        "display_kr": "도보 3분",
        "minutes": 3,
        "distance_km": 0.3
      },
      "display_tags": {
        "type": {
          "label_en": "Residence",
          "label_kr": "레지던스",
          "color": "#87CEEB"
        },
        "density": {
          "value": 54,
          "label_en": "ARMY 54%",
          "label_kr": "아미 54%"
        },
        "transport": {
          "station_en": "Jeongbalsan",
          "station_kr": "정발산역",
          "line_en": "Line 3",
          "line_kr": "3호선",
          "line_color": "#EF7C1C",
          "to_venue_min": 10,
          "display_en": "Jeongbalsan (Line 3)",
          "display_kr": "정발산역 (3호선)"
        },
        "army_spot": {
          "name_en": "MBC Sangam",
          "spot_tag": "Music Show",
          "distance_km": 13.6
        }
      },
      "platform": {
        "name": "야놀자",
        "rating": 4.0,
        "booking_url": "https://www.yanolja.com/search/고양"
      },
      "rooms_left": 10,
      "is_available": true,
      "status_en": "10 rooms left",
      "image_url": "https://images.unsplash.com/photo-1502672260266-1c1ef2d93688?w=800",
      "safe_return": {
        "venue_name_en": "Goyang Stadium",
        "venue_name_kr": "고양종합운동장",
        "route_detail_en": "Walk from Goyang Stadium → Goyang Stay Residence",
        "route_summary_en": "Goyang Stadium → Line 3 → Hotel",
        "route_summary_kr": "고양종합운동장 → 3호선 → 숙소",
        "transport_type": "walk",
        "travel_time_min": 3,
        "last_train_time": "23:50",
        "concert_end_estimate": "22:00",
        "safe_return_possible": true,
        "line_color": "#EF7C1C",
        "station_en": "Jeongbalsan",
        "taxi_estimate_krw": 0
      },
      "army_local_guide": {
        "bts_spots": [
          {
            "name_en": "MBC Sangam",
            "spot_tag": "Music Show",
            "description_en": "Music show filming location",
            "distance_km": 13.6,
            "latitude": 37.5786,
            "longitude": 126.8918
          },
          {
            "name_en": "Hongdae Busking Street",
            "spot_tag": "Trainee Memory",
            "description_en": "Pre-debut busking location of BTS",
            "distance_km": 17.2,
            "latitude": 37.5563,
            "longitude": 126.922
          },
          {
            "name_en": "Gwangjang Market",
            "spot_tag": "Debut Memory",
            "description_en": "2013 debut stage location",
            "distance_km": 22.9,
            "latitude": 37.57,
            "longitude": 127.0098
          }
        ],
        "restaurants": [
          {
            "name_en": "Ilsan Food Street",
            "spot_tag": "Local Eats",
            "description_en": "Popular local food street near stadium",
            "distance_km": 0.2,
            "latitude": 37.658,
            "longitude": 126.772
          },
          {
            "name_en": "La Festa Restaurants",
            "spot_tag": "Dining Hub",
            "description_en": "Various restaurants in La Festa complex",
            "distance_km": 0.3,
            "latitude": 37.6575,
            "longitude": 126.7705
          },
          {
            "name_en": "Western Dom Food Court",
            "spot_tag": "Food Court",
            "description_en": "Food court with Korean and international options",
            "distance_km": 1.2,
            "latitude": 37.663,
            "longitude": 126.762
          }
        ],
        "cafes": [
          {
            "name_en": "La Festa Cafes",
            "spot_tag": "Trendy Cafe",
            "description_en": "Trendy cafes in La Festa area",
            "distance_km": 0.3,
            "latitude": 37.6572,
            "longitude": 126.771
          },
          {
            "name_en": "Ilsan Lake Park Cafe Street",
            "spot_tag": "Lake View Cafe",
            "description_en": "Scenic cafes along Ilsan Lake Park",
            "distance_km": 1.3,
            "latitude": 37.659,
            "longitude": 126.76
          }
        ],
        "hotspots": [
          {
            "name_en": "Ilsan Lake Park",
            "spot_tag": "Must Visit",
            "description_en": "Beautiful lake park, great for walks",
            "distance_km": 1.3,
            "latitude": 37.658,
            "longitude": 126.759
          },
          {
            "name_en": "One Mount",
            "spot_tag": "Entertainment",
            "description_en": "Theme park with water park and snow park",
            "distance_km": 2.2,
            "latitude": 37.665,
            "longitude": 126.751
          },
          {
            "name_en": "Starfield Goyang",
            "spot_tag": "Shopping",
            "description_en": "Large shopping mall with various stores",
            "distance_km": 10.7,
            "latitude": 37.645,
            "longitude": 126.895
          }
        ]
      },
      "booking_guide": {
        "platform": "Yanolja",
        "steps_en": [
          "1. Download Yanolja app (available in English)",
          "2. Search '고양' or 'Goyang' for hotels",
          "3. Select dates and choose accommodation",
          "4. Register with phone number (Korean or international)",
          "5. Pay with Korean card or international card"
        ],
        "tips_en": [
          "App has English language option",
          "Some hotels may require Korean phone for contact",
          "Check if hotel accepts foreign guests"
        ],
        "payment_methods": [
          "Credit Card",
          "Korean Pay"
        ],
        "foreigner_friendly": "partial"
      },
      "last_update": "2026-01-26 03:15:15",
      "nearby_recommendations": [
        {
          "id": "hotel_66536",
          "name_en": "Goyang Cozy Room",
          "price_krw": 70542,
          "distance_km": 0.2,
          "image_url": "https://images.unsplash.com/photo-1501183638710-841dd1904471?w=800",
          "platform_name": "Agoda",
          "rating": 3.8
        },
        {
          "id": "hotel_42942",
          "name_en": "Best Western Premier Kukdo",
          "price_krw": 142311,
          "distance_km": 0.2,
          "image_url": "https://images.unsplash.com/photo-1551882547-ff40c63fe5fa?w=800",
          "platform_name": "Booking.com",
          "rating": 4.1
        },
        {
          "id": "hotel_95012",
          "name_en": "Ilsan The Stay",
          "price_krw": 119827,
          "distance_km": 0.2,
          "image_url": "https://images.unsplash.com/photo-1502672260266-1c1ef2d93688?w=800",
          "platform_name": "야놀자",
          "rating": 4.2
        }
      ]
    },
    {
      "id": "hotel_03352",
      "name_en": "Jeongbalsan Modern Studio",
      "area": "Ilsan/KINTEX",
      "latitude": 37.655,
      "longitude": 126.768,
      "price_krw": 50234,
      "distance": {
        "type": "walk",
        "display_en": "Walk 3min",
        "display_kr": "도보 3분",
        "minutes": 3,
        "distance_km": 0.3
      },
      "display_tags": {
        "type": {
          "label_en": "Airbnb",
          "label_kr": "에어비앤비",
          "color": "#FF5A5F"
        },
        "density": {
          "value": 51,
          "label_en": "ARMY 51%",
          "label_kr": "아미 51%"
        },
        "transport": {
          "station_en": "Jeongbalsan",
          "station_kr": "정발산역",
          "line_en": "Line 3",
          "line_kr": "3호선",
          "line_color": "#EF7C1C",
          "to_venue_min": 10,
          "display_en": "Jeongbalsan (Line 3)",
          "display_kr": "정발산역 (3호선)"
        },
        "army_spot": {
          "name_en": "MBC Sangam",
          "spot_tag": "Music Show",
          "distance_km": 13.8
        }
      },
      "platform": {
        "name": "Agoda",
        "rating": 4.3,
        "booking_url": "https://www.agoda.com/search?city=14690"
      },
      "rooms_left": 0,
      "is_available": false,
      "status_en": "Sold Out",
      "image_url": "https://images.unsplash.com/photo-1501183638710-841dd1904471?w=800",
      "safe_return": {
        "venue_name_en": "Goyang Stadium",
        "venue_name_kr": "고양종합운동장",
        "route_detail_en": "Walk from Goyang Stadium → Jeongbalsan Modern Studio",
        "route_summary_en": "Goyang Stadium → Line 3 → Hotel",
        "route_summary_kr": "고양종합운동장 → 3호선 → 숙소",
        "transport_type": "walk",
        "travel_time_min": 3,
        "last_train_time": "23:50",
        "concert_end_estimate": "22:00",
        "safe_return_possible": true,
        "line_color": "#EF7C1C",
        "station_en": "Jeongbalsan",
        "taxi_estimate_krw": 0
      },
      "army_local_guide": {
        "bts_spots": [
          {
            "name_en": "MBC Sangam",
            "spot_tag": "Music Show",
            "description_en": "Music show filming location",
            "distance_km": 13.8,
            "latitude": 37.5786,
            "longitude": 126.8918
          },
          {
            "name_en": "Hongdae Busking Street",
            "spot_tag": "Trainee Memory",
            "description_en": "Pre-debut busking location of BTS",
            "distance_km": 17.4,
            "latitude": 37.5563,
            "longitude": 126.922
          },
          {
            "name_en": "Gwangjang Market",
            "spot_tag": "Debut Memory",
            "description_en": "2013 debut stage location",
            "distance_km": 23.3,
            "latitude": 37.57,
            "longitude": 127.0098
          }
        ],
        "restaurants": [
          {
            "name_en": "La Festa Restaurants",
            "spot_tag": "Dining Hub",
            "description_en": "Various restaurants in La Festa complex",
            "distance_km": 0.4,
            "latitude": 37.6575,
            "longitude": 126.7705
          },
          {
            "name_en": "Ilsan Food Street",
            "spot_tag": "Local Eats",
            "description_en": "Popular local food street near stadium",
            "distance_km": 0.5,
            "latitude": 37.658,
            "longitude": 126.772
          },
          {
            "name_en": "Western Dom Food Court",
            "spot_tag": "Food Court",
            "description_en": "Food court with Korean and international options",
            "distance_km": 1.0,
            "latitude": 37.663,
            "longitude": 126.762
          }
        ],
        "cafes": [
          {
            "name_en": "La Festa Cafes",
            "spot_tag": "Trendy Cafe",
            "description_en": "Trendy cafes in La Festa area",
            "distance_km": 0.4,
            "latitude": 37.6572,
            "longitude": 126.771
          },
          {
            "name_en": "Ilsan Lake Park Cafe Street",
            "spot_tag": "Lake View Cafe",
            "description_en": "Scenic cafes along Ilsan Lake Park",
            "distance_km": 0.8,
            "latitude": 37.659,
            "longitude": 126.76
          }
        ],
        "hotspots": [
          {
            "name_en": "Ilsan Lake Park",
            "spot_tag": "Must Visit",
            "description_en": "Beautiful lake park, great for walks",
            "distance_km": 0.9,
            "latitude": 37.658,
            "longitude": 126.759
          },
          {
            "name_en": "One Mount",
            "spot_tag": "Entertainment",
            "description_en": "Theme park with water park and snow park",
            "distance_km": 1.9,
            "latitude": 37.665,
            "longitude": 126.751
          },
          {
            "name_en": "Starfield Goyang",
            "spot_tag": "Shopping",
            "description_en": "Large shopping mall with various stores",
            "distance_km": 11.2,
            "latitude": 37.645,
            "longitude": 126.895
          }
        ]
      },
      "booking_guide": {
        "platform": "Agoda",
        "steps_en": [
          "1. Select your dates and search for hotels",
          "2. Choose your room and click 'Book Now'",
          "3. Enter guest details (passport name required)",
          "4. Pay with international credit card or PayPal",
          "5. Receive confirmation email instantly"
        ],
        "tips_en": [
          "Use 'Pay at Hotel' option if available for flexibility",
          "Check cancellation policy before booking",
          "AgodaCash can be used for discounts"
        ],
        "payment_methods": [
          "Credit Card",
          "PayPal",
          "Pay at Hotel"
        ],
        "foreigner_friendly": true
      },
      "last_update": "2026-01-26 03:15:15",
      "nearby_recommendations": [
        {
          "id": "hotel_15129",
          "name_en": "MVL Hotel Goyang",
          "price_krw": 243941,
          "distance_km": 0.2,
          "image_url": "https://images.unsplash.com/photo-1582719508461-905c673771fd?w=800",
          "platform_name": "Hotels.com",
          "rating": 4.4
        },
        {
          "id": "hotel_33334",
          "name_en": "Ilsan ARMY House",
          "price_krw": 37652,
          "distance_km": 0.2,
          "image_url": "https://images.unsplash.com/photo-1555854877-bab0e564b8d5?w=800",
          "platform_name": "야놀자",
          "rating": 4.3
        },
        {
          "id": "hotel_79457",
          "name_en": "Hotel Icon Ilsan",
          "price_krw": 70908,
          "distance_km": 0.3,
          "image_url": "https://images.unsplash.com/photo-1631049307264-da0ec9d70304?w=800",
          "platform_name": "Booking.com",
          "rating": 4.0
        }
      ]
    },
    {
      "id": "hotel_79457",
      "name_en": "Hotel Icon Ilsan",
      "area": "Ilsan/KINTEX",
      "latitude": 37.653,
      "longitude": 126.771,
      "price_krw": 70908,
      "distance": {
        "type": "walk",
        "display_en": "Walk 3min",
        "display_kr": "도보 3분",
        "minutes": 3,
        "distance_km": 0.3
      },
      "display_tags": {
        "type": {
          "label_en": "3-Star Hotel",
          "label_kr": "3성급",
          "color": "#CD7F32"
        },
        "density": {
          "value": 76,
          "label_en": "ARMY 76%",
          "label_kr": "아미 76%"
        },
        "transport": {
          "station_en": "Jeongbalsan",
          "station_kr": "정발산역",
          "line_en": "Line 3",
          "line_kr": "3호선",
          "line_color": "#EF7C1C",
          "to_venue_min": 10,
          "display_en": "Jeongbalsan (Line 3)",
          "display_kr": "정발산역 (3호선)"
        },
        "army_spot": {
          "name_en": "MBC Sangam",
          "spot_tag": "Music Show",
          "distance_km": 13.5
        }
      },
      "platform": {
        "name": "Booking.com",
        "rating": 4.0,
        "booking_url": "https://www.booking.com/searchresults.ko.html?dest_id=-716583"
      },
      "rooms_left": 5,
      "is_available": true,
      "status_en": "5 rooms left",
      "image_url": "https://images.unsplash.com/photo-1631049307264-da0ec9d70304?w=800",
      "safe_return": {
        "venue_name_en": "Goyang Stadium",
        "venue_name_kr": "고양종합운동장",
        "route_detail_en": "Walk from Goyang Stadium → Hotel Icon Ilsan",
        "route_summary_en": "Goyang Stadium → Line 3 → Hotel",
        "route_summary_kr": "고양종합운동장 → 3호선 → 숙소",
        "transport_type": "walk",
        "travel_time_min": 3,
        "last_train_time": "23:50",
        "concert_end_estimate": "22:00",
        "safe_return_possible": true,
        "line_color": "#EF7C1C",
        "station_en": "Jeongbalsan",
        "taxi_estimate_krw": 0
      },
      "army_local_guide": {
        "bts_spots": [
          {
            "name_en": "MBC Sangam",
            "spot_tag": "Music Show",
            "description_en": "Music show filming location",
            "distance_km": 13.5,
            "latitude": 37.5786,
            "longitude": 126.8918
          },
          {
            "name_en": "Hongdae Busking Street",
            "spot_tag": "Trainee Memory",
            "description_en": "Pre-debut busking location of BTS",
            "distance_km": 17.1,
            "latitude": 37.5563,
            "longitude": 126.922
          },
          {
            "name_en": "Gwangjang Market",
            "spot_tag": "Debut Memory",
            "description_en": "2013 debut stage location",
            "distance_km": 23.0,
            "latitude": 37.57,
            "longitude": 127.0098
          }
        ],
        "restaurants": [
          {
            "name_en": "La Festa Restaurants",
            "spot_tag": "Dining Hub",
            "description_en": "Various restaurants in La Festa complex",
            "distance_km": 0.5,
            "latitude": 37.6575,
            "longitude": 126.7705
          },
          {
            "name_en": "Ilsan Food Street",
            "spot_tag": "Local Eats",
            "description_en": "Popular local food street near stadium",
            "distance_km": 0.6,
            "latitude": 37.658,
            "longitude": 126.772
          },
          {
            "name_en": "Western Dom Food Court",
            "spot_tag": "Food Court",
            "description_en": "Food court with Korean and international options",
            "distance_km": 1.4,
            "latitude": 37.663,
            "longitude": 126.762
          }
        ],
        "cafes": [
          {
            "name_en": "La Festa Cafes",
            "spot_tag": "Trendy Cafe",
            "description_en": "Trendy cafes in La Festa area",
            "distance_km": 0.5,
            "latitude": 37.6572,
            "longitude": 126.771
          },
          {
            "name_en": "Ilsan Lake Park Cafe Street",
            "spot_tag": "Lake View Cafe",
            "description_en": "Scenic cafes along Ilsan Lake Park",
            "distance_km": 1.2,
            "latitude": 37.659,
            "longitude": 126.76
          }
        ],
        "hotspots": [
          {
            "name_en": "Ilsan Lake Park",
            "spot_tag": "Must Visit",
            "description_en": "Beautiful lake park, great for walks",
            "distance_km": 1.2,
            "latitude": 37.658,
            "longitude": 126.759
          },
          {
            "name_en": "One Mount",
            "spot_tag": "Entertainment",
            "description_en": "Theme park with water park and snow park",
            "distance_km": 2.2,
            "latitude": 37.665,
            "longitude": 126.751
          },
          {
            "name_en": "Starfield Goyang",
            "spot_tag": "Shopping",
            "description_en": "Large shopping mall with various stores",
            "distance_km": 11.0,
            "latitude": 37.645,
            "longitude": 126.895
          }
        ]
      },
      "booking_guide": {
        "platform": "Booking.com",
        "steps_en": [
          "1. Search for Goyang hotels with your dates",
          "2. Filter by 'Free Cancellation' for flexibility",
          "3. Select room and enter guest information",
          "4. Choose 'Pay at Property' or prepay online",
          "5. Show confirmation at check-in"
        ],
        "tips_en": [
          "Genius membership gives extra discounts",
          "Many hotels offer free cancellation",
          "Mobile app has exclusive deals"
        ],
        "payment_methods": [
          "Credit Card",
          "Pay at Property"
        ],
        "foreigner_friendly": true
      },
      "last_update": "2026-01-26 03:15:15",
      "nearby_recommendations": [
        {
          "id": "hotel_80128",
          "name_en": "Ilsan Residence",
          "price_krw": 150616,
          "distance_km": 0.2,
          "image_url": "https://images.unsplash.com/photo-1502672260266-1c1ef2d93688?w=800",
          "platform_name": "Agoda",
          "rating": 3.9
        },
        {
          "id": "hotel_15129",
          "name_en": "MVL Hotel Goyang",
          "price_krw": 243941,
          "distance_km": 0.3,
          "image_url": "https://images.unsplash.com/photo-1582719508461-905c673771fd?w=800",
          "platform_name": "Hotels.com",
          "rating": 4.4
        },
        {
          "id": "hotel_66536",
          "name_en": "Goyang Cozy Room",
          "price_krw": 70542,
          "distance_km": 0.3,
          "image_url": "https://images.unsplash.com/photo-1501183638710-841dd1904471?w=800",
          "platform_name": "Agoda",
          "rating": 3.8
        }
      ]
    },
    {
      "id": "hotel_95012",
      "name_en": "Ilsan The Stay",
      "area": "Ilsan/KINTEX",
      "latitude": 37.6585,
      "longitude": 126.7725,
      "price_krw": 119827,
      "distance": {
        "type": "walk",
        "display_en": "Walk 4min",
        "display_kr": "도보 4분",
        "minutes": 4,
        "distance_km": 0.3
      },
      "display_tags": {
        "type": {
          "label_en": "Residence",
          "label_kr": "레지던스",
          "color": "#87CEEB"
        },
        "density": {
          "value": 50,
          "label_en": "ARMY 50%",
          "label_kr": "아미 50%"
        },
        "transport": {
          "station_en": "Jeongbalsan",
          "station_kr": "정발산역",
          "line_en": "Line 3",
          "line_kr": "3호선",
          "line_color": "#EF7C1C",
          "to_venue_min": 10,
          "display_en": "Jeongbalsan (Line 3)",
          "display_kr": "정발산역 (3호선)"
        },
        "army_spot": {
          "name_en": "MBC Sangam",
          "spot_tag": "Music Show",
          "distance_km": 13.8
        }
      },
      "platform": {
        "name": "야놀자",
        "rating": 4.2,
        "booking_url": "https://www.yanolja.com/search/고양"
      },
      "rooms_left": 3,
      "is_available": true,
      "status_en": "3 rooms left",
      "image_url": "https://images.unsplash.com/photo-1502672260266-1c1ef2d93688?w=800",
      "safe_return": {
        "venue_name_en": "Goyang Stadium",
        "venue_name_kr": "고양종합운동장",
        "route_detail_en": "Walk from Goyang Stadium → Ilsan The Stay",
        "route_summary_en": "Goyang Stadium → Line 3 → Hotel",
        "route_summary_kr": "고양종합운동장 → 3호선 → 숙소",
        "transport_type": "walk",
        "travel_time_min": 4,
        "last_train_time": "23:50",
        "concert_end_estimate": "22:00",
        "safe_return_possible": true,
        "line_color": "#EF7C1C",
        "station_en": "Jeongbalsan",
        "taxi_estimate_krw": 0
      },
      "army_local_guide": {
        "bts_spots": [
          {
            "name_en": "MBC Sangam",
            "spot_tag": "Music Show",
            "description_en": "Music show filming location",
            "distance_km": 13.8,
            "latitude": 37.5786,
            "longitude": 126.8918
          },
          {
            "name_en": "Hongdae Busking Street",
            "spot_tag": "Trainee Memory",
            "description_en": "Pre-debut busking location of BTS",
            "distance_km": 17.4,
            "latitude": 37.5563,
            "longitude": 126.922
          },
          {
            "name_en": "Gwangjang Market",
            "spot_tag": "Debut Memory",
            "description_en": "2013 debut stage location",
            "distance_km": 23.1,
            "latitude": 37.57,
            "longitude": 127.0098
          }
        ],
        "restaurants": [
          {
            "name_en": "Ilsan Food Street",
            "spot_tag": "Local Eats",
            "description_en": "Popular local food street near stadium",
            "distance_km": 0.1,
            "latitude": 37.658,
            "longitude": 126.772
          },
          {
            "name_en": "La Festa Restaurants",
            "spot_tag": "Dining Hub",
            "description_en": "Various restaurants in La Festa complex",
            "distance_km": 0.2,
            "latitude": 37.6575,
            "longitude": 126.7705
          },
          {
            "name_en": "Western Dom Food Court",
            "spot_tag": "Food Court",
            "description_en": "Food court with Korean and international options",
            "distance_km": 1.1,
            "latitude": 37.663,
            "longitude": 126.762
          }
        ],
        "cafes": [
          {
            "name_en": "La Festa Cafes",
            "spot_tag": "Trendy Cafe",
            "description_en": "Trendy cafes in La Festa area",
            "distance_km": 0.2,
            "latitude": 37.6572,
            "longitude": 126.771
          },
          {
            "name_en": "Ilsan Lake Park Cafe Street",
            "spot_tag": "Lake View Cafe",
            "description_en": "Scenic cafes along Ilsan Lake Park",
            "distance_km": 1.1,
            "latitude": 37.659,
            "longitude": 126.76
          }
        ],
        "hotspots": [
          {
            "name_en": "Ilsan Lake Park",
            "spot_tag": "Must Visit",
            "description_en": "Beautiful lake park, great for walks",
            "distance_km": 1.2,
            "latitude": 37.658,
            "longitude": 126.759
          },
          {
            "name_en": "One Mount",
            "spot_tag": "Entertainment",
            "description_en": "Theme park with water park and snow park",
            "distance_km": 2.0,
            "latitude": 37.665,
            "longitude": 126.751
          },
          {
            "name_en": "Starfield Goyang",
            "spot_tag": "Shopping",
            "description_en": "Large shopping mall with various stores",
            "distance_km": 10.9,
            "latitude": 37.645,
            "longitude": 126.895
          }
        ]
      },
      "booking_guide": {
        "platform": "Yanolja",
        "steps_en": [
          "1. Download Yanolja app (available in English)",
          "2. Search '고양' or 'Goyang' for hotels",
          "3. Select dates and choose accommodation",
          "4. Register with phone number (Korean or international)",
          "5. Pay with Korean card or international card"
        ],
        "tips_en": [
          "App has English language option",
          "Some hotels may require Korean phone for contact",
          "Check if hotel accepts foreign guests"
        ],
        "payment_methods": [
          "Credit Card",
          "Korean Pay"
        ],
        "foreigner_friendly": "partial"
      },
      "last_update": "2026-01-26 03:15:15",
      "nearby_recommendations": [
        {
          "id": "hotel_29377",
          "name_en": "La Festa Residence",
          "price_krw": 113998,
          "distance_km": 0.2,
          "image_url": "https://images.unsplash.com/photo-1502672260266-1c1ef2d93688?w=800",
          "platform_name": "Agoda",
          "rating": 3.9
        },
        {
          "id": "hotel_31601",
          "name_en": "Goyang Stay Residence",
          "price_krw": 131943,
          "distance_km": 0.2,
          "image_url": "https://images.unsplash.com/photo-1502672260266-1c1ef2d93688?w=800",
          "platform_name": "야놀자",
          "rating": 4.0
        },
        {
          "id": "hotel_66536",
          "name_en": "Goyang Cozy Room",
          "price_krw": 70542,
          "distance_km": 0.3,
          "image_url": "https://images.unsplash.com/photo-1501183638710-841dd1904471?w=800",
          "platform_name": "Agoda",
          "rating": 3.8
        }
      ]
    },
    {
      "id": "hotel_30136",
      "name_en": "Ramada Encore Goyang",
      "area": "Ilsan/KINTEX",
      "latitude": 37.658,
      "longitude": 126.768,
      "price_krw": 141426,
      "distance": {
        "type": "walk",
        "display_en": "Walk 4min",
        "display_kr": "도보 4분",
        "minutes": 4,
        "distance_km": 0.4
      },
      "display_tags": {
        "type": {
          "label_en": "4-Star Hotel",
          "label_kr": "4성급",
          "color": "#C0C0C0"
        },
        "density": {
          "value": 44,
          "label_en": "ARMY 44%",
          "label_kr": "아미 44%"
        },
        "transport": {
          "station_en": "Jeongbalsan",
          "station_kr": "정발산역",
          "line_en": "Line 3",
          "line_kr": "3호선",
          "line_color": "#EF7C1C",
          "to_venue_min": 10,
          "display_en": "Jeongbalsan (Line 3)",
          "display_kr": "정발산역 (3호선)"
        },
        "army_spot": {
          "name_en": "MBC Sangam",
          "spot_tag": "Music Show",
          "distance_km": 14.0
        }
      },
      "platform": {
        "name": "Hotels.com",
        "rating": 4.0,
        "booking_url": "https://kr.hotels.com/search.do?destination-id=759818"
      },
      "rooms_left": 2,
      "is_available": true,
      "status_en": "2 rooms left",
      "image_url": "https://images.unsplash.com/photo-1551882547-ff40c63fe5fa?w=800",
      "safe_return": {
        "venue_name_en": "Goyang Stadium",
        "venue_name_kr": "고양종합운동장",
        "route_detail_en": "Walk from Goyang Stadium → Ramada Encore Goyang",
        "route_summary_en": "Goyang Stadium → Line 3 → Hotel",
        "route_summary_kr": "고양종합운동장 → 3호선 → 숙소",
        "transport_type": "walk",
        "travel_time_min": 4,
        "last_train_time": "23:50",
        "concert_end_estimate": "22:00",
        "safe_return_possible": true,
        "line_color": "#EF7C1C",
        "station_en": "Jeongbalsan",
        "taxi_estimate_krw": 0
      },
      "army_local_guide": {
        "bts_spots": [
          {
            "name_en": "MBC Sangam",
            "spot_tag": "Music Show",
            "description_en": "Music show filming location",
            "distance_km": 14.0,
            "latitude": 37.5786,
            "longitude": 126.8918
          },
          {
            "name_en": "Hongdae Busking Street",
            "spot_tag": "Trainee Memory",
            "description_en": "Pre-debut busking location of BTS",
            "distance_km": 17.7,
            "latitude": 37.5563,
            "longitude": 126.922
          },
          {
            "name_en": "Gwangjang Market",
            "spot_tag": "Debut Memory",
            "description_en": "2013 debut stage location",
            "distance_km": 23.4,
            "latitude": 37.57,
            "longitude": 127.0098
          }
        ],
        "restaurants": [
          {
            "name_en": "La Festa Restaurants",
            "spot_tag": "Dining Hub",
            "description_en": "Various restaurants in La Festa complex",
            "distance_km": 0.2,
            "latitude": 37.6575,
            "longitude": 126.7705
          },
          {
            "name_en": "Ilsan Food Street",
            "spot_tag": "Local Eats",
            "description_en": "Popular local food street near stadium",
            "distance_km": 0.4,
            "latitude": 37.658,
            "longitude": 126.772
          },
          {
            "name_en": "Western Dom Food Court",
            "spot_tag": "Food Court",
            "description_en": "Food court with Korean and international options",
            "distance_km": 0.8,
            "latitude": 37.663,
            "longitude": 126.762
          }
        ],
        "cafes": [
          {
            "name_en": "La Festa Cafes",
            "spot_tag": "Trendy Cafe",
            "description_en": "Trendy cafes in La Festa area",
            "distance_km": 0.3,
            "latitude": 37.6572,
            "longitude": 126.771
          },
          {
            "name_en": "Ilsan Lake Park Cafe Street",
            "spot_tag": "Lake View Cafe",
            "description_en": "Scenic cafes along Ilsan Lake Park",
            "distance_km": 0.7,
            "latitude": 37.659,
            "longitude": 126.76
          }
        ],
        "hotspots": [
          {
            "name_en": "Ilsan Lake Park",
            "spot_tag": "Must Visit",
            "description_en": "Beautiful lake park, great for walks",
            "distance_km": 0.8,
            "latitude": 37.658,
            "longitude": 126.759
          },
          {
            "name_en": "One Mount",
            "spot_tag": "Entertainment",
            "description_en": "Theme park with water park and snow park",
            "distance_km": 1.7,
            "latitude": 37.665,
            "longitude": 126.751
          },
          {
            "name_en": "Starfield Goyang",
            "spot_tag": "Shopping",
            "description_en": "Large shopping mall with various stores",
            "distance_km": 11.3,
            "latitude": 37.645,
            "longitude": 126.895
          }
        ]
      },
      "booking_guide": {
        "platform": "Hotels.com",
        "steps_en": [
          "1. Search 'Goyang, South Korea' on Hotels.com",
          "2. Filter by price, rating, or amenities",
          "3. Select hotel and room type",
          "4. Enter guest details and payment info",
          "5. Collect stamps for free nights reward"
        ],
        "tips_en": [
          "Collect 10 stamps = 1 free night",
          "Price match guarantee available",
          "Secret prices for app users"
        ],
        "payment_methods": [
          "Credit Card",
          "PayPal"
        ],
        "foreigner_friendly": true
      },
      "last_update": "2026-01-26 03:15:15",
      "nearby_recommendations": [
        {
          "id": "hotel_29377",
          "name_en": "La Festa Residence",
          "price_krw": 113998,
          "distance_km": 0.2,
          "image_url": "https://images.unsplash.com/photo-1502672260266-1c1ef2d93688?w=800",
          "platform_name": "Agoda",
          "rating": 3.9
        },
        {
          "id": "hotel_15129",
          "name_en": "MVL Hotel Goyang",
          "price_krw": 243941,
          "distance_km": 0.3,
          "image_url": "https://images.unsplash.com/photo-1582719508461-905c673771fd?w=800",
          "platform_name": "Hotels.com",
          "rating": 4.4
        },
        {
          "id": "hotel_03352",
          "name_en": "Jeongbalsan Modern Studio",
          "price_krw": 50234,
          "distance_km": 0.3,
          "image_url": "https://images.unsplash.com/photo-1501183638710-841dd1904471?w=800",
          "platform_name": "Agoda",
          "rating": 4.3
        }
      ]
    },
    {
      "id": "hotel_33334",
      "name_en": "Ilsan ARMY House",
      "area": "Ilsan/KINTEX",
      "latitude": 37.6535,
      "longitude": 126.766,
      "price_krw": 37652,
      "distance": {
        "type": "walk",
        "display_en": "Walk 6min",
        "display_kr": "도보 6분",
        "minutes": 6,
        "distance_km": 0.5
      },
      "display_tags": {
        "type": {
          "label_en": "Guesthouse",
          "label_kr": "게스트하우스",
          "color": "#98FB98"
        },
        "density": {
          "value": 62,
          "label_en": "ARMY 62%",
          "label_kr": "아미 62%"
        },
        "transport": {
          "station_en": "Jeongbalsan",
          "station_kr": "정발산역",
          "line_en": "Line 3",
          "line_kr": "3호선",
          "line_color": "#EF7C1C",
          "to_venue_min": 10,
          "display_en": "Jeongbalsan (Line 3)",
          "display_kr": "정발산역 (3호선)"
        },
        "army_spot": {
          "name_en": "MBC Sangam",
          "spot_tag": "Music Show",
          "distance_km": 13.9
        }
      },
      "platform": {
        "name": "야놀자",
        "rating": 4.3,
        "booking_url": "https://www.yanolja.com/search/고양"
      },
      "rooms_left": 4,
      "is_available": true,
      "status_en": "4 rooms left",
      "image_url": "https://images.unsplash.com/photo-1555854877-bab0e564b8d5?w=800",
      "safe_return": {
        "venue_name_en": "Goyang Stadium",
        "venue_name_kr": "고양종합운동장",
        "route_detail_en": "Walk from Goyang Stadium → Ilsan ARMY House",
        "route_summary_en": "Goyang Stadium → Line 3 → Hotel",
        "route_summary_kr": "고양종합운동장 → 3호선 → 숙소",
        "transport_type": "walk",
        "travel_time_min": 6,
        "last_train_time": "23:50",
        "concert_end_estimate": "22:00",
        "safe_return_possible": true,
        "line_color": "#EF7C1C",
        "station_en": "Jeongbalsan",
        "taxi_estimate_krw": 0
      },
      "army_local_guide": {
        "bts_spots": [
          {
            "name_en": "MBC Sangam",
            "spot_tag": "Music Show",
            "description_en": "Music show filming location",
            "distance_km": 13.9,
            "latitude": 37.5786,
            "longitude": 126.8918
          },
          {
            "name_en": "Hongdae Busking Street",
            "spot_tag": "Trainee Memory",
            "description_en": "Pre-debut busking location of BTS",
            "distance_km": 17.5,
            "latitude": 37.5563,
            "longitude": 126.922
          },
          {
            "name_en": "Gwangjang Market",
            "spot_tag": "Debut Memory",
            "description_en": "2013 debut stage location",
            "distance_km": 23.4,
            "latitude": 37.57,
            "longitude": 127.0098
          }
        ],
        "restaurants": [
          {
            "name_en": "La Festa Restaurants",
            "spot_tag": "Dining Hub",
            "description_en": "Various restaurants in La Festa complex",
            "distance_km": 0.6,
            "latitude": 37.6575,
            "longitude": 126.7705
          },
          {
            "name_en": "Ilsan Food Street",
            "spot_tag": "Local Eats",
            "description_en": "Popular local food street near stadium",
            "distance_km": 0.7,
            "latitude": 37.658,
            "longitude": 126.772
          },
          {
            "name_en": "Western Dom Food Court",
            "spot_tag": "Food Court",
            "description_en": "Food court with Korean and international options",
            "distance_km": 1.1,
            "latitude": 37.663,
            "longitude": 126.762
          }
        ],
        "cafes": [
          {
            "name_en": "La Festa Cafes",
            "spot_tag": "Trendy Cafe",
            "description_en": "Trendy cafes in La Festa area",
            "distance_km": 0.6,
            "latitude": 37.6572,
            "longitude": 126.771
          },
          {
            "name_en": "Ilsan Lake Park Cafe Street",
            "spot_tag": "Lake View Cafe",
            "description_en": "Scenic cafes along Ilsan Lake Park",
            "distance_km": 0.8,
            "latitude": 37.659,
            "longitude": 126.76
          }
        ],
        "hotspots": [
          {
            "name_en": "Ilsan Lake Park",
            "spot_tag": "Must Visit",
            "description_en": "Beautiful lake park, great for walks",
            "distance_km": 0.8,
            "latitude": 37.658,
            "longitude": 126.759
          },
          {
            "name_en": "One Mount",
            "spot_tag": "Entertainment",
            "description_en": "Theme park with water park and snow park",
            "distance_km": 1.8,
            "latitude": 37.665,
            "longitude": 126.751
          },
          {
            "name_en": "Starfield Goyang",
            "spot_tag": "Shopping",
            "description_en": "Large shopping mall with various stores",
            "distance_km": 11.4,
            "latitude": 37.645,
            "longitude": 126.895
          }
        ]
      },
      "booking_guide": {
        "platform": "Yanolja",
        "steps_en": [
          "1. Download Yanolja app (available in English)",
          "2. Search '고양' or 'Goyang' for hotels",
          "3. Select dates and choose accommodation",
          "4. Register with phone number (Korean or international)",
          "5. Pay with Korean card or international card"
        ],
        "tips_en": [
          "App has English language option",
          "Some hotels may require Korean phone for contact",
          "Check if hotel accepts foreign guests"
        ],
        "payment_methods": [
          "Credit Card",
          "Korean Pay"
        ],
        "foreigner_friendly": "partial"
      },
      "last_update": "2026-01-26 03:15:15",
      "nearby_recommendations": [
        {
          "id": "hotel_03352",
          "name_en": "Jeongbalsan Modern Studio",
          "price_krw": 50234,
          "distance_km": 0.2,
          "image_url": "https://images.unsplash.com/photo-1501183638710-841dd1904471?w=800",
          "platform_name": "Agoda",
          "rating": 4.3
        },
        {
          "id": "hotel_35517",
          "name_en": "Ilsan Central Hotel",
          "price_krw": 122067,
          "distance_km": 0.3,
          "image_url": "https://images.unsplash.com/photo-1611892440504-42a792e24d32?w=800",
          "platform_name": "Hotels.com",
          "rating": 4.2
        },
        {
          "id": "hotel_15129",
          "name_en": "MVL Hotel Goyang",
          "price_krw": 243941,
          "distance_km": 0.4,
          "image_url": "https://images.unsplash.com/photo-1582719508461-905c673771fd?w=800",
          "platform_name": "Hotels.com",
          "rating": 4.4
        }
      ]
    },
    {
      "id": "hotel_75984",
      "name_en": "Hotel Mare Ilsan",
      "area": "Ilsan/KINTEX",
      "latitude": 37.655,
      "longitude": 126.778,
      "price_krw": 116191,
      "distance": {
        "type": "walk",
        "display_en": "Walk 7min",
        "display_kr": "도보 7분",
        "minutes": 7,
        "distance_km": 0.6
      },
      "display_tags": {
        "type": {
          "label_en": "3-Star Hotel",
          "label_kr": "3성급",
          "color": "#CD7F32"
        },
        "density": {
          "value": 84,
          "label_en": "ARMY 84%",
          "label_kr": "아미 84%"
        },
        "transport": {
          "station_en": "Jeongbalsan",
          "station_kr": "정발산역",
          "line_en": "Line 3",
          "line_kr": "3호선",
          "line_color": "#EF7C1C",
          "to_venue_min": 10,
          "display_en": "Jeongbalsan (Line 3)",
          "display_kr": "정발산역 (3호선)"
        },
        "army_spot": {
          "name_en": "MBC Sangam",
          "spot_tag": "Music Show",
          "distance_km": 13.1
        }
      },
      "platform": {
        "name": "Hotels.com",
        "rating": 4.2,
        "booking_url": "https://kr.hotels.com/search.do?destination-id=759818"
      },
      "rooms_left": 3,
      "is_available": true,
      "status_en": "3 rooms left",
      "image_url": "https://images.unsplash.com/photo-1631049307264-da0ec9d70304?w=800",
      "safe_return": {
        "venue_name_en": "Goyang Stadium",
        "venue_name_kr": "고양종합운동장",
        "route_detail_en": "Walk from Goyang Stadium → Hotel Mare Ilsan",
        "route_summary_en": "Goyang Stadium → Line 3 → Hotel",
        "route_summary_kr": "고양종합운동장 → 3호선 → 숙소",
        "transport_type": "walk",
        "travel_time_min": 7,
        "last_train_time": "23:50",
        "concert_end_estimate": "22:00",
        "safe_return_possible": true,
        "line_color": "#EF7C1C",
        "station_en": "Jeongbalsan",
        "taxi_estimate_krw": 0
      },
      "army_local_guide": {
        "bts_spots": [
          {
            "name_en": "MBC Sangam",
            "spot_tag": "Music Show",
            "description_en": "Music show filming location",
            "distance_km": 13.1,
            "latitude": 37.5786,
            "longitude": 126.8918
          },
          {
            "name_en": "Hongdae Busking Street",
            "spot_tag": "Trainee Memory",
            "description_en": "Pre-debut busking location of BTS",
            "distance_km": 16.8,
            "latitude": 37.5563,
            "longitude": 126.922
          },
          {
            "name_en": "Gwangjang Market",
            "spot_tag": "Debut Memory",
            "description_en": "2013 debut stage location",
            "distance_km": 22.5,
            "latitude": 37.57,
            "longitude": 127.0098
          }
        ],
        "restaurants": [
          {
            "name_en": "Ilsan Food Street",
            "spot_tag": "Local Eats",
            "description_en": "Popular local food street near stadium",
            "distance_km": 0.6,
            "latitude": 37.658,
            "longitude": 126.772
          },
          {
            "name_en": "La Festa Restaurants",
            "spot_tag": "Dining Hub",
            "description_en": "Various restaurants in La Festa complex",
            "distance_km": 0.7,
            "latitude": 37.6575,
            "longitude": 126.7705
          },
          {
            "name_en": "Western Dom Food Court",
            "spot_tag": "Food Court",
            "description_en": "Food court with Korean and international options",
            "distance_km": 1.7,
            "latitude": 37.663,
            "longitude": 126.762
          }
        ],
        "cafes": [
          {
            "name_en": "La Festa Cafes",
            "spot_tag": "Trendy Cafe",
            "description_en": "Trendy cafes in La Festa area",
            "distance_km": 0.7,
            "latitude": 37.6572,
            "longitude": 126.771
          },
          {
            "name_en": "Ilsan Lake Park Cafe Street",
            "spot_tag": "Lake View Cafe",
            "description_en": "Scenic cafes along Ilsan Lake Park",
            "distance_km": 1.6,
            "latitude": 37.659,
            "longitude": 126.76
          }
        ],
        "hotspots": [
          {
            "name_en": "Ilsan Lake Park",
            "spot_tag": "Must Visit",
            "description_en": "Beautiful lake park, great for walks",
            "distance_km": 1.7,
            "latitude": 37.658,
            "longitude": 126.759
          },
          {
            "name_en": "One Mount",
            "spot_tag": "Entertainment",
            "description_en": "Theme park with water park and snow park",
            "distance_km": 2.6,
            "latitude": 37.665,
            "longitude": 126.751
          },
          {
            "name_en": "Starfield Goyang",
            "spot_tag": "Shopping",
            "description_en": "Large shopping mall with various stores",
            "distance_km": 10.4,
            "latitude": 37.645,
            "longitude": 126.895
          }
        ]
      },
      "booking_guide": {
        "platform": "Hotels.com",
        "steps_en": [
          "1. Search 'Goyang, South Korea' on Hotels.com",
          "2. Filter by price, rating, or amenities",
          "3. Select hotel and room type",
          "4. Enter guest details and payment info",
          "5. Collect stamps for free nights reward"
        ],
        "tips_en": [
          "Collect 10 stamps = 1 free night",
          "Price match guarantee available",
          "Secret prices for app users"
        ],
        "payment_methods": [
          "Credit Card",
          "PayPal"
        ],
        "foreigner_friendly": true
      },
      "last_update": "2026-01-26 03:15:15",
      "nearby_recommendations": [
        {
          "id": "hotel_42942",
          "name_en": "Best Western Premier Kukdo",
          "price_krw": 142311,
          "distance_km": 0.3,
          "image_url": "https://images.unsplash.com/photo-1551882547-ff40c63fe5fa?w=800",
          "platform_name": "Booking.com",
          "rating": 4.1
        },
        {
          "id": "hotel_80128",
          "name_en": "Ilsan Residence",
          "price_krw": 150616,
          "distance_km": 0.4,
          "image_url": "https://images.unsplash.com/photo-1502672260266-1c1ef2d93688?w=800",
          "platform_name": "Agoda",
          "rating": 3.9
        },
        {
          "id": "hotel_31601",
          "name_en": "Goyang Stay Residence",
          "price_krw": 131943,
          "distance_km": 0.4,
          "image_url": "https://images.unsplash.com/photo-1502672260266-1c1ef2d93688?w=800",
          "platform_name": "야놀자",
          "rating": 4.0
        }
      ]
    },
    {
      "id": "hotel_97779",
      "name_en": "Ilsan Sky Hotel",
      "area": "Ilsan/KINTEX",
      "latitude": 37.659,
      "longitude": 126.765,
      "price_krw": 82865,
      "distance": {
        "type": "walk",
        "display_en": "Walk 8min",
        "display_kr": "도보 8분",
        "minutes": 8,
        "distance_km": 0.7
      },
      "display_tags": {
        "type": {
          "label_en": "3-Star Hotel",
          "label_kr": "3성급",
          "color": "#CD7F32"
        },
        "density": {
          "value": 55,
          "label_en": "ARMY 55%",
          "label_kr": "아미 55%"
        },
        "transport": {
          "station_en": "Jeongbalsan",
          "station_kr": "정발산역",
          "line_en": "Line 3",
          "line_kr": "3호선",
          "line_color": "#EF7C1C",
          "to_venue_min": 10,
          "display_en": "Jeongbalsan (Line 3)",
          "display_kr": "정발산역 (3호선)"
        },
        "army_spot": {
          "name_en": "MBC Sangam",
          "spot_tag": "Music Show",
          "distance_km": 14.3
        }
      },
      "platform": {
        "name": "Agoda",
        "rating": 3.7,
        "booking_url": "https://www.agoda.com/search?city=14690"
      },