{
  "home": {
    "venue": {
      "name_en": "Goyang Stadium",
      "name_kr": "고양종합운동장",
      "lat": 37.6556,
      "lng": 126.7714
    },
    "available_count": 50,
    "total_count": 50,
    "lowest_price_krw": 16,
    "last_update": "2026-02-01 09:26:40"
  },
  "map": {
    "venue": {
      "name_en": "Goyang Stadium",
      "lat": 37.6556,
      "lng": 126.7714,
      "type": "venue"
    },
    "local_spots": [
      {
        "name_en": "HYBE INSIGHT",
        "category": "bts",
        "spot_tag": "BTS Museum",
        "lat": 37.526,
        "lng": 127.0405
      },
      {
        "name_en": "HYBE Headquarters",
        "category": "bts",
        "spot_tag": "BTS Home",
        "lat": 37.528,
        "lng": 127.04
      },
      {
        "name_en": "Hongdae Busking Street",
        "category": "bts",
        "spot_tag": "Trainee Memory",
        "lat": 37.5563,
        "lng": 126.922
      },
      {
        "name_en": "MBC Sangam",
        "category": "bts",
        "spot_tag": "Music Show",
        "lat": 37.5786,
        "lng": 126.8918
      },
      {
        "name_en": "Gwangjang Market",
        "category": "bts",
        "spot_tag": "Debut Memory",
        "lat": 37.57,
        "lng": 127.0098
      },
      {
        "name_en": "Ilsan Food Street",
        "category": "restaurant",
        "spot_tag": "Local Eats",
        "lat": 37.658,
        "lng": 126.772
      },
      {
        "name_en": "La Festa Restaurants",
        "category": "restaurant",
        "spot_tag": "Dining Hub",
        "lat": 37.6575,
        "lng": 126.7705
      },
      {
        "name_en": "Western Dom Food Court",
        "category": "restaurant",
        "spot_tag": "Food Court",
        "lat": 37.663,
        "lng": 126.762
      },
      {
        "name_en": "Ilsan Lake Park Cafe Street",
        "category": "cafe",
        "spot_tag": "Lake View",
        "lat": 37.659,
        "lng": 126.76
      },
      {
        "name_en": "La Festa Cafes",
        "category": "cafe",
        "spot_tag": "Trendy Cafe",
        "lat": 37.6572,
        "lng": 126.771
      },
      {
        "name_en": "Ilsan Lake Park",
        "category": "hotspot",
        "spot_tag": "Must Visit",
        "lat": 37.658,
        "lng": 126.759
      },
      {
        "name_en": "One Mount",
        "category": "hotspot",
        "spot_tag": "Entertainment",
        "lat": 37.665,
        "lng": 126.751
      },
      {
        "name_en": "Starfield Goyang",
        "category": "hotspot",
        "spot_tag": "Shopping",
        "lat": 37.645,
        "lng": 126.895
      }
    ],
    "hotels": [
      {
        "id": "hotel_92524",
        "name_en": "Juns House 대인원 수용 가능, 2층 복층 주택, 테라스보유, 가족숙소 적합",
        "lat": 37.65478819020467,
        "lng": 126.7710701950284,
        "price_krw": 95
      },
      {
        "id": "hotel_72371",
        "name_en": "Accommodation near Yeongil University",
        "lat": 37.654850919265726,
        "lng": 126.76939265985783,
        "price_krw": 45
      },
      {
        "id": "hotel_92198",
        "name_en": "포항 힐링 하우스",
        "lat": 37.65881082990565,
        "lng": 126.76957925256885,
        "price_krw": 85
      },
      {
        "id": "hotel_29969",
        "name_en": "달달 하우스",
        "lat": 37.653986509921666,
        "lng": 126.77601206922499,
        "price_krw": 125
      },
      {
        "id": "hotel_48753",
        "name_en": "월드하우스호텔",
        "lat": 37.65253611476189,
        "lng": 126.7724796852046,
        "price_krw": 171
      },
      {
        "id": "hotel_98907",
        "name_en": "베니키아호텔  포항",
        "lat": 37.6555386169678,
        "lng": 126.76685948221278,
        "price_krw": 49
      },
      {
        "id": "hotel_85575",
        "name_en": "노블리온 호텔",
        "lat": 37.65791887732559,
        "lng": 126.77419720690054,
        "price_krw": 75
      },
      {
        "id": "hotel_98284",
        "name_en": "댓 하우스 홍대 게스트하우스",
        "lat": 37.65296887853283,
        "lng": 126.77412128989833,
        "price_krw": 33
      },
      {
        "id": "hotel_98840",
        "name_en": "죽도시장인근 오피스텔1",
        "lat": 37.657244698665025,
        "lng": 126.76622453085272,
        "price_krw": 152
      },
      {
        "id": "hotel_71638",
        "name_en": "명동 스튜디오 아파트먼트",
        "lat": 37.66022127225001,
        "lng": 126.77346835000742,
        "price_krw": 32
      },
      {
        "id": "hotel_73460",
        "name_en": "포항 오도리펜션",
        "lat": 37.656346434741266,
        "lng": 126.76443301190743,
        "price_krw": 59
      },
      {
        "id": "hotel_62495",
        "name_en": "온더웨이브하우스",
        "lat": 37.661262010307055,
        "lng": 126.77266327279628,
        "price_krw": 108
      },
      {
        "id": "hotel_44299",
        "name_en": "경주 한옥 펜타운",
        "lat": 37.65414651335388,
        "lng": 126.77825921922377,
        "price_krw": 54
      },
      {
        "id": "hotel_52180",
        "name_en": "영덕 힐링턴호텔리조트펜션",
        "lat": 37.65578504478035,
        "lng": 126.77807227463488,
        "price_krw": 84
      },
      {
        "id": "hotel_56020",
        "name_en": "하운드호텔 포항송도해수욕장",
        "lat": 37.66149058564246,
        "lng": 126.77230502708787,
        "price_krw": 92
      },
      {
        "id": "hotel_14131",
        "name_en": "애플트리 호텔",
        "lat": 37.650237279066054,
        "lng": 126.76801046753071,
        "price_krw": 25
      },
      {
        "id": "hotel_38776",
        "name_en": "넓고, 편안한하고, 독립적인하우스",
        "lat": 37.65048269852568,
        "lng": 126.77531518563048,
        "price_krw": 83
      },
      {
        "id": "hotel_15380",
        "name_en": "버즈네스트 호스텔 홍대 - 외국인 전용",
        "lat": 37.652085901621206,
        "lng": 126.77861099688056,
        "price_krw": 24
      },
      {
        "id": "hotel_51377",
        "name_en": "Station Hostel In Namguro",
        "lat": 37.65206316044871,
        "lng": 126.76522616487195,
        "price_krw": 26
      },
      {
        "id": "hotel_40652",
        "name_en": "센터 오브 서울",
        "lat": 37.66071096701224,
        "lng": 126.7752234926572,
        "price_krw": 30
      },
      {
        "id": "hotel_67183",
        "name_en": "From H US Hotel with Anook Seoul Gangseo Hwagok",
        "lat": 37.651421723703635,
        "lng": 126.76512308207386,
        "price_krw": 31
      },
      {
        "id": "hotel_21430",
        "name_en": "Jinho's Guest House",
        "lat": 37.66148223770609,
        "lng": 126.7710487294407,
        "price_krw": 32
      },
      {
        "id": "hotel_20606",
        "name_en": "루미에르h호텔",
        "lat": 37.657239047134155,
        "lng": 126.76318721124109,
        "price_krw": 34
      },
      {
        "id": "hotel_84533",
        "name_en": "포항 영일대 게스트하우스",
        "lat": 37.65048612073985,
        "lng": 126.77814878915729,
        "price_krw": 73
      },
      {
        "id": "hotel_72069",
        "name_en": "수정장 여관",
        "lat": 37.655566668505536,
        "lng": 126.76250127494875,
        "price_krw": 32
      },
      {
        "id": "hotel_89172",
        "name_en": "JTN 스튜디오 유닛",
        "lat": 37.6591888285463,
        "lng": 126.77873603640117,
        "price_krw": 32
      },
      {
        "id": "hotel_50235",
        "name_en": "하우재 이태원",
        "lat": 37.65922132949383,
        "lng": 126.76373044522676,
        "price_krw": 33
      },
      {
        "id": "hotel_35891",
        "name_en": "Stay 아늑",
        "lat": 37.650044403529485,
        "lng": 126.77900121861492,
        "price_krw": 145
      },
      {
        "id": "hotel_01990",
        "name_en": "포항 파티 하우스",
        "lat": 37.64773591291203,
        "lng": 126.77371341741303,
        "price_krw": 19
      },
      {
        "id": "hotel_99847",
        "name_en": "노을이 아름다운 호미곶 캠핑카",
        "lat": 37.661095925618696,
        "lng": 126.77915713783598,
        "price_krw": 61
      },
      {
        "id": "hotel_97282",
        "name_en": "서울 게스트하우스 외국인 전용",
        "lat": 37.64763714569035,
        "lng": 126.7742279448735,
        "price_krw": 16
      },
      {
        "id": "hotel_55422",
        "name_en": "Pohang Legends",
        "lat": 37.66371356990408,
        "lng": 126.77675276909996,
        "price_krw": 114
      },
      {
        "id": "hotel_05220",
        "name_en": "Tekkadan House",
        "lat": 37.64690984791498,
        "lng": 126.77525501085212,
        "price_krw": 23
      },
      {
        "id": "hotel_80914",
        "name_en": "스프링 라이트",
        "lat": 37.66221487896953,
        "lng": 126.76388092116164,
        "price_krw": 26
      },
      {
        "id": "hotel_59685",
        "name_en": "코지 하우스",
        "lat": 37.64939608740354,
        "lng": 126.78019784839847,
        "price_krw": 28
      },
      {
        "id": "hotel_83267",
        "name_en": "마당이 넓은 Oak Tree House",
        "lat": 37.64621088513562,
        "lng": 126.77167848839994,
        "price_krw": 29
      },
      {
        "id": "hotel_60197",
        "name_en": "호스텔 코리아 - 오리지널",
        "lat": 37.646882178832094,
        "lng": 126.77272441704267,
        "price_krw": 31
      },
      {
        "id": "hotel_73641",
        "name_en": "독산하얀",
        "lat": 37.6643329635616,
        "lng": 126.76870685975977,
        "price_krw": 33
      },
      {
        "id": "hotel_59548",
        "name_en": "서울앤호텔 동대문",
        "lat": 37.664804936410526,
        "lng": 126.76956559093324,
        "price_krw": 34
      },
      {
        "id": "hotel_52651",
        "name_en": "죽도시장인근 오피스텔2",
        "lat": 37.665195109049215,
        "lng": 126.76700680831443,
        "price_krw": 85
      },
      {
        "id": "hotel_67200",
        "name_en": "라한호텔 포항",
        "lat": 37.647652612904444,
        "lng": 126.77805086679,
        "price_krw": 104
      },
      {
        "id": "hotel_11958",
        "name_en": "오션 하우스 PH",
        "lat": 37.66466937242196,
        "lng": 126.77745812252701,
        "price_krw": 118
      },
      {
        "id": "hotel_94727",
        "name_en": "나비 모텔",
        "lat": 37.646234959359724,
        "lng": 126.76733642315418,
        "price_krw": 30
      },
      {
        "id": "hotel_78290",
        "name_en": "NJ Affordable and cozy accommodation near Nakseongdae Station",
        "lat": 37.6643637522277,
        "lng": 126.76528852825128,
        "price_krw": 33
      },
      {
        "id": "hotel_08281",
        "name_en": "킴스테이 9",
        "lat": 37.64579079340997,
        "lng": 126.77355705733153,
        "price_krw": 33
      },
      {
        "id": "hotel_33796",
        "name_en": "잉카의 작은마을 모텔",
        "lat": 37.64811238158099,
        "lng": 126.76219810449095,
        "price_krw": 27
      },
      {
        "id": "hotel_39381",
        "name_en": "아마존 게스트하우스",
        "lat": 37.64563000582566,
        "lng": 126.77648706518319,
        "price_krw": 32
      },
      {
        "id": "hotel_16129",
        "name_en": "1975 Yurim Inn",
        "lat": 37.66509005808474,
        "lng": 126.78016755705583,
        "price_krw": 24
      },
      {
        "id": "hotel_42272",
        "name_en": "Ara house단독",
        "lat": 37.64666794233262,
        "lng": 126.76213081636214,
        "price_krw": 32
      },
      {
        "id": "hotel_77915",
        "name_en": "엘리시안 풀빌라",
        "lat": 37.66531097001613,
        "lng": 126.7813965703425,
        "price_krw": 250
      }
    ]
  },
  "hotels": [
    {
      "id": "hotel_92524",
      "name_en": "Juns House 대인원 수용 가능, 2층 복층 주택, 테라스보유, 가족숙소 적합",
      "price_krw": 95,
      "rating": 9.59,
      "image_url": "https://cf.bstatic.com/xdata/images/hotel/square240/569150735.webp?k=961b4951aac0e53e098f2ddf5d22def587b1ed37abe7445243b051efa6a2c817&o=",
      "rooms_left": -1,
      "is_available": true,
      "hotel_type": {
        "label_en": "Hotel",
        "color": "#4A90D9"
      },
      "cancellation": {
        "type": "free",
        "label_en": "Free Cancellation",
        "label_kr": "무료 취소",
        "is_refundable": true
      },
      "tags": {
        "list_en": [
          "#FreeCancellation",
          "#ARMYPopular",
          "#WalkToVenue"
        ],
        "list_kr": [
          "#취소가능",
          "#아미인기",
          "#도보가능"
        ],
        "display_en": "#FreeCancellation #ARMYPopular #WalkToVenue",
        "display_kr": "#취소가능 #아미인기 #도보가능"
      },
      "lat": 37.65478819020467,
      "lng": 126.7710701950284,
      "location": {
        "area_en": "Paju",
        "area_kr": "파주",
        "address_en": "Paju, Gyeonggi-do",
        "address_kr": "경기도 파주"
      },
      "city_key": "paju",
      "army_density": {
        "value": 65,
        "level_en": "High",
        "level_kr": "높음",
        "label_en": "ARMY 65%",
        "label_kr": "아미 65%"
      },
      "distance": {
        "type": "walk",
        "display_en": "Walk 1min",
        "minutes": 1,
        "distance_km": 0.1
      },
      "transport": {
        "station_en": "Jeongbalsan",
        "line_en": "Line 3",
        "line_color": "#EF7C1C",
        "display_en": "Jeongbalsan (Line 3)"
      },
      "safe_return": {
        "venue_en": "Goyang Stadium",
        "route_en": "Walk from Goyang Stadium → Hotel",
        "transport": "walk",
        "time_min": 1,
        "last_train": "23:50",
        "taxi_krw": 0
      },
      "army_local_guide": {
        "bts": [
          {
            "name_en": "MBC Sangam",
            "spot_tag": "Music Show",
            "description_en": "Music show filming",
            "distance_km": 13.6,
            "lat": 37.5786,
            "lng": 126.8918
          },
          {
            "name_en": "Hongdae Busking Street",
            "spot_tag": "Trainee Memory",
            "description_en": "Pre-debut busking spot",
            "distance_km": 17.2,
            "lat": 37.5563,
            "lng": 126.922
          },
          {
            "name_en": "Gwangjang Market",
            "spot_tag": "Debut Memory",
            "description_en": "2013 debut location",
            "distance_km": 23.0,
            "lat": 37.57,
            "lng": 127.0098
          }
        ],
        "restaurant": [
          {
            "name_en": "La Festa Restaurants",
            "spot_tag": "Dining Hub",
            "description_en": "Restaurant complex",
            "distance_km": 0.3,
            "lat": 37.6575,
            "lng": 126.7705
          },
          {
            "name_en": "Ilsan Food Street",
            "spot_tag": "Local Eats",
            "description_en": "Local food street",
            "distance_km": 0.4,
            "lat": 37.658,
            "lng": 126.772
          },
          {
            "name_en": "Western Dom Food Court",
            "spot_tag": "Food Court",
            "description_en": "Food court",
            "distance_km": 1.2,
            "lat": 37.663,
            "lng": 126.762
          }
        ],
        "cafe": [
          {
            "name_en": "La Festa Cafes",
            "spot_tag": "Trendy Cafe",
            "description_en": "Trendy cafes",
            "distance_km": 0.3,
            "lat": 37.6572,
            "lng": 126.771
          },
          {
            "name_en": "Ilsan Lake Park Cafe Street",
            "spot_tag": "Lake View",
            "description_en": "Scenic cafes",
            "distance_km": 1.1,
            "lat": 37.659,
            "lng": 126.76
          }
        ],
        "hotspot": [
          {
            "name_en": "Ilsan Lake Park",
            "spot_tag": "Must Visit",
            "description_en": "Beautiful lake park",
            "distance_km": 1.1,
            "lat": 37.658,
            "lng": 126.759
          },
          {
            "name_en": "One Mount",
            "spot_tag": "Entertainment",
            "description_en": "Theme park",
            "distance_km": 2.1,
            "lat": 37.665,
            "lng": 126.751
          },
          {
            "name_en": "Starfield Goyang",
            "spot_tag": "Shopping",
            "description_en": "Shopping mall",
            "distance_km": 11.0,
            "lat": 37.645,
            "lng": 126.895
          }
        ]
      },
      "map_detail": {
        "hotel": {
          "name_en": "Juns House 대인원 수용 가능, 2층 복층 주택, 테라스보유, 가족숙소 적합",
          "lat": 37.65478819020467,
          "lng": 126.7710701950284
        },
        "venue": {
          "name_en": "Goyang Stadium",
          "lat": 37.6556,
          "lng": 126.7714
        },
        "nearby_spots": [
          {
            "name_en": "La Festa Restaurants",
            "category": "restaurant",
            "spot_tag": "Dining Hub",
            "lat": 37.6575,
            "lng": 126.7705,
            "distance_km": 0.3
          },
          {
            "name_en": "La Festa Cafes",
            "category": "cafe",
            "spot_tag": "Trendy Cafe",
            "lat": 37.6572,
            "lng": 126.771,
            "distance_km": 0.3
          },
          {
            "name_en": "Ilsan Food Street",
            "category": "restaurant",
            "spot_tag": "Local Eats",
            "lat": 37.658,
            "lng": 126.772,
            "distance_km": 0.4
          },
          {
            "name_en": "Ilsan Lake Park Cafe Street",
            "category": "cafe",
            "spot_tag": "Lake View",
            "lat": 37.659,
            "lng": 126.76,
            "distance_km": 1.1
          },
          {
            "name_en": "Ilsan Lake Park",
            "category": "hotspot",
            "spot_tag": "Must Visit",
            "lat": 37.658,
            "lng": 126.759,
            "distance_km": 1.1
          }
        ]
      },
      "platform": {
        "name": "Booking.com",
        "booking_url": "https://www.booking.comhttps://www.booking.com/hotel/kr/junseuhauseu.ko.html?aid=304142&label=mkt123sc-29ab0a27-a4fa-424b-8cdd-721dfecdb3fe&ucfs=1&arphpl=1&checkin=2026-06-11&checkout=2026-06-13&dest_id=-715815&dest_type=city&group_adults=2&req_adults=2&no_rooms=1&group_children=0&req_children=0&hpos=7&hapos=7&sr_order=price&srpvid=86e55b4fd7291db025bb78e8e4a6be2c&srepoch=1769937962&all_sr_blocks=1226543701_394703512_2_0_0&highlighted_blocks=1226543701_394703512_2_0_0&matching_block_id=1226543701_394703512_2_0_0&sr_pri_blocks=1226543701_394703512_2_0_0__27272727&from=searchresults"
      },
      "booking_guide": {
        "steps_en": [
          "1. Search Goyang hotels",
          "2. Filter by 'Free Cancellation'",
          "3. Select room and enter info",
          "4. Pay online or at property",
          "5. Show confirmation at check-in"
        ],
        "tips_en": [
          "Genius membership for discounts",
          "Free cancellation options"
        ],
        "payment_methods": [
          "Credit Card",
          "Pay at Property"
        ],
        "foreigner_friendly": true
      },
      "last_update": "2026-02-01 09:26:40",
      "nearby": [
        {
          "id": "hotel_72371",
          "name_en": "Accommodation near Yeongil University",
          "price_krw": 45,
          "distance_km": 0.1,
          "image_url": "https://cf.bstatic.com/xdata/images/hotel/square240/728095248.webp?k=b4a4036816a1b3d946264b3b2537ef8fd70ac9e6e17789e1961c9791ec53457a&o="
        },
        {
          "id": "hotel_48753",
          "name_en": "월드하우스호텔",
          "price_krw": 171,
          "distance_km": 0.3,
          "image_url": "https://cf.bstatic.com/xdata/images/hotel/square240/666408257.webp?k=4e4a9e56de1b81a9fa5f46c2a2463d24a25dd370db91d0542fcb1ae5a2f6ce91&o="
        },
        {
          "id": "hotel_98284",
          "name_en": "댓 하우스 홍대 게스트하우스",
          "price_krw": 33,
          "distance_km": 0.3,
          "image_url": "https://cf.bstatic.com/xdata/images/hotel/square240/61802936.webp?k=d69c6742d66a81c8d169fce434c380d6b1ab7fa073035c0c923cbbe9d36d5a12&o="
        }
      ]
    },
    {
      "id": "hotel_72371",
      "name_en": "Accommodation near Yeongil University",
      "price_krw": 45,
      "rating": 0,
      "image_url": "https://cf.bstatic.com/xdata/images/hotel/square240/728095248.webp?k=b4a4036816a1b3d946264b3b2537ef8fd70ac9e6e17789e1961c9791ec53457a&o=",
      "rooms_left": -1,
      "is_available": true,
      "hotel_type": {
        "label_en": "Hotel",
        "color": "#4A90D9"
      },
      "cancellation": {
        "type": "free",
        "label_en": "Free Cancellation",
        "label_kr": "무료 취소",
        "is_refundable": true
      },
      "tags": {
        "list_en": [
          "#FreeCancellation",
          "#ARMYPopular",
          "#WalkToVenue"
        ],
        "list_kr": [
          "#취소가능",
          "#아미인기",
          "#도보가능"
        ],
        "display_en": "#FreeCancellation #ARMYPopular #WalkToVenue",
        "display_kr": "#취소가능 #아미인기 #도보가능"
      },
      "lat": 37.654850919265726,
      "lng": 126.76939265985783,
      "location": {
        "area_en": "Paju",
        "area_kr": "파주",
        "address_en": "Paju, Gyeonggi-do",
        "address_kr": "경기도 파주"
      },
      "city_key": "paju",
      "army_density": {
        "value": 65,
        "level_en": "High",
        "level_kr": "높음",
        "label_en": "ARMY 65%",
        "label_kr": "아미 65%"
      },
      "distance": {
        "type": "walk",
        "display_en": "Walk 2min",
        "minutes": 2,
        "distance_km": 0.2
      },
      "transport": {
        "station_en": "Jeongbalsan",
        "line_en": "Line 3",
        "line_color": "#EF7C1C",
        "display_en": "Jeongbalsan (Line 3)"
      },
      "safe_return": {
        "venue_en": "Goyang Stadium",
        "route_en": "Walk from Goyang Stadium → Hotel",
        "transport": "walk",
        "time_min": 2,
        "last_train": "23:50",
        "taxi_krw": 0
      },
      "army_local_guide": {
        "bts": [
          {
            "name_en": "MBC Sangam",
            "spot_tag": "Music Show",
            "description_en": "Music show filming",
            "distance_km": 13.7,
            "lat": 37.5786,
            "lng": 126.8918
          },
          {
            "name_en": "Hongdae Busking Street",
            "spot_tag": "Trainee Memory",
            "description_en": "Pre-debut busking spot",
            "distance_km": 17.3,
            "lat": 37.5563,
            "lng": 126.922
          },
          {
            "name_en": "Gwangjang Market",
            "spot_tag": "Debut Memory",
            "description_en": "2013 debut location",
            "distance_km": 23.2,
            "lat": 37.57,
            "lng": 127.0098
          }
        ],
        "restaurant": [
          {
            "name_en": "La Festa Restaurants",
            "spot_tag": "Dining Hub",
            "description_en": "Restaurant complex",
            "distance_km": 0.3,
            "lat": 37.6575,
            "lng": 126.7705
          },
          {
            "name_en": "Ilsan Food Street",
            "spot_tag": "Local Eats",
            "description_en": "Local food street",
            "distance_km": 0.4,
            "lat": 37.658,
            "lng": 126.772
          },
          {
            "name_en": "Western Dom Food Court",
            "spot_tag": "Food Court",
            "description_en": "Food court",
            "distance_km": 1.1,
            "lat": 37.663,
            "lng": 126.762
          }
        ],
        "cafe": [
          {
            "name_en": "La Festa Cafes",
            "spot_tag": "Trendy Cafe",
            "description_en": "Trendy cafes",
            "distance_km": 0.3,
            "lat": 37.6572,
            "lng": 126.771
          },
          {
            "name_en": "Ilsan Lake Park Cafe Street",
            "spot_tag": "Lake View",
            "description_en": "Scenic cafes",
            "distance_km": 0.9,
            "lat": 37.659,
            "lng": 126.76
          }
        ],
        "hotspot": [
          {
            "name_en": "Ilsan Lake Park",
            "spot_tag": "Must Visit",
            "description_en": "Beautiful lake park",
            "distance_km": 1.0,
            "lat": 37.658,
            "lng": 126.759
          },
          {
            "name_en": "One Mount",
            "spot_tag": "Entertainment",
            "description_en": "Theme park",
            "distance_km": 2.0,
            "lat": 37.665,
            "lng": 126.751
          },
          {
            "name_en": "Starfield Goyang",
            "spot_tag": "Shopping",
            "description_en": "Shopping mall",
            "distance_km": 11.1,
            "lat": 37.645,
            "lng": 126.895
          }
        ]
      },
      "map_detail": {
        "hotel": {
          "name_en": "Accommodation near Yeongil University",
          "lat": 37.654850919265726,
          "lng": 126.76939265985783
        },
        "venue": {
          "name_en": "Goyang Stadium",
          "lat": 37.6556,
          "lng": 126.7714
        },
        "nearby_spots": [
          {
            "name_en": "La Festa Restaurants",
            "category": "restaurant",
            "spot_tag": "Dining Hub",
            "lat": 37.6575,
            "lng": 126.7705,
            "distance_km": 0.3
          },
          {
            "name_en": "La Festa Cafes",
            "category": "cafe",
            "spot_tag": "Trendy Cafe",
            "lat": 37.6572,
            "lng": 126.771,
            "distance_km": 0.3
          },
          {
            "name_en": "Ilsan Food Street",
            "category": "restaurant",
            "spot_tag": "Local Eats",
            "lat": 37.658,
            "lng": 126.772,
            "distance_km": 0.4
          },
          {
            "name_en": "Ilsan Lake Park Cafe Street",
            "category": "cafe",
            "spot_tag": "Lake View",
            "lat": 37.659,
            "lng": 126.76,
            "distance_km": 0.9
          },
          {
            "name_en": "Ilsan Lake Park",
            "category": "hotspot",
            "spot_tag": "Must Visit",
            "lat": 37.658,
            "lng": 126.759,
            "distance_km": 1.0
          }
        ]
      },
      "platform": {
        "name": "Booking.com",
        "booking_url": "https://www.booking.comhttps://www.booking.com/hotel/kr/accommodation-near-yeongil-university.ko.html?aid=304142&label=mkt123sc-29ab0a27-a4fa-424b-8cdd-721dfecdb3fe&ucfs=1&arphpl=1&checkin=2026-06-11&checkout=2026-06-13&dest_id=-715815&dest_type=city&group_adults=2&req_adults=2&no_rooms=1&group_children=0&req_children=0&hpos=1&hapos=1&sr_order=price&srpvid=86e55b4fd7291db025bb78e8e4a6be2c&srepoch=1769937962&all_sr_blocks=1472441801_418588070_2_0_0&highlighted_blocks=1472441801_418588070_2_0_0&matching_block_id=1472441801_418588070_2_0_0&sr_pri_blocks=1472441801_418588070_2_0_0__13090909&from=searchresults"
      },
      "booking_guide": {
        "steps_en": [
          "1. Search Goyang hotels",
          "2. Filter by 'Free Cancellation'",
          "3. Select room and enter info",
          "4. Pay online or at property",
          "5. Show confirmation at check-in"
        ],
        "tips_en": [
          "Genius membership for discounts",
          "Free cancellation options"
        ],
        "payment_methods": [
          "Credit Card",
          "Pay at Property"
        ],
        "foreigner_friendly": true
      },
      "last_update": "2026-02-01 09:26:40",
      "nearby": [
        {
          "id": "hotel_92524",
          "name_en": "Juns House 대인원 수용 가능, 2층 복층 주택, 테라스보유, 가족숙소 적합",
          "price_krw": 95,
          "distance_km": 0.1,
          "image_url": "https://cf.bstatic.com/xdata/images/hotel/square240/569150735.webp?k=961b4951aac0e53e098f2ddf5d22def587b1ed37abe7445243b051efa6a2c817&o="
        },
        {
          "id": "hotel_98907",
          "name_en": "베니키아호텔  포항",
          "price_krw": 49,
          "distance_km": 0.2,
          "image_url": "https://cf.bstatic.com/xdata/images/hotel/square240/476034276.webp?k=2b951cf7b487e8c5643117f218896f3d6e53a13dec080f2893a12072f6b6e304&o="
        },
        {
          "id": "hotel_92198",
          "name_en": "포항 힐링 하우스",
          "price_krw": 85,
          "distance_km": 0.4,
          "image_url": "https://cf.bstatic.com/xdata/images/hotel/square240/726428502.webp?k=8d6d5a3e8d79cb434b3f339bf7e3a7d90450b17c0ab478e2a3895a8083ea2411&o="
        }
      ]
    },
    {
      "id": "hotel_92198",
      "name_en": "포항 힐링 하우스",
      "price_krw": 85,
      "rating": 0,
      "image_url": "https://cf.bstatic.com/xdata/images/hotel/square240/726428502.webp?k=8d6d5a3e8d79cb434b3f339bf7e3a7d90450b17c0ab478e2a3895a8083ea2411&o=",
      "rooms_left": -1,
      "is_available": true,
      "hotel_type": {
        "label_en": "Hotel",
        "color": "#4A90D9"
      },
      "cancellation": {
        "type": "free",
        "label_en": "Free Cancellation",
        "label_kr": "무료 취소",
        "is_refundable": true
      },
      "tags": {
        "list_en": [
          "#FreeCancellation",
          "#ARMYPopular",
          "#WalkToVenue"
        ],
        "list_kr": [
          "#취소가능",
          "#아미인기",
          "#도보가능"
        ],
        "display_en": "#FreeCancellation #ARMYPopular #WalkToVenue",
        "display_kr": "#취소가능 #아미인기 #도보가능"
      },
      "lat": 37.65881082990565,
      "lng": 126.76957925256885,
      "location": {
        "area_en": "Paju",
        "area_kr": "파주",
        "address_en": "Paju, Gyeonggi-do",
        "address_kr": "경기도 파주"
      },
      "city_key": "paju",
      "army_density": {
        "value": 65,
        "level_en": "High",
        "level_kr": "높음",
        "label_en": "ARMY 65%",
        "label_kr": "아미 65%"
      },
      "distance": {
        "type": "walk",
        "display_en": "Walk 4min",
        "minutes": 4,
        "distance_km": 0.4
      },
      "transport": {
        "station_en": "Jeongbalsan",
        "line_en": "Line 3",
        "line_color": "#EF7C1C",
        "display_en": "Jeongbalsan (Line 3)"
      },
      "safe_return": {
        "venue_en": "Goyang Stadium",
        "route_en": "Walk from Goyang Stadium → Hotel",
        "transport": "walk",
        "time_min": 4,
        "last_train": "23:50",
        "taxi_krw": 0
      },
      "army_local_guide": {
        "bts": [
          {
            "name_en": "MBC Sangam",
            "spot_tag": "Music Show",
            "description_en": "Music show filming",
            "distance_km": 14.0,
            "lat": 37.5786,
            "lng": 126.8918
          },
          {
            "name_en": "Hongdae Busking Street",
            "spot_tag": "Trainee Memory",
            "description_en": "Pre-debut busking spot",
            "distance_km": 17.6,
            "lat": 37.5563,
            "lng": 126.922
          },
          {
            "name_en": "Gwangjang Market",
            "spot_tag": "Debut Memory",
            "description_en": "2013 debut location",
            "distance_km": 23.4,
            "lat": 37.57,
            "lng": 127.0098
          }
        ],
        "restaurant": [
          {
            "name_en": "Ilsan Food Street",
            "spot_tag": "Local Eats",
            "description_en": "Local food street",
            "distance_km": 0.2,
            "lat": 37.658,
            "lng": 126.772
          },
          {
            "name_en": "La Festa Restaurants",
            "spot_tag": "Dining Hub",
            "description_en": "Restaurant complex",
            "distance_km": 0.2,
            "lat": 37.6575,
            "lng": 126.7705
          },
          {
            "name_en": "Western Dom Food Court",
            "spot_tag": "Food Court",
            "description_en": "Food court",
            "distance_km": 0.8,
            "lat": 37.663,
            "lng": 126.762
          }
        ],
        "cafe": [
          {
            "name_en": "La Festa Cafes",
            "spot_tag": "Trendy Cafe",
            "description_en": "Trendy cafes",
            "distance_km": 0.2,
            "lat": 37.6572,
            "lng": 126.771
          },
          {
            "name_en": "Ilsan Lake Park Cafe Street",
            "spot_tag": "Lake View",
            "description_en": "Scenic cafes",
            "distance_km": 0.8,
            "lat": 37.659,
            "lng": 126.76
          }
        ],
        "hotspot": [
          {
            "name_en": "Ilsan Lake Park",
            "spot_tag": "Must Visit",
            "description_en": "Beautiful lake park",
            "distance_km": 0.9,
            "lat": 37.658,
            "lng": 126.759
          },
          {
            "name_en": "One Mount",
            "spot_tag": "Entertainment",
            "description_en": "Theme park",
            "distance_km": 1.8,
            "lat": 37.665,
            "lng": 126.751
          },
          {
            "name_en": "Starfield Goyang",
            "spot_tag": "Shopping",
            "description_en": "Shopping mall",
            "distance_km": 11.1,
            "lat": 37.645,
            "lng": 126.895
          }
        ]
      },
      "map_detail": {
        "hotel": {
          "name_en": "포항 힐링 하우스",
          "lat": 37.65881082990565,
          "lng": 126.76957925256885
        },
        "venue": {
          "name_en": "Goyang Stadium",
          "lat": 37.6556,
          "lng": 126.7714
        },
        "nearby_spots": [
          {
            "name_en": "Ilsan Food Street",
            "category": "restaurant",
            "spot_tag": "Local Eats",
            "lat": 37.658,
            "lng": 126.772,
            "distance_km": 0.2
          },
          {
            "name_en": "La Festa Restaurants",
            "category": "restaurant",
            "spot_tag": "Dining Hub",
            "lat": 37.6575,
            "lng": 126.7705,
            "distance_km": 0.2
          },
          {
            "name_en": "La Festa Cafes",
            "category": "cafe",
            "spot_tag": "Trendy Cafe",
            "lat": 37.6572,
            "lng": 126.771,
            "distance_km": 0.2
          },
          {
            "name_en": "Western Dom Food Court",
            "category": "restaurant",
            "spot_tag": "Food Court",
            "lat": 37.663,
            "lng": 126.762,
            "distance_km": 0.8
          },
          {
            "name_en": "Ilsan Lake Park Cafe Street",
            "category": "cafe",
            "spot_tag": "Lake View",
            "lat": 37.659,
            "lng": 126.76,
            "distance_km": 0.8
          }
        ]
      },
      "platform": {
        "name": "Booking.com",
        "booking_url": "https://www.booking.comhttps://www.booking.com/hotel/kr/pohang-hilring-hauseu-pohangsi.ko.html?aid=304142&label=mkt123sc-29ab0a27-a4fa-424b-8cdd-721dfecdb3fe&ucfs=1&arphpl=1&checkin=2026-06-11&checkout=2026-06-13&dest_id=-715815&dest_type=city&group_adults=2&req_adults=2&no_rooms=1&group_children=0&req_children=0&hpos=5&hapos=5&sr_order=price&srpvid=86e55b4fd7291db025bb78e8e4a6be2c&srepoch=1769937962&all_sr_blocks=1470412301_418387994_4_0_0&highlighted_blocks=1470412301_418387994_4_0_0&matching_block_id=1470412301_418387994_4_0_0&sr_pri_blocks=1470412301_418387994_4_0_0__24545455&from=searchresults"
      },
      "booking_guide": {
        "steps_en": [
          "1. Search Goyang hotels",
          "2. Filter by 'Free Cancellation'",
          "3. Select room and enter info",
          "4. Pay online or at property",
          "5. Show confirmation at check-in"
        ],
        "tips_en": [
          "Genius membership for discounts",
          "Free cancellation options"
        ],
        "payment_methods": [
          "Credit Card",
          "Pay at Property"
        ],
        "foreigner_friendly": true
      },
      "last_update": "2026-02-01 09:26:40",
      "nearby": [
        {
          "id": "hotel_98840",
          "name_en": "죽도시장인근 오피스텔1",
          "price_krw": 152,
          "distance_km": 0.3,
          "image_url": "https://cf.bstatic.com/xdata/images/hotel/square240/745722403.webp?k=4b4a71d941da3fccfa971787e059f9e711be1ae476822ad31aff3fd27be31e8e&o="
        },
        {
          "id": "hotel_21430",
          "name_en": "Jinho's Guest House",
          "price_krw": 32,
          "distance_km": 0.3,
          "image_url": "https://cf.bstatic.com/xdata/images/hotel/square240/285506527.webp?k=46803f59d80253bb3ef81c4864e08e05f94de01d1e9a30625d48f06825eddc78&o="
        },
        {
          "id": "hotel_72371",
          "name_en": "Accommodation near Yeongil University",
          "price_krw": 45,
          "distance_km": 0.4,
          "image_url": "https://cf.bstatic.com/xdata/images/hotel/square240/728095248.webp?k=b4a4036816a1b3d946264b3b2537ef8fd70ac9e6e17789e1961c9791ec53457a&o="
        }
      ]
    },
    {
      "id": "hotel_29969",
      "name_en": "달달 하우스",
      "price_krw": 125,
      "rating": 0,
      "image_url": "https://cf.bstatic.com/xdata/images/hotel/square240/636930609.webp?k=dbb1c0882cf666102b1deb915eb01ce4144f10a8ea1599fbcdb2308c2d3bee35&o=",
      "rooms_left": -1,
      "is_available": true,
      "hotel_type": {
        "label_en": "Hotel",
        "color": "#4A90D9"
      },
      "cancellation": {
        "type": "free",
        "label_en": "Free Cancellation",
        "label_kr": "무료 취소",
        "is_refundable": true
      },
      "tags": {
        "list_en": [
          "#FreeCancellation",
          "#ARMYPopular",
          "#WalkToVenue"
        ],
        "list_kr": [
          "#취소가능",
          "#아미인기",
          "#도보가능"
        ],
        "display_en": "#FreeCancellation #ARMYPopular #WalkToVenue",
        "display_kr": "#취소가능 #아미인기 #도보가능"
      },
      "lat": 37.653986509921666,
      "lng": 126.77601206922499,
      "location": {
        "area_en": "Paju",
        "area_kr": "파주",
        "address_en": "Paju, Gyeonggi-do",
        "address_kr": "경기도 파주"
      },
      "city_key": "paju",
      "army_density": {
        "value": 65,
        "level_en": "High",
        "level_kr": "높음",
        "label_en": "ARMY 65%",
        "label_kr": "아미 65%"
      },
      "distance": {
        "type": "walk",
        "display_en": "Walk 5min",
        "minutes": 5,
        "distance_km": 0.4
      },
      "transport": {
        "station_en": "Jeongbalsan",
        "line_en": "Line 3",
        "line_color": "#EF7C1C",
        "display_en": "Jeongbalsan (Line 3)"
      },
      "safe_return": {
        "venue_en": "Goyang Stadium",
        "route_en": "Walk from Goyang Stadium → Hotel",
        "transport": "walk",
        "time_min": 5,
        "last_train": "23:50",
        "taxi_krw": 0
      },
      "army_local_guide": {
        "bts": [
          {
            "name_en": "MBC Sangam",
            "spot_tag": "Music Show",
            "description_en": "Music show filming",
            "distance_km": 13.2,
            "lat": 37.5786,
            "lng": 126.8918
          },
          {
            "name_en": "Hongdae Busking Street",
            "spot_tag": "Trainee Memory",
            "description_en": "Pre-debut busking spot",
            "distance_km": 16.8,
            "lat": 37.5563,
            "lng": 126.922
          },
          {
            "name_en": "Gwangjang Market",
            "spot_tag": "Debut Memory",
            "description_en": "2013 debut location",
            "distance_km": 22.6,
            "lat": 37.57,
            "lng": 127.0098
          }
        ],
        "restaurant": [
          {
            "name_en": "Ilsan Food Street",
            "spot_tag": "Local Eats",
            "description_en": "Local food street",
            "distance_km": 0.6,
            "lat": 37.658,
            "lng": 126.772
          },
          {
            "name_en": "La Festa Restaurants",
            "spot_tag": "Dining Hub",
            "description_en": "Restaurant complex",
            "distance_km": 0.6,
            "lat": 37.6575,
            "lng": 126.7705
          },
          {
            "name_en": "Western Dom Food Court",
            "spot_tag": "Food Court",
            "description_en": "Food court",
            "distance_km": 1.6,
            "lat": 37.663,
            "lng": 126.762
          }
        ],
        "cafe": [
          {
            "name_en": "La Festa Cafes",
            "spot_tag": "Trendy Cafe",
            "description_en": "Trendy cafes",
            "distance_km": 0.6,
            "lat": 37.6572,
            "lng": 126.771
          },
          {
            "name_en": "Ilsan Lake Park Cafe Street",
            "spot_tag": "Lake View",
            "description_en": "Scenic cafes",
            "distance_km": 1.5,
            "lat": 37.659,
            "lng": 126.76
          }
        ],
        "hotspot": [
          {
            "name_en": "Ilsan Lake Park",
            "spot_tag": "Must Visit",
            "description_en": "Beautiful lake park",
            "distance_km": 1.6,
            "lat": 37.658,
            "lng": 126.759
          },
          {
            "name_en": "One Mount",
            "spot_tag": "Entertainment",
            "description_en": "Theme park",
            "distance_km": 2.5,
            "lat": 37.665,
            "lng": 126.751
          },
          {
            "name_en": "Starfield Goyang",
            "spot_tag": "Shopping",
            "description_en": "Shopping mall",
            "distance_km": 10.5,
            "lat": 37.645,
            "lng": 126.895
          }
        ]
      },
      "map_detail": {
        "hotel": {
          "name_en": "달달 하우스",
          "lat": 37.653986509921666,
          "lng": 126.77601206922499
        },
        "venue": {
          "name_en": "Goyang Stadium",
          "lat": 37.6556,
          "lng": 126.7714
        },
        "nearby_spots": [
          {
            "name_en": "Ilsan Food Street",
            "category": "restaurant",
            "spot_tag": "Local Eats",
            "lat": 37.658,
            "lng": 126.772,
            "distance_km": 0.6
          },
          {
            "name_en": "La Festa Restaurants",
            "category": "restaurant",
            "spot_tag": "Dining Hub",
            "lat": 37.6575,
            "lng": 126.7705,
            "distance_km": 0.6
          },
          {
            "name_en": "La Festa Cafes",
            "category": "cafe",
            "spot_tag": "Trendy Cafe",
            "lat": 37.6572,
            "lng": 126.771,
            "distance_km": 0.6
          },
          {
            "name_en": "Ilsan Lake Park Cafe Street",
            "category": "cafe",
            "spot_tag": "Lake View",
            "lat": 37.659,
            "lng": 126.76,
            "distance_km": 1.5
          },
          {
            "name_en": "Western Dom Food Court",
            "category": "restaurant",
            "spot_tag": "Food Court",
            "lat": 37.663,
            "lng": 126.762,
            "distance_km": 1.6
          }
        ]
      },
      "platform": {
        "name": "Booking.com",
        "booking_url": "https://www.booking.comhttps://www.booking.com/hotel/kr/daldal-house.ko.html?aid=304142&label=mkt123sc-29ab0a27-a4fa-424b-8cdd-721dfecdb3fe&ucfs=1&arphpl=1&checkin=2026-06-11&checkout=2026-06-13&dest_id=-715815&dest_type=city&group_adults=2&req_adults=2&no_rooms=1&group_children=0&req_children=0&hpos=12&hapos=12&sr_order=price&srpvid=86e55b4fd7291db025bb78e8e4a6be2c&srepoch=1769937962&all_sr_blocks=1342842601_406669353_2_0_0&highlighted_blocks=1342842601_406669353_2_0_0&matching_block_id=1342842601_406669353_2_0_0&sr_pri_blocks=1342842601_406669353_2_0_0__36000000&from=searchresults"
      },
      "booking_guide": {
        "steps_en": [
          "1. Search Goyang hotels",
          "2. Filter by 'Free Cancellation'",
          "3. Select room and enter info",
          "4. Pay online or at property",
          "5. Show confirmation at check-in"
        ],
        "tips_en": [
          "Genius membership for discounts",
          "Free cancellation options"
        ],
        "payment_methods": [
          "Credit Card",
          "Pay at Property"
        ],
        "foreigner_friendly": true
      },
      "last_update": "2026-02-01 09:26:40",
      "nearby": [
        {
          "id": "hotel_44299",
          "name_en": "경주 한옥 펜타운",
          "price_krw": 54,
          "distance_km": 0.2,
          "image_url": "https://cf.bstatic.com/xdata/images/hotel/square240/577559344.webp?k=4614a74e8c903706b743bb28169a52482e9fb3b2cfc11bee2aa02930bedce1f5&o="
        },
        {
          "id": "hotel_98284",
          "name_en": "댓 하우스 홍대 게스트하우스",
          "price_krw": 33,
          "distance_km": 0.2,
          "image_url": "https://cf.bstatic.com/xdata/images/hotel/square240/61802936.webp?k=d69c6742d66a81c8d169fce434c380d6b1ab7fa073035c0c923cbbe9d36d5a12&o="
        },
        {
          "id": "hotel_52180",
          "name_en": "영덕 힐링턴호텔리조트펜션",
          "price_krw": 84,
          "distance_km": 0.3,
          "image_url": "https://cf.bstatic.com/xdata/images/hotel/square240/727616047.webp?k=10884a9fe497546afdeeecc51fdb3c65fd07839979227758918135b164849885&o="
        }
      ]
    },
    {
      "id": "hotel_48753",
      "name_en": "월드하우스호텔",
      "price_krw": 171,
      "rating": 0,
      "image_url": "https://cf.bstatic.com/xdata/images/hotel/square240/666408257.webp?k=4e4a9e56de1b81a9fa5f46c2a2463d24a25dd370db91d0542fcb1ae5a2f6ce91&o=",
      "rooms_left": -1,
      "is_available": true,
      "hotel_type": {
        "label_en": "Hotel",
        "color": "#4A90D9"
      },
      "cancellation": {
        "type": "free",
        "label_en": "Free Cancellation",
        "label_kr": "무료 취소",
        "is_refundable": true
      },
      "tags": {
        "list_en": [
          "#FreeCancellation",
          "#ARMYPopular",
          "#WalkToVenue"
        ],
        "list_kr": [
          "#취소가능",
          "#아미인기",
          "#도보가능"
        ],
        "display_en": "#FreeCancellation #ARMYPopular #WalkToVenue",
        "display_kr": "#취소가능 #아미인기 #도보가능"
      },
      "lat": 37.65253611476189,
      "lng": 126.7724796852046,
      "location": {
        "area_en": "Paju",
        "area_kr": "파주",
        "address_en": "Paju, Gyeonggi-do",
        "address_kr": "경기도 파주"
      },
      "city_key": "paju",
      "army_density": {
        "value": 65,
        "level_en": "High",
        "level_kr": "높음",
        "label_en": "ARMY 65%",
        "label_kr": "아미 65%"
      },
      "distance": {
        "type": "walk",
        "display_en": "Walk 4min",
        "minutes": 4,
        "distance_km": 0.4
      },
      "transport": {
        "station_en": "Jeongbalsan",
        "line_en": "Line 3",
        "line_color": "#EF7C1C",
        "display_en": "Jeongbalsan (Line 3)"
      },
      "safe_return": {
        "venue_en": "Goyang Stadium",
        "route_en": "Walk from Goyang Stadium → Hotel",
        "transport": "walk",
        "time_min": 4,
        "last_train": "23:50",
        "taxi_krw": 0
      },
      "army_local_guide": {
        "bts": [
          {
            "name_en": "MBC Sangam",
            "spot_tag": "Music Show",
            "description_en": "Music show filming",
            "distance_km": 13.3,
            "lat": 37.5786,
            "lng": 126.8918
          },
          {
            "name_en": "Hongdae Busking Street",
            "spot_tag": "Trainee Memory",
            "description_en": "Pre-debut busking spot",
            "distance_km": 17.0,
            "lat": 37.5563,
            "lng": 126.922
          },
          {
            "name_en": "Gwangjang Market",
            "spot_tag": "Debut Memory",
            "description_en": "2013 debut location",
            "distance_km": 22.8,
            "lat": 37.57,
            "lng": 127.0098
          }
        ],
        "restaurant": [
          {
            "name_en": "Ilsan Food Street",
            "spot_tag": "Local Eats",
            "description_en": "Local food street",
            "distance_km": 0.6,
            "lat": 37.658,
            "lng": 126.772
          },
          {
            "name_en": "La Festa Restaurants",
            "spot_tag": "Dining Hub",
            "description_en": "Restaurant complex",
            "distance_km": 0.6,
            "lat": 37.6575,
            "lng": 126.7705
          },
          {
            "name_en": "Western Dom Food Court",
            "spot_tag": "Food Court",
            "description_en": "Food court",
            "distance_km": 1.5,
            "lat": 37.663,
            "lng": 126.762
          }
        ],
        "cafe": [
          {
            "name_en": "La Festa Cafes",
            "spot_tag": "Trendy Cafe",
            "description_en": "Trendy cafes",
            "distance_km": 0.5,
            "lat": 37.6572,
            "lng": 126.771
          },
          {
            "name_en": "Ilsan Lake Park Cafe Street",
            "spot_tag": "Lake View",
            "description_en": "Scenic cafes",
            "distance_km": 1.3,
            "lat": 37.659,
            "lng": 126.76
          }
        ],
        "hotspot": [
          {
            "name_en": "Ilsan Lake Park",
            "spot_tag": "Must Visit",
            "description_en": "Beautiful lake park",
            "distance_km": 1.3,
            "lat": 37.658,
            "lng": 126.759
          },
          {
            "name_en": "One Mount",
            "spot_tag": "Entertainment",
            "description_en": "Theme park",
            "distance_km": 2.3,
            "lat": 37.665,
            "lng": 126.751
          },
          {
            "name_en": "Starfield Goyang",
            "spot_tag": "Shopping",
            "description_en": "Shopping mall",
            "distance_km": 10.8,
            "lat": 37.645,
            "lng": 126.895
          }
        ]
      },
      "map_detail": {
        "hotel": {
          "name_en": "월드하우스호텔",
          "lat": 37.65253611476189,
          "lng": 126.7724796852046
        },
        "venue": {
          "name_en": "Goyang Stadium",
          "lat": 37.6556,
          "lng": 126.7714
        },
        "nearby_spots": [
          {
            "name_en": "La Festa Cafes",
            "category": "cafe",
            "spot_tag": "Trendy Cafe",
            "lat": 37.6572,
            "lng": 126.771,
            "distance_km": 0.5
          },
          {
            "name_en": "Ilsan Food Street",
            "category": "restaurant",
            "spot_tag": "Local Eats",
            "lat": 37.658,
            "lng": 126.772,
            "distance_km": 0.6
          },
          {
            "name_en": "La Festa Restaurants",
            "category": "restaurant",
            "spot_tag": "Dining Hub",
            "lat": 37.6575,
            "lng": 126.7705,
            "distance_km": 0.6
          },
          {
            "name_en": "Ilsan Lake Park Cafe Street",
            "category": "cafe",
            "spot_tag": "Lake View",
            "lat": 37.659,
            "lng": 126.76,
            "distance_km": 1.3
          },
          {
            "name_en": "Ilsan Lake Park",
            "category": "hotspot",
            "spot_tag": "Must Visit",
            "lat": 37.658,
            "lng": 126.759,
            "distance_km": 1.3
          }
        ]
      },
      "platform": {
        "name": "Booking.com",
        "booking_url": "https://www.booking.comhttps://www.booking.com/hotel/kr/weoldeuhauseu.ko.html?aid=304142&label=mkt123sc-29ab0a27-a4fa-424b-8cdd-721dfecdb3fe&ucfs=1&arphpl=1&checkin=2026-06-11&checkout=2026-06-13&dest_id=-715815&dest_type=city&group_adults=2&req_adults=2&no_rooms=1&group_children=0&req_children=0&hpos=15&hapos=15&sr_order=price&srpvid=86e55b4fd7291db025bb78e8e4a6be2c&srepoch=1769937962&all_sr_blocks=1387206001_410731342_0_1_0&highlighted_blocks=1387206001_410731342_0_1_0&matching_block_id=1387206001_410731342_0_1_0&sr_pri_blocks=1387206001_410731342_0_1_0__49090909&from=searchresults"
      },
      "booking_guide": {
        "steps_en": [
          "1. Search Goyang hotels",
          "2. Filter by 'Free Cancellation'",
          "3. Select room and enter info",
          "4. Pay online or at property",
          "5. Show confirmation at check-in"
        ],
        "tips_en": [
          "Genius membership for discounts",
          "Free cancellation options"
        ],
        "payment_methods": [
          "Credit Card",
          "Pay at Property"
        ],
        "foreigner_friendly": true
      },
      "last_update": "2026-02-01 09:26:40",
      "nearby": [
        {
          "id": "hotel_98284",
          "name_en": "댓 하우스 홍대 게스트하우스",
          "price_krw": 33,
          "distance_km": 0.2,
          "image_url": "https://cf.bstatic.com/xdata/images/hotel/square240/61802936.webp?k=d69c6742d66a81c8d169fce434c380d6b1ab7fa073035c0c923cbbe9d36d5a12&o="
        },
        {
          "id": "hotel_92524",
          "name_en": "Juns House 대인원 수용 가능, 2층 복층 주택, 테라스보유, 가족숙소 적합",
          "price_krw": 95,
          "distance_km": 0.3,
          "image_url": "https://cf.bstatic.com/xdata/images/hotel/square240/569150735.webp?k=961b4951aac0e53e098f2ddf5d22def587b1ed37abe7445243b051efa6a2c817&o="
        },
        {
          "id": "hotel_38776",
          "name_en": "넓고, 편안한하고, 독립적인하우스",
          "price_krw": 83,
          "distance_km": 0.3,
          "image_url": "https://cf.bstatic.com/xdata/images/hotel/square240/723853018.webp?k=df6d0ba35926d839888909a4fb58945f3966eb58d138c72bc050d326c0a5f440&o="
        }
      ]
    },
    {
      "id": "hotel_98907",
      "name_en": "베니키아호텔  포항",
      "price_krw": 49,
      "rating": 8.08,
      "image_url": "https://cf.bstatic.com/xdata/images/hotel/square240/476034276.webp?k=2b951cf7b487e8c5643117f218896f3d6e53a13dec080f2893a12072f6b6e304&o=",
      "rooms_left": -1,
      "is_available": true,
      "hotel_type": {
        "label_en": "Hotel",
        "color": "#4A90D9"
      },
      "cancellation": {
        "type": "free",
        "label_en": "Free Cancellation",
        "label_kr": "무료 취소",
        "is_refundable": true
      },
      "tags": {
        "list_en": [
          "#FreeCancellation",
          "#ARMYPopular",
          "#WalkToVenue"
        ],
        "list_kr": [
          "#취소가능",
          "#아미인기",
          "#도보가능"
        ],
        "display_en": "#FreeCancellation #ARMYPopular #WalkToVenue",
        "display_kr": "#취소가능 #아미인기 #도보가능"
      },
      "lat": 37.6555386169678,
      "lng": 126.76685948221278,
      "location": {
        "area_en": "Paju",
        "area_kr": "파주",
        "address_en": "Paju, Gyeonggi-do",
        "address_kr": "경기도 파주"
      },
      "city_key": "paju",
      "army_density": {
        "value": 65,
        "level_en": "High",
        "level_kr": "높음",
        "label_en": "ARMY 65%",
        "label_kr": "아미 65%"
      },
      "distance": {
        "type": "walk",
        "display_en": "Walk 4min",
        "minutes": 4,
        "distance_km": 0.4
      },
      "transport": {
        "station_en": "Jeongbalsan",
        "line_en": "Line 3",
        "line_color": "#EF7C1C",
        "display_en": "Jeongbalsan (Line 3)"
      },
      "safe_return": {
        "venue_en": "Goyang Stadium",
        "route_en": "Walk from Goyang Stadium → Hotel",
        "transport": "walk",
        "time_min": 4,
        "last_train": "23:50",
        "taxi_krw": 0
      },
      "army_local_guide": {
        "bts": [
          {
            "name_en": "MBC Sangam",
            "spot_tag": "Music Show",
            "description_en": "Music show filming",
            "distance_km": 13.9,
            "lat": 37.5786,
            "lng": 126.8918
          },
          {
            "name_en": "Hongdae Busking Street",
            "spot_tag": "Trainee Memory",
            "description_en": "Pre-debut busking spot",
            "distance_km": 17.6,
            "lat": 37.5563,
            "lng": 126.922
          },
          {
            "name_en": "Gwangjang Market",
            "spot_tag": "Debut Memory",
            "description_en": "2013 debut location",
            "distance_km": 23.4,
            "lat": 37.57,
            "lng": 127.0098
          }
        ],
        "restaurant": [
          {
            "name_en": "La Festa Restaurants",
            "spot_tag": "Dining Hub",
            "description_en": "Restaurant complex",
            "distance_km": 0.4,
            "lat": 37.6575,
            "lng": 126.7705
          },
          {
            "name_en": "Ilsan Food Street",
            "spot_tag": "Local Eats",
            "description_en": "Local food street",
            "distance_km": 0.5,
            "lat": 37.658,
            "lng": 126.772
          },
          {
            "name_en": "Western Dom Food Court",
            "spot_tag": "Food Court",
            "description_en": "Food court",
            "distance_km": 0.9,
            "lat": 37.663,
            "lng": 126.762
          }
        ],
        "cafe": [
          {
            "name_en": "La Festa Cafes",
            "spot_tag": "Trendy Cafe",
            "description_en": "Trendy cafes",
            "distance_km": 0.4,
            "lat": 37.6572,
            "lng": 126.771
          },
          {
            "name_en": "Ilsan Lake Park Cafe Street",
            "spot_tag": "Lake View",
            "description_en": "Scenic cafes",
            "distance_km": 0.7,
            "lat": 37.659,
            "lng": 126.76
          }
        ],
        "hotspot": [
          {
            "name_en": "Ilsan Lake Park",
            "spot_tag": "Must Visit",
            "description_en": "Beautiful lake park",
            "distance_km": 0.7,
            "lat": 37.658,
            "lng": 126.759
          },
          {
            "name_en": "One Mount",
            "spot_tag": "Entertainment",
            "description_en": "Theme park",
            "distance_km": 1.7,
            "lat": 37.665,
            "lng": 126.751
          },
          {
            "name_en": "Starfield Goyang",
            "spot_tag": "Shopping",
            "description_en": "Shopping mall",
            "distance_km": 11.3,
            "lat": 37.645,
            "lng": 126.895
          }
        ]
      },
      "map_detail": {
        "hotel": {
          "name_en": "베니키아호텔  포항",
          "lat": 37.6555386169678,
          "lng": 126.76685948221278
        },
        "venue": {
          "name_en": "Goyang Stadium",
          "lat": 37.6556,
          "lng": 126.7714
        },
        "nearby_spots": [
          {
            "name_en": "La Festa Restaurants",
            "category": "restaurant",
            "spot_tag": "Dining Hub",
            "lat": 37.6575,
            "lng": 126.7705,
            "distance_km": 0.4
          },
          {
            "name_en": "La Festa Cafes",
            "category": "cafe",
            "spot_tag": "Trendy Cafe",
            "lat": 37.6572,
            "lng": 126.771,
            "distance_km": 0.4
          },
          {
            "name_en": "Ilsan Food Street",
            "category": "restaurant",
            "spot_tag": "Local Eats",
            "lat": 37.658,
            "lng": 126.772,
            "distance_km": 0.5
          },
          {
            "name_en": "Ilsan Lake Park Cafe Street",
            "category": "cafe",
            "spot_tag": "Lake View",
            "lat": 37.659,
            "lng": 126.76,
            "distance_km": 0.7
          },
          {
            "name_en": "Ilsan Lake Park",
            "category": "hotspot",
            "spot_tag": "Must Visit",
            "lat": 37.658,
            "lng": 126.759,
            "distance_km": 0.7
          }
        ]
      },
      "platform": {
        "name": "Booking.com",
        "booking_url": "https://www.booking.comhttps://www.booking.com/hotel/kr/benikea-pohang-pohang.ko.html?aid=304142&label=mkt123sc-29ab0a27-a4fa-424b-8cdd-721dfecdb3fe&ucfs=1&arphpl=1&checkin=2026-06-11&checkout=2026-06-13&dest_id=-715815&dest_type=city&group_adults=2&req_adults=2&no_rooms=1&group_children=0&req_children=0&hpos=20&hapos=20&sr_order=price&srpvid=86e55b4fd7291db025bb78e8e4a6be2c&srepoch=1769937962&all_sr_blocks=130323201_184476776_2_2_0&highlighted_blocks=130323201_184476776_2_2_0&matching_block_id=130323201_184476776_2_2_0&sr_pri_blocks=130323201_184476776_2_2_0__14090909&from=searchresults"
      },
      "booking_guide": {
        "steps_en": [
          "1. Search Goyang hotels",
          "2. Filter by 'Free Cancellation'",
          "3. Select room and enter info",
          "4. Pay online or at property",
          "5. Show confirmation at check-in"
        ],
        "tips_en": [
          "Genius membership for discounts",
          "Free cancellation options"
        ],
        "payment_methods": [
          "Credit Card",
          "Pay at Property"
        ],
        "foreigner_friendly": true
      },
      "last_update": "2026-02-01 09:26:40",
      "nearby": [
        {
          "id": "hotel_72371",
          "name_en": "Accommodation near Yeongil University",
          "price_krw": 45,
          "distance_km": 0.2,
          "image_url": "https://cf.bstatic.com/xdata/images/hotel/square240/728095248.webp?k=b4a4036816a1b3d946264b3b2537ef8fd70ac9e6e17789e1961c9791ec53457a&o="
        },
        {
          "id": "hotel_73460",
          "name_en": "포항 오도리펜션",
          "price_krw": 59,
          "distance_km": 0.2,
          "image_url": "https://cf.bstatic.com/xdata/images/hotel/square240/616787587.webp?k=d036ec8a958057e7b857e79128d3a74384c21695fb40c31bf9afb490a8ceb796&o="
        },
        {
          "id": "hotel_98840",
          "name_en": "죽도시장인근 오피스텔1",
          "price_krw": 152,
          "distance_km": 0.2,
          "image_url": "https://cf.bstatic.com/xdata/images/hotel/square240/745722403.webp?k=4b4a71d941da3fccfa971787e059f9e711be1ae476822ad31aff3fd27be31e8e&o="
        }
      ]
    },
    {
      "id": "hotel_85575",
      "name_en": "노블리온 호텔",
      "price_krw": 75,
      "rating": 8.78,
      "image_url": "https://cf.bstatic.com/xdata/images/hotel/square240/508299129.webp?k=7888c7d7a3278ec619892774d02fe2d57d5c627d8402f38cb9eeff2e740821df&o=",
      "rooms_left": -1,
      "is_available": true,
      "hotel_type": {
        "label_en": "Hotel",
        "color": "#4A90D9"
      },
      "cancellation": {
        "type": "free",
        "label_en": "Free Cancellation",
        "label_kr": "무료 취소",
        "is_refundable": true
      },
      "tags": {
        "list_en": [
          "#FreeCancellation",
          "#ARMYPopular",
          "#WalkToVenue"
        ],
        "list_kr": [
          "#취소가능",
          "#아미인기",
          "#도보가능"
        ],
        "display_en": "#FreeCancellation #ARMYPopular #WalkToVenue",
        "display_kr": "#취소가능 #아미인기 #도보가능"
      },
      "lat": 37.65791887732559,
      "lng": 126.77419720690054,
      "location": {
        "area_en": "Paju",
        "area_kr": "파주",
        "address_en": "Paju, Gyeonggi-do",
        "address_kr": "경기도 파주"
      },
      "city_key": "paju",
      "army_density": {
        "value": 65,
        "level_en": "High",
        "level_kr": "높음",
        "label_en": "ARMY 65%",
        "label_kr": "아미 65%"
      },
      "distance": {
        "type": "walk",
        "display_en": "Walk 4min",
        "minutes": 4,
        "distance_km": 0.4
      },
      "transport": {
        "station_en": "Jeongbalsan",
        "line_en": "Line 3",
        "line_color": "#EF7C1C",
        "display_en": "Jeongbalsan (Line 3)"
      },
      "safe_return": {
        "venue_en": "Goyang Stadium",
        "route_en": "Walk from Goyang Stadium → Hotel",
        "transport": "walk",
        "time_min": 4,
        "last_train": "23:50",
        "taxi_krw": 0
      },
      "army_local_guide": {
        "bts": [
          {
            "name_en": "MBC Sangam",
            "spot_tag": "Music Show",
            "description_en": "Music show filming",
            "distance_km": 13.6,
            "lat": 37.5786,
            "lng": 126.8918
          },
          {
            "name_en": "Hongdae Busking Street",
            "spot_tag": "Trainee Memory",
            "description_en": "Pre-debut busking spot",
            "distance_km": 17.2,
            "lat": 37.5563,
            "lng": 126.922
          },
          {
            "name_en": "Gwangjang Market",
            "spot_tag": "Debut Memory",
            "description_en": "2013 debut location",
            "distance_km": 22.9,
            "lat": 37.57,
            "lng": 127.0098
          }
        ],
        "restaurant": [
          {
            "name_en": "Ilsan Food Street",
            "spot_tag": "Local Eats",
            "description_en": "Local food street",
            "distance_km": 0.2,
            "lat": 37.658,
            "lng": 126.772
          },
          {
            "name_en": "La Festa Restaurants",
            "spot_tag": "Dining Hub",
            "description_en": "Restaurant complex",
            "distance_km": 0.3,
            "lat": 37.6575,
            "lng": 126.7705
          },
          {
            "name_en": "Western Dom Food Court",
            "spot_tag": "Food Court",
            "description_en": "Food court",
            "distance_km": 1.2,
            "lat": 37.663,
            "lng": 126.762
          }
        ],
        "cafe": [
          {
            "name_en": "La Festa Cafes",
            "spot_tag": "Trendy Cafe",
            "description_en": "Trendy cafes",
            "distance_km": 0.3,
            "lat": 37.6572,
            "lng": 126.771
          },
          {
            "name_en": "Ilsan Lake Park Cafe Street",
            "spot_tag": "Lake View",
            "description_en": "Scenic cafes",
            "distance_km": 1.3,
            "lat": 37.659,
            "lng": 126.76
          }
        ],
        "hotspot": [
          {
            "name_en": "Ilsan Lake Park",
            "spot_tag": "Must Visit",
            "description_en": "Beautiful lake park",
            "distance_km": 1.3,
            "lat": 37.658,
            "lng": 126.759
          },
          {
            "name_en": "One Mount",
            "spot_tag": "Entertainment",
            "description_en": "Theme park",
            "distance_km": 2.2,
            "lat": 37.665,
            "lng": 126.751
          },
          {
            "name_en": "Starfield Goyang",
            "spot_tag": "Shopping",
            "description_en": "Shopping mall",
            "distance_km": 10.7,
            "lat": 37.645,
            "lng": 126.895
          }
        ]
      },
      "map_detail": {
        "hotel": {
          "name_en": "노블리온 호텔",
          "lat": 37.65791887732559,
          "lng": 126.77419720690054
        },
        "venue": {
          "name_en": "Goyang Stadium",
          "lat": 37.6556,
          "lng": 126.7714
        },
        "nearby_spots": [
          {
            "name_en": "Ilsan Food Street",
            "category": "restaurant",
            "spot_tag": "Local Eats",
            "lat": 37.658,
            "lng": 126.772,
            "distance_km": 0.2
          },
          {
            "name_en": "La Festa Restaurants",
            "category": "restaurant",
            "spot_tag": "Dining Hub",
            "lat": 37.6575,
            "lng": 126.7705,
            "distance_km": 0.3
          },
          {
            "name_en": "La Festa Cafes",
            "category": "cafe",
            "spot_tag": "Trendy Cafe",
            "lat": 37.6572,
            "lng": 126.771,
            "distance_km": 0.3
          },
          {
            "name_en": "Western Dom Food Court",
            "category": "restaurant",
            "spot_tag": "Food Court",
            "lat": 37.663,
            "lng": 126.762,
            "distance_km": 1.2
          },
          {
            "name_en": "Ilsan Lake Park Cafe Street",
            "category": "cafe",
            "spot_tag": "Lake View",
            "lat": 37.659,
            "lng": 126.76,
            "distance_km": 1.3
          }
        ]
      },
      "platform": {
        "name": "Booking.com",
        "booking_url": "https://www.booking.comhttps://www.booking.com/hotel/kr/pohang-noblion.ko.html?aid=304142&label=mkt123sc-29ab0a27-a4fa-424b-8cdd-721dfecdb3fe&ucfs=1&arphpl=1&checkin=2026-06-11&checkout=2026-06-13&dest_id=-715815&dest_type=city&group_adults=2&req_adults=2&no_rooms=1&group_children=0&req_children=0&hpos=23&hapos=23&sr_order=price&srpvid=86e55b4fd7291db025bb78e8e4a6be2c&srepoch=1769937962&all_sr_blocks=1111940301_384145102_2_0_0&highlighted_blocks=1111940301_384145102_2_0_0&matching_block_id=1111940301_384145102_2_0_0&sr_pri_blocks=1111940301_384145102_2_0_0__21590909&from=searchresults"
      },
      "booking_guide": {
        "steps_en": [
          "1. Search Goyang hotels",
          "2. Filter by 'Free Cancellation'",
          "3. Select room and enter info",
          "4. Pay online or at property",
          "5. Show confirmation at check-in"
        ],
        "tips_en": [
          "Genius membership for discounts",
          "Free cancellation options"
        ],
        "payment_methods": [
          "Credit Card",
          "Pay at Property"
        ],
        "foreigner_friendly": true
      },
      "last_update": "2026-02-01 09:26:40",
      "nearby": [
        {
          "id": "hotel_40652",
          "name_en": "센터 오브 서울",
          "price_krw": 30,
          "distance_km": 0.3,
          "image_url": "https://cf.bstatic.com/xdata/images/hotel/square240/603263793.webp?k=6f50cf5439a6ba4c2cbeaf692c6c3b9a16a25c26e3e78c9d5534e0c9d54cdf18&o="
        },
        {
          "id": "hotel_71638",
          "name_en": "명동 스튜디오 아파트먼트",
          "price_krw": 32,
          "distance_km": 0.3,
          "image_url": "https://cf.bstatic.com/xdata/images/hotel/square240/640931786.webp?k=e7766af4de6e87a13194d7a47da417e3daef51f2a77b679822a376063c2732b8&o="
        },
        {
          "id": "hotel_92198",
          "name_en": "포항 힐링 하우스",
          "price_krw": 85,
          "distance_km": 0.4,
          "image_url": "https://cf.bstatic.com/xdata/images/hotel/square240/726428502.webp?k=8d6d5a3e8d79cb434b3f339bf7e3a7d90450b17c0ab478e2a3895a8083ea2411&o="
        }
      ]
    },
    {
      "id": "hotel_98284",
      "name_en": "댓 하우스 홍대 게스트하우스",
      "price_krw": 33,
      "rating": 7.47,
      "image_url": "https://cf.bstatic.com/xdata/images/hotel/square240/61802936.webp?k=d69c6742d66a81c8d169fce434c380d6b1ab7fa073035c0c923cbbe9d36d5a12&o=",
      "rooms_left": -1,
      "is_available": true,
      "hotel_type": {
        "label_en": "Hotel",
        "color": "#4A90D9"
      },
      "cancellation": {
        "type": "free",
        "label_en": "Free Cancellation",
        "label_kr": "무료 취소",
        "is_refundable": true
      },
      "tags": {
        "list_en": [
          "#FreeCancellation",
          "#ARMYPopular",
          "#WalkToVenue"
        ],
        "list_kr": [
          "#취소가능",
          "#아미인기",
          "#도보가능"
        ],
        "display_en": "#FreeCancellation #ARMYPopular #WalkToVenue",
        "display_kr": "#취소가능 #아미인기 #도보가능"
      },
      "lat": 37.65296887853283,
      "lng": 126.77412128989833,
      "location": {
        "area_en": "Hongdae",
        "area_kr": "홍대",
        "address_en": "Hongdae, Seoul",
        "address_kr": "서울 홍대"
      },
      "city_key": "hongdae",
      "army_density": {
        "value": 65,
        "level_en": "High",
        "level_kr": "높음",
        "label_en": "ARMY 65%",
        "label_kr": "아미 65%"
      },
      "distance": {
        "type": "walk",
        "display_en": "Walk 4min",
        "minutes": 4,
        "distance_km": 0.4
      },
      "transport": {
        "station_en": "Jeongbalsan",
        "line_en": "Line 3",
        "line_color": "#EF7C1C",
        "display_en": "Jeongbalsan (Line 3)"
      },
      "safe_return": {
        "venue_en": "Goyang Stadium",
        "route_en": "Walk from Goyang Stadium → Hotel",
        "transport": "walk",
        "time_min": 4,
        "last_train": "23:50",
        "taxi_krw": 0
      },
      "army_local_guide": {
        "bts": [
          {
            "name_en": "MBC Sangam",
            "spot_tag": "Music Show",
            "description_en": "Music show filming",
            "distance_km": 13.3,
            "lat": 37.5786,
            "lng": 126.8918
          },
          {
            "name_en": "Hongdae Busking Street",
            "spot_tag": "Trainee Memory",
            "description_en": "Pre-debut busking spot",
            "distance_km": 16.9,
            "lat": 37.5563,
            "lng": 126.922
          },
          {
            "name_en": "Gwangjang Market",
            "spot_tag": "Debut Memory",
            "description_en": "2013 debut location",
            "distance_km": 22.7,
            "lat": 37.57,
            "lng": 127.0098
          }
        ],
        "restaurant": [
          {
            "name_en": "Ilsan Food Street",
            "spot_tag": "Local Eats",
            "description_en": "Local food street",
            "distance_km": 0.6,
            "lat": 37.658,
            "lng": 126.772
          },
          {
            "name_en": "La Festa Restaurants",
            "spot_tag": "Dining Hub",
            "description_en": "Restaurant complex",
            "distance_km": 0.6,
            "lat": 37.6575,
            "lng": 126.7705
          },
          {
            "name_en": "Western Dom Food Court",
            "spot_tag": "Food Court",
            "description_en": "Food court",
            "distance_km": 1.5,
            "lat": 37.663,
            "lng": 126.762
          }
        ],
        "cafe": [
          {
            "name_en": "La Festa Cafes",
            "spot_tag": "Trendy Cafe",
            "description_en": "Trendy cafes",
            "distance_km": 0.5,
            "lat": 37.6572,
            "lng": 126.771
          },
          {
            "name_en": "Ilsan Lake Park Cafe Street",
            "spot_tag": "Lake View",
            "description_en": "Scenic cafes",
            "distance_km": 1.4,
            "lat": 37.659,
            "lng": 126.76
          }
        ],
        "hotspot": [
          {
            "name_en": "Ilsan Lake Park",
            "spot_tag": "Must Visit",
            "description_en": "Beautiful lake park",
            "distance_km": 1.4,
            "lat": 37.658,
            "lng": 126.759
          },
          {
            "name_en": "One Mount",
            "spot_tag": "Entertainment",
            "description_en": "Theme park",
            "distance_km": 2.4,
            "lat": 37.665,
            "lng": 126.751
          },
          {
            "name_en": "Starfield Goyang",
            "spot_tag": "Shopping",
            "description_en": "Shopping mall",
            "distance_km": 10.7,
            "lat": 37.645,
            "lng": 126.895
          }
        ]
      },
      "map_detail": {
        "hotel": {
          "name_en": "댓 하우스 홍대 게스트하우스",
          "lat": 37.65296887853283,
          "lng": 126.77412128989833
        },
        "venue": {
          "name_en": "Goyang Stadium",
          "lat": 37.6556,
          "lng": 126.7714
        },
        "nearby_spots": [
          {
            "name_en": "La Festa Cafes",
            "category": "cafe",
            "spot_tag": "Trendy Cafe",
            "lat": 37.6572,
            "lng": 126.771,
            "distance_km": 0.5
          },
          {
            "name_en": "Ilsan Food Street",
            "category": "restaurant",
            "spot_tag": "Local Eats",
            "lat": 37.658,
            "lng": 126.772,
            "distance_km": 0.6
          },
          {
            "name_en": "La Festa Restaurants",
            "category": "restaurant",
            "spot_tag": "Dining Hub",
            "lat": 37.6575,
            "lng": 126.7705,
            "distance_km": 0.6
          },
          {
            "name_en": "Ilsan Lake Park Cafe Street",
            "category": "cafe",
            "spot_tag": "Lake View",
            "lat": 37.659,
            "lng": 126.76,
            "distance_km": 1.4
          },
          {
            "name_en": "Ilsan Lake Park",
            "category": "hotspot",
            "spot_tag": "Must Visit",
            "lat": 37.658,
            "lng": 126.759,
            "distance_km": 1.4
          }
        ]
      },
      "platform": {
        "name": "Booking.com",
        "booking_url": "https://www.booking.comhttps://www.booking.com/hotel/kr/that-house.ko.html?aid=304142&label=mkt123sc-ddd82d6d-81a5-4b1c-88d7-07d8bc01e666&ucfs=1&arphpl=1&checkin=2026-06-11&checkout=2026-06-13&dest_id=-716583&dest_type=city&group_adults=2&req_adults=2&no_rooms=1&group_children=0&req_children=0&hpos=21&hapos=21&sr_order=price&srpvid=a279a48c9f590ef0ddedd1c1424f7801&srepoch=1769937995&all_sr_blocks=166732206_128134293_0_0_0%2C166732201_128134293_0_0_0&highlighted_blocks=166732206_128134293_0_0_0%2C166732201_128134293_0_0_0&matching_block_id=166732206_128134293_0_0_0&sr_pri_blocks=166732206_128134293_0_0_0__4818182%2C166732201_128134293_0_0_0__4818182&from=searchresults"
      },
      "booking_guide": {
        "steps_en": [
          "1. Search Goyang hotels",
          "2. Filter by 'Free Cancellation'",
          "3. Select room and enter info",
          "4. Pay online or at property",
          "5. Show confirmation at check-in"
        ],
        "tips_en": [
          "Genius membership for discounts",
          "Free cancellation options"
        ],
        "payment_methods": [
          "Credit Card",
          "Pay at Property"
        ],
        "foreigner_friendly": true
      },
      "last_update": "2026-02-01 09:26:40",
      "nearby": [
        {
          "id": "hotel_29969",
          "name_en": "달달 하우스",
          "price_krw": 125,
          "distance_km": 0.2,
          "image_url": "https://cf.bstatic.com/xdata/images/hotel/square240/636930609.webp?k=dbb1c0882cf666102b1deb915eb01ce4144f10a8ea1599fbcdb2308c2d3bee35&o="
        },
        {
          "id": "hotel_48753",
          "name_en": "월드하우스호텔",
          "price_krw": 171,
          "distance_km": 0.2,
          "image_url": "https://cf.bstatic.com/xdata/images/hotel/square240/666408257.webp?k=4e4a9e56de1b81a9fa5f46c2a2463d24a25dd370db91d0542fcb1ae5a2f6ce91&o="
        },
        {
          "id": "hotel_92524",
          "name_en": "Juns House 대인원 수용 가능, 2층 복층 주택, 테라스보유, 가족숙소 적합",
          "price_krw": 95,
          "distance_km": 0.3,
          "image_url": "https://cf.bstatic.com/xdata/images/hotel/square240/569150735.webp?k=961b4951aac0e53e098f2ddf5d22def587b1ed37abe7445243b051efa6a2c817&o="
        }
      ]
    },
    {
      "id": "hotel_98840",
      "name_en": "죽도시장인근 오피스텔1",
      "price_krw": 152,
      "rating": 0,
      "image_url": "https://cf.bstatic.com/xdata/images/hotel/square240/745722403.webp?k=4b4a71d941da3fccfa971787e059f9e711be1ae476822ad31aff3fd27be31e8e&o=",
      "rooms_left": -1,
      "is_available": true,
      "hotel_type": {
        "label_en": "Hotel",
        "color": "#4A90D9"
      },
      "cancellation": {
        "type": "free",
        "label_en": "Free Cancellation",
        "label_kr": "무료 취소",
        "is_refundable": true
      },
      "tags": {
        "list_en": [
          "#FreeCancellation",
          "#ARMYPopular",
          "#WalkToVenue"
        ],
        "list_kr": [
          "#취소가능",
          "#아미인기",
          "#도보가능"
        ],
        "display_en": "#FreeCancellation #ARMYPopular #WalkToVenue",
        "display_kr": "#취소가능 #아미인기 #도보가능"
      },
      "lat": 37.657244698665025,
      "lng": 126.76622453085272,
      "location": {
        "area_en": "Paju",
        "area_kr": "파주",
        "address_en": "Paju, Gyeonggi-do",
        "address_kr": "경기도 파주"
      },
      "city_key": "paju",
      "army_density": {
        "value": 65,
        "level_en": "High",
        "level_kr": "높음",
        "label_en": "ARMY 65%",
        "label_kr": "아미 65%"
      },
      "distance": {
        "type": "walk",
        "display_en": "Walk 5min",
        "minutes": 5,
        "distance_km": 0.5
      },
      "transport": {
        "station_en": "Jeongbalsan",
        "line_en": "Line 3",
        "line_color": "#EF7C1C",
        "display_en": "Jeongbalsan (Line 3)"
      },
      "safe_return": {
        "venue_en": "Goyang Stadium",
        "route_en": "Walk from Goyang Stadium → Hotel",
        "transport": "walk",
        "time_min": 5,
        "last_train": "23:50",
        "taxi_krw": 0
      },
      "army_local_guide": {
        "bts": [
          {
            "name_en": "MBC Sangam",
            "spot_tag": "Music Show",
            "description_en": "Music show filming",
            "distance_km": 14.1,
            "lat": 37.5786,
            "lng": 126.8918
          },
          {
            "name_en": "Hongdae Busking Street",
            "spot_tag": "Trainee Memory",
            "description_en": "Pre-debut busking spot",
            "distance_km": 17.7,
            "lat": 37.5563,
            "lng": 126.922
          },
          {
            "name_en": "Gwangjang Market",
            "spot_tag": "Debut Memory",
            "description_en": "2013 debut location",
            "distance_km": 23.5,
            "lat": 37.57,
            "lng": 127.0098
          }
        ],
        "restaurant": [
          {
            "name_en": "La Festa Restaurants",
            "spot_tag": "Dining Hub",
            "description_en": "Restaurant complex",
            "distance_km": 0.4,
            "lat": 37.6575,
            "lng": 126.7705
          },
          {
            "name_en": "Ilsan Food Street",
            "spot_tag": "Local Eats",
            "description_en": "Local food street",
            "distance_km": 0.5,
            "lat": 37.658,
            "lng": 126.772
          },
          {
            "name_en": "Western Dom Food Court",
            "spot_tag": "Food Court",
            "description_en": "Food court",
            "distance_km": 0.7,
            "lat": 37.663,
            "lng": 126.762
          }
        ],
        "cafe": [
          {
            "name_en": "La Festa Cafes",
            "spot_tag": "Trendy Cafe",
            "description_en": "Trendy cafes",
            "distance_km": 0.4,
            "lat": 37.6572,
            "lng": 126.771
          },
          {
            "name_en": "Ilsan Lake Park Cafe Street",
            "spot_tag": "Lake View",
            "description_en": "Scenic cafes",
            "distance_km": 0.6,
            "lat": 37.659,
            "lng": 126.76
          }
        ],
        "hotspot": [
          {
            "name_en": "Ilsan Lake Park",
            "spot_tag": "Must Visit",
            "description_en": "Beautiful lake park",
            "distance_km": 0.6,
            "lat": 37.658,
            "lng": 126.759
          },
          {
            "name_en": "One Mount",
            "spot_tag": "Entertainment",
            "description_en": "Theme park",
            "distance_km": 1.6,
            "lat": 37.665,
            "lng": 126.751
          },
          {
            "name_en": "Starfield Goyang",
            "spot_tag": "Shopping",
            "description_en": "Shopping mall",
            "distance_km": 11.4,
            "lat": 37.645,
            "lng": 126.895
          }
        ]
      },
      "map_detail": {
        "hotel": {
          "name_en": "죽도시장인근 오피스텔1",
          "lat": 37.657244698665025,
          "lng": 126.76622453085272
        },
        "venue": {
          "name_en": "Goyang Stadium",
          "lat": 37.6556,
          "lng": 126.7714
        },
        "nearby_spots": [
          {
            "name_en": "La Festa Restaurants",
            "category": "restaurant",
            "spot_tag": "Dining Hub",
            "lat": 37.6575,
            "lng": 126.7705,
            "distance_km": 0.4
          },
          {
            "name_en": "La Festa Cafes",
            "category": "cafe",
            "spot_tag": "Trendy Cafe",
            "lat": 37.6572,
            "lng": 126.771,
            "distance_km": 0.4
          },
          {
            "name_en": "Ilsan Food Street",
            "category": "restaurant",
            "spot_tag": "Local Eats",
            "lat": 37.658,
            "lng": 126.772,
            "distance_km": 0.5
          },
          {
            "name_en": "Ilsan Lake Park Cafe Street",
            "category": "cafe",
            "spot_tag": "Lake View",
            "lat": 37.659,
            "lng": 126.76,
            "distance_km": 0.6
          },
          {
            "name_en": "Ilsan Lake Park",
            "category": "hotspot",
            "spot_tag": "Must Visit",
            "lat": 37.658,
            "lng": 126.759,
            "distance_km": 0.6
          }
        ]
      },
      "platform": {
        "name": "Booking.com",
        "booking_url": "https://www.booking.comhttps://www.booking.com/hotel/kr/jugdosijangingeun-opiseutel1.ko.html?aid=304142&label=mkt123sc-29ab0a27-a4fa-424b-8cdd-721dfecdb3fe&ucfs=1&arphpl=1&checkin=2026-06-11&checkout=2026-06-13&dest_id=-715815&dest_type=city&group_adults=2&req_adults=2&no_rooms=1&group_children=0&req_children=0&hpos=13&hapos=13&sr_order=price&srpvid=86e55b4fd7291db025bb78e8e4a6be2c&srepoch=1769937962&all_sr_blocks=1492244501_420873855_1_0_0%2C1492244501_420873855_1_0_0&highlighted_blocks=1492244501_420873855_1_0_0%2C1492244501_420873855_1_0_0&matching_block_id=1492244501_420873855_1_0_0&sr_pri_blocks=1492244501_420873855_1_0_0__21818182%2C1492244501_420873855_1_0_0__21818182&from=searchresults"
      },
      "booking_guide": {
        "steps_en": [
          "1. Search Goyang hotels",
          "2. Filter by 'Free Cancellation'",
          "3. Select room and enter info",
          "4. Pay online or at property",
          "5. Show confirmation at check-in"
        ],
        "tips_en": [
          "Genius membership for discounts",
          "Free cancellation options"
        ],
        "payment_methods": [
          "Credit Card",
          "Pay at Property"
        ],
        "foreigner_friendly": true
      },
      "last_update": "2026-02-01 09:26:40",
      "nearby": [
        {
          "id": "hotel_73460",
          "name_en": "포항 오도리펜션",
          "price_krw": 59,
          "distance_km": 0.2,
          "image_url": "https://cf.bstatic.com/xdata/images/hotel/square240/616787587.webp?k=d036ec8a958057e7b857e79128d3a74384c21695fb40c31bf9afb490a8ceb796&o="
        },
        {
          "id": "hotel_98907",
          "name_en": "베니키아호텔  포항",
          "price_krw": 49,
          "distance_km": 0.2,
          "image_url": "https://cf.bstatic.com/xdata/images/hotel/square240/476034276.webp?k=2b951cf7b487e8c5643117f218896f3d6e53a13dec080f2893a12072f6b6e304&o="
        },
        {
          "id": "hotel_92198",
          "name_en": "포항 힐링 하우스",
          "price_krw": 85,
          "distance_km": 0.3,
          "image_url": "https://cf.bstatic.com/xdata/images/hotel/square240/726428502.webp?k=8d6d5a3e8d79cb434b3f339bf7e3a7d90450b17c0ab478e2a3895a8083ea2411&o="
        }
      ]
    },
    {
      "id": "hotel_71638",
      "name_en": "명동 스튜디오 아파트먼트",
      "price_krw": 32,
      "rating": 8.48,
      "image_url": "https://cf.bstatic.com/xdata/images/hotel/square240/640931786.webp?k=e7766af4de6e87a13194d7a47da417e3daef51f2a77b679822a376063c2732b8&o=",
      "rooms_left": -1,
      "is_available": true,
      "hotel_type": {
        "label_en": "Hotel",
        "color": "#4A90D9"
      },
      "cancellation": {
        "type": "free",
        "label_en": "Free Cancellation",
        "label_kr": "무료 취소",
        "is_refundable": true
      },
      "tags": {
        "list_en": [
          "#FreeCancellation",
          "#ARMYPopular",
          "#WalkToVenue"
        ],
        "list_kr": [
          "#취소가능",
          "#아미인기",
          "#도보가능"
        ],
        "display_en": "#FreeCancellation #ARMYPopular #WalkToVenue",
        "display_kr": "#취소가능 #아미인기 #도보가능"
      },
      "lat": 37.66022127225001,
      "lng": 126.77346835000742,
      "location": {
        "area_en": "Hongdae",
        "area_kr": "홍대",
        "address_en": "Hongdae, Seoul",
        "address_kr": "서울 홍대"
      },
      "city_key": "hongdae",
      "army_density": {
        "value": 65,
        "level_en": "High",
        "level_kr": "높음",
        "label_en": "ARMY 65%",
        "label_kr": "아미 65%"
      },
      "distance": {
        "type": "walk",
        "display_en": "Walk 6min",
        "minutes": 6,
        "distance_km": 0.5
      },
      "transport": {
        "station_en": "Jeongbalsan",
        "line_en": "Line 3",
        "line_color": "#EF7C1C",
        "display_en": "Jeongbalsan (Line 3)"
      },
      "safe_return": {
        "venue_en": "Goyang Stadium",
        "route_en": "Walk from Goyang Stadium → Hotel",
        "transport": "walk",
        "time_min": 6,
        "last_train": "23:50",
        "taxi_krw": 0
      },
      "army_local_guide": {
        "bts": [
          {
            "name_en": "MBC Sangam",
            "spot_tag": "Music Show",
            "description_en": "Music show filming",
            "distance_km": 13.8,
            "lat": 37.5786,
            "lng": 126.8918
          },
          {
            "name_en": "Hongdae Busking Street",
            "spot_tag": "Trainee Memory",
            "description_en": "Pre-debut busking spot",
            "distance_km": 17.5,
            "lat": 37.5563,
            "lng": 126.922
          },
          {
            "name_en": "Gwangjang Market",
            "spot_tag": "Debut Memory",
            "description_en": "2013 debut location",
            "distance_km": 23.1,
            "lat": 37.57,
            "lng": 127.0098
          }
        ],
        "restaurant": [
          {
            "name_en": "Ilsan Food Street",
            "spot_tag": "Local Eats",
            "description_en": "Local food street",
            "distance_km": 0.3,
            "lat": 37.658,
            "lng": 126.772
          },
          {
            "name_en": "La Festa Restaurants",
            "spot_tag": "Dining Hub",
            "description_en": "Restaurant complex",
            "distance_km": 0.4,
            "lat": 37.6575,
            "lng": 126.7705
          },
          {
            "name_en": "Western Dom Food Court",
            "spot_tag": "Food Court",
            "description_en": "Food court",
            "distance_km": 1.1,
            "lat": 37.663,
            "lng": 126.762
          }
        ],
        "cafe": [
          {
            "name_en": "La Festa Cafes",
            "spot_tag": "Trendy Cafe",
            "description_en": "Trendy cafes",
            "distance_km": 0.4,
            "lat": 37.6572,
            "lng": 126.771
          },
          {
            "name_en": "Ilsan Lake Park Cafe Street",
            "spot_tag": "Lake View",
            "description_en": "Scenic cafes",
            "distance_km": 1.2,
            "lat": 37.659,
            "lng": 126.76
          }
        ],
        "hotspot": [
          {
            "name_en": "Ilsan Lake Park",
            "spot_tag": "Must Visit",
            "description_en": "Beautiful lake park",
            "distance_km": 1.3,
            "lat": 37.658,
            "lng": 126.759
          },
          {
            "name_en": "One Mount",
            "spot_tag": "Entertainment",
            "description_en": "Theme park",
            "distance_km": 2.0,
            "lat": 37.665,
            "lng": 126.751
          },
          {
            "name_en": "Starfield Goyang",
            "spot_tag": "Shopping",
            "description_en": "Shopping mall",
            "distance_km": 10.8,
            "lat": 37.645,
            "lng": 126.895
          }
        ]
      },
      "map_detail": {
        "hotel": {
          "name_en": "명동 스튜디오 아파트먼트",
          "lat": 37.66022127225001,
          "lng": 126.77346835000742
        },
        "venue": {
          "name_en": "Goyang Stadium",
          "lat": 37.6556,
          "lng": 126.7714
        },
        "nearby_spots": [
          {
            "name_en": "Ilsan Food Street",
            "category": "restaurant",
            "spot_tag": "Local Eats",
            "lat": 37.658,
            "lng": 126.772,
            "distance_km": 0.3
          },
          {
            "name_en": "La Festa Restaurants",
            "category": "restaurant",
            "spot_tag": "Dining Hub",
            "lat": 37.6575,
            "lng": 126.7705,
            "distance_km": 0.4
          },
          {
            "name_en": "La Festa Cafes",
            "category": "cafe",
            "spot_tag": "Trendy Cafe",
            "lat": 37.6572,
            "lng": 126.771,
            "distance_km": 0.4
          },
          {
            "name_en": "Western Dom Food Court",
            "category": "restaurant",
            "spot_tag": "Food Court",
            "lat": 37.663,
            "lng": 126.762,
            "distance_km": 1.1
          },
          {
            "name_en": "Ilsan Lake Park Cafe Street",
            "category": "cafe",
            "spot_tag": "Lake View",
            "lat": 37.659,
            "lng": 126.76,
            "distance_km": 1.2
          }
        ]
      },
      "platform": {
        "name": "Booking.com",
        "booking_url": "https://www.booking.comhttps://www.booking.com/hotel/kr/spacious-studio-apt-myeong-dong.ko.html?aid=304142&label=mkt123sc-ddd82d6d-81a5-4b1c-88d7-07d8bc01e666&ucfs=1&arphpl=1&checkin=2026-06-11&checkout=2026-06-13&dest_id=-716583&dest_type=city&group_adults=2&req_adults=2&no_rooms=1&group_children=0&req_children=0&hpos=17&hapos=17&sr_order=price&srpvid=a279a48c9f590ef0ddedd1c1424f7801&srepoch=1769937995&all_sr_blocks=1157083801_388483711_2_0_0&highlighted_blocks=1157083801_388483711_2_0_0&matching_block_id=1157083801_388483711_2_0_0&sr_pri_blocks=1157083801_388483711_2_0_0__9327273&from=searchresults"
      },
      "booking_guide": {
        "steps_en": [
          "1. Search Goyang hotels",
          "2. Filter by 'Free Cancellation'",
          "3. Select room and enter info",
          "4. Pay online or at property",
          "5. Show confirmation at check-in"
        ],
        "tips_en": [
          "Genius membership for discounts",
          "Free cancellation options"
        ],
        "payment_methods": [
          "Credit Card",
          "Pay at Property"
        ],
        "foreigner_friendly": true
      },
      "last_update": "2026-02-01 09:26:40",
      "nearby": [
        {
          "id": "hotel_62495",
          "name_en": "온더웨이브하우스",
          "price_krw": 108,
          "distance_km": 0.1,
          "image_url": "https://cf.bstatic.com/xdata/images/hotel/square240/578126481.webp?k=16467a2db620b9d9f56687971491b61701d2160993fb8b2388d293f7cad72b16&o="
        },
        {
          "id": "hotel_56020",
          "name_en": "하운드호텔 포항송도해수욕장",
          "price_krw": 92,
          "distance_km": 0.2,
          "image_url": "https://cf.bstatic.com/xdata/images/hotel/square240/762877642.webp?k=fa2cf473d4e7a12c319a8abed96317b5c8cc18563ff94e8ff3cb83235d9d6cd8&o="
        },
        {
          "id": "hotel_40652",
          "name_en": "센터 오브 서울",
          "price_krw": 30,
          "distance_km": 0.2,
          "image_url": "https://cf.bstatic.com/xdata/images/hotel/square240/603263793.webp?k=6f50cf5439a6ba4c2cbeaf692c6c3b9a16a25c26e3e78c9d5534e0c9d54cdf18&o="
        }
      ]
    },
    {
      "id": "hotel_73460",
      "name_en": "포항 오도리펜션",
      "price_krw": 59,
      "rating": 0,
      "image_url": "https://cf.bstatic.com/xdata/images/hotel/square240/616787587.webp?k=d036ec8a958057e7b857e79128d3a74384c21695fb40c31bf9afb490a8ceb796&o=",
      "rooms_left": -1,
      "is_available": true,
      "hotel_type": {
        "label_en": "Hotel",
        "color": "#4A90D9"
      },
      "cancellation": {
        "type": "free",
        "label_en": "Free Cancellation",
        "label_kr": "무료 취소",
        "is_refundable": true
      },
      "tags": {
        "list_en": [
          "#FreeCancellation",
          "#ARMYPopular",
          "#WalkToVenue"
        ],
        "list_kr": [
          "#취소가능",
          "#아미인기",
          "#도보가능"
        ],
        "display_en": "#FreeCancellation #ARMYPopular #WalkToVenue",
        "display_kr": "#취소가능 #아미인기 #도보가능"
      },
      "lat": 37.656346434741266,
      "lng": 126.76443301190743,
      "location": {
        "area_en": "Paju",
        "area_kr": "파주",
        "address_en": "Paju, Gyeonggi-do",
        "address_kr": "경기도 파주"
      },
      "city_key": "paju",
      "army_density": {
        "value": 65,
        "level_en": "High",
        "level_kr": "높음",
        "label_en": "ARMY 65%",
        "label_kr": "아미 65%"
      },
      "distance": {
        "type": "walk",
        "display_en": "Walk 7min",
        "minutes": 7,
        "distance_km": 0.6
      },
      "transport": {
        "station_en": "Jeongbalsan",
        "line_en": "Line 3",
        "line_color": "#EF7C1C",
        "display_en": "Jeongbalsan (Line 3)"
      },
      "safe_return": {
        "venue_en": "Goyang Stadium",
        "route_en": "Walk from Goyang Stadium → Hotel",
        "transport": "walk",
        "time_min": 7,
        "last_train": "23:50",
        "taxi_krw": 0
      },
      "army_local_guide": {
        "bts": [
          {
            "name_en": "MBC Sangam",
            "spot_tag": "Music Show",
            "description_en": "Music show filming",
            "distance_km": 14.2,
            "lat": 37.5786,
            "lng": 126.8918
          },
          {
            "name_en": "Hongdae Busking Street",
            "spot_tag": "Trainee Memory",
            "description_en": "Pre-debut busking spot",
            "distance_km": 17.8,
            "lat": 37.5563,
            "lng": 126.922
          },
          {
            "name_en": "Gwangjang Market",
            "spot_tag": "Debut Memory",
            "description_en": "2013 debut location",
            "distance_km": 23.6,
            "lat": 37.57,
            "lng": 127.0098
          }
        ],
        "restaurant": [
          {
            "name_en": "La Festa Restaurants",
            "spot_tag": "Dining Hub",
            "description_en": "Restaurant complex",
            "distance_km": 0.5,
            "lat": 37.6575,
            "lng": 126.7705
          },
          {
            "name_en": "Ilsan Food Street",
            "spot_tag": "Local Eats",
            "description_en": "Local food street",
            "distance_km": 0.7,
            "lat": 37.658,
            "lng": 126.772
          },
          {
            "name_en": "Western Dom Food Court",
            "spot_tag": "Food Court",
            "description_en": "Food court",
            "distance_km": 0.8,
            "lat": 37.663,
            "lng": 126.762
          }
        ],
        "cafe": [
          {
            "name_en": "Ilsan Lake Park Cafe Street",
            "spot_tag": "Lake View",
            "description_en": "Scenic cafes",
            "distance_km": 0.5,
            "lat": 37.659,
            "lng": 126.76
          },
          {
            "name_en": "La Festa Cafes",
            "spot_tag": "Trendy Cafe",
            "description_en": "Trendy cafes",
            "distance_km": 0.6,
            "lat": 37.6572,
            "lng": 126.771
          }
        ],
        "hotspot": [
          {
            "name_en": "Ilsan Lake Park",
            "spot_tag": "Must Visit",
            "description_en": "Beautiful lake park",
            "distance_km": 0.5,
            "lat": 37.658,
            "lng": 126.759
          },