{
  "home": {
    "venue": {
      "name_en": "Goyang Stadium",
      "name_kr": "고양종합운동장",
      "lat": 37.6556,
      "lng": 126.7714
    },
    "available_count": 25,
    "total_count": 25,
    "lowest_price_krw": 16,
    "last_update": "2026-02-03 09:35:27"
  },
  "map": {
    "venue": {
      "name_en": "Goyang Stadium",
      "lat": 37.6556,
      "lng": 126.7714,
      "type": "venue"
    },
    "local_spots": [
      {
        "name_en": "HYBE INSIGHT",
        "category": "bts",
        "spot_tag": "BTS Museum",
        "lat": 37.526,
        "lng": 127.0405
      },
      {
        "name_en": "HYBE Headquarters",
        "category": "bts",
        "spot_tag": "BTS Home",
        "lat": 37.528,
        "lng": 127.04
      },
      {
        "name_en": "Hongdae Busking Street",
        "category": "bts",
        "spot_tag": "Trainee Memory",
        "lat": 37.5563,
        "lng": 126.922
      },
      {
        "name_en": "MBC Sangam",
        "category": "bts",
        "spot_tag": "Music Show",
        "lat": 37.5786,
        "lng": 126.8918
      },
      {
        "name_en": "Gwangjang Market",
        "category": "bts",
        "spot_tag": "Debut Memory",
        "lat": 37.57,
        "lng": 127.0098
      },
      {
        "name_en": "Ilsan Food Street",
        "category": "restaurant",
        "spot_tag": "Local Eats",
        "lat": 37.658,
        "lng": 126.772
      },
      {
        "name_en": "La Festa Restaurants",
        "category": "restaurant",
        "spot_tag": "Dining Hub",
        "lat": 37.6575,
        "lng": 126.7705
      },
      {
        "name_en": "Western Dom Food Court",
        "category": "restaurant",
        "spot_tag": "Food Court",
        "lat": 37.663,
        "lng": 126.762
      },
      {
        "name_en": "Ilsan Lake Park Cafe Street",
        "category": "cafe",
        "spot_tag": "Lake View",
        "lat": 37.659,
        "lng": 126.76
      },
      {
        "name_en": "La Festa Cafes",
        "category": "cafe",
        "spot_tag": "Trendy Cafe",
        "lat": 37.6572,
        "lng": 126.771
      },
      {
        "name_en": "Ilsan Lake Park",
        "category": "hotspot",
        "spot_tag": "Must Visit",
        "lat": 37.658,
        "lng": 126.759
      },
      {
        "name_en": "One Mount",
        "category": "hotspot",
        "spot_tag": "Entertainment",
        "lat": 37.665,
        "lng": 126.751
      },
      {
        "name_en": "Starfield Goyang",
        "category": "hotspot",
        "spot_tag": "Shopping",
        "lat": 37.645,
        "lng": 126.895
      }
    ],
    "hotels": [
      {
        "id": "hotel_79471",
        "name_en": "서울 게스트하우스 외국인 전용",
        "lat": 37.65834492242155,
        "lng": 126.76889924403726,
        "price_krw": 16
      },
      {
        "id": "hotel_93190",
        "name_en": "나비 모텔",
        "lat": 37.65388951977401,
        "lng": 126.76763145637142,
        "price_krw": 29
      },
      {
        "id": "hotel_22627",
        "name_en": "댓 하우스 홍대 게스트하우스",
        "lat": 37.657780272763446,
        "lng": 126.77551991286954,
        "price_krw": 33
      },
      {
        "id": "hotel_25252",
        "name_en": "Station Hostel In Namguro",
        "lat": 37.65065946057414,
        "lng": 126.77109967873967,
        "price_krw": 25
      },
      {
        "id": "hotel_91733",
        "name_en": "아마존 게스트하우스",
        "lat": 37.652536530242855,
        "lng": 126.77585727307698,
        "price_krw": 32
      },
      {
        "id": "hotel_34032",
        "name_en": "수정장 여관",
        "lat": 37.65456155149171,
        "lng": 126.77819995636914,
        "price_krw": 31
      },
      {
        "id": "hotel_71887",
        "name_en": "서울 달빛 동대문 게스트하우스",
        "lat": 37.65640374602772,
        "lng": 126.76490854858868,
        "price_krw": 33
      },
      {
        "id": "hotel_61768",
        "name_en": "서울앤호텔 동대문",
        "lat": 37.66116136476272,
        "lng": 126.77217686039147,
        "price_krw": 34
      },
      {
        "id": "hotel_28829",
        "name_en": "커플 모텔",
        "lat": 37.6575157928905,
        "lng": 126.76489394614097,
        "price_krw": 34
      },
      {
        "id": "hotel_35712",
        "name_en": "J2 Us#1",
        "lat": 37.65406818266528,
        "lng": 126.77958126230457,
        "price_krw": 26
      },
      {
        "id": "hotel_32302",
        "name_en": "호스텔 코리아 - 오리지널",
        "lat": 37.65125274781637,
        "lng": 126.77771349912148,
        "price_krw": 31
      },
      {
        "id": "hotel_67000",
        "name_en": "From H US Hotel with Anook Seoul Gangseo Hwagok",
        "lat": 37.64995617145223,
        "lng": 126.7671995280734,
        "price_krw": 31
      },
      {
        "id": "hotel_20673",
        "name_en": "루미에르h호텔",
        "lat": 37.65208991621442,
        "lng": 126.77743040267582,
        "price_krw": 33
      },
      {
        "id": "hotel_76665",
        "name_en": "호스텔 서울",
        "lat": 37.64929722619054,
        "lng": 126.7720697346568,
        "price_krw": 35
      },
      {
        "id": "hotel_31104",
        "name_en": "하우재 이태원",
        "lat": 37.65084108862837,
        "lng": 126.76514679775276,
        "price_krw": 32
      },
      {
        "id": "hotel_85702",
        "name_en": "스프링 라이트",
        "lat": 37.66355994009158,
        "lng": 126.77359608315975,
        "price_krw": 25
      },
      {
        "id": "hotel_39420",
        "name_en": "버즈네스트 호스텔 홍대 - 외국인 전용",
        "lat": 37.66466281293362,
        "lng": 126.77673727214902,
        "price_krw": 24
      },
      {
        "id": "hotel_75936",
        "name_en": "명동 스튜디오 아파트먼트",
        "lat": 37.66446401148928,
        "lng": 126.77737957196722,
        "price_krw": 32
      },
      {
        "id": "hotel_16379",
        "name_en": "해치 스테이 게스트하우스 - 외국인 전용",
        "lat": 37.648111456241736,
        "lng": 126.7641242483699,
        "price_krw": 34
      },
      {
        "id": "hotel_71449",
        "name_en": "Only for Woman - Sadang House 3rd floor",
        "lat": 37.66155514098853,
        "lng": 126.7616624480496,
        "price_krw": 35
      },
      {
        "id": "hotel_29530",
        "name_en": "1975 Yurim Inn",
        "lat": 37.64562279927289,
        "lng": 126.77709780169911,
        "price_krw": 23
      },
      {
        "id": "hotel_88374",
        "name_en": "이뜰이",
        "lat": 37.66371882304871,
        "lng": 126.76205043671551,
        "price_krw": 27
      },
      {
        "id": "hotel_33803",
        "name_en": "Jinho's Guest House",
        "lat": 37.646550540834745,
        "lng": 126.76354445755443,
        "price_krw": 31
      },
      {
        "id": "hotel_26261",
        "name_en": "킴스테이 9",
        "lat": 37.66374453330348,
        "lng": 126.76198299688063,
        "price_krw": 33
      },
      {
        "id": "hotel_12048",
        "name_en": "선라이즈 인",
        "lat": 37.66542119678531,
        "lng": 126.76309697931083,
        "price_krw": 35
      }
    ]
  },
  "hotels": [
    {
      "id": "hotel_79471",
      "name_en": "서울 게스트하우스 외국인 전용",
      "price_krw": 16,
      "rating": 5.05,
      "image_url": "https://cf.bstatic.com/xdata/images/hotel/square240/433494322.webp?k=0bd3a96524ab66f1c9de9750e3f3c19884e713ea2a044de30586672d5d71e4a8&o=",
      "rooms_left": -1,
      "is_available": true,
      "hotel_type": {
        "label_en": "Hotel",
        "color": "#4A90D9"
      },
      "cancellation": {
        "type": "free",
        "label_en": "Free Cancellation",
        "label_kr": "무료 취소",
        "is_refundable": true
      },
      "tags": {
        "list_en": [
          "#FreeCancellation",
          "#ARMYPopular",
          "#WalkToVenue"
        ],
        "list_kr": [
          "#취소가능",
          "#아미인기",
          "#도보가능"
        ],
        "display_en": "#FreeCancellation #ARMYPopular #WalkToVenue",
        "display_kr": "#취소가능 #아미인기 #도보가능"
      },
      "lat": 37.65834492242155,
      "lng": 126.76889924403726,
      "location": {
        "area_en": "Hongdae",
        "area_kr": "홍대",
        "address_en": "Hongdae, Seoul",
        "address_kr": "서울 홍대"
      },
      "city_key": "hongdae",
      "army_density": {
        "value": 65,
        "level_en": "High",
        "level_kr": "높음",
        "label_en": "ARMY 65%",
        "label_kr": "아미 65%"
      },
      "distance": {
        "type": "walk",
        "display_en": "Walk 4min",
        "minutes": 4,
        "distance_km": 0.4
      },
      "transport": {
        "station_en": "Jeongbalsan",
        "line_en": "Line 3",
        "line_color": "#EF7C1C",
        "display_en": "Jeongbalsan (Line 3)"
      },
      "safe_return": {
        "venue_en": "Goyang Stadium",
        "route_en": "Walk from Goyang Stadium → Hotel",
        "transport": "walk",
        "time_min": 4,
        "last_train": "23:50",
        "taxi_krw": 0
      },
      "army_local_guide": {
        "bts": [
          {
            "name_en": "MBC Sangam",
            "spot_tag": "Music Show",
            "description_en": "Music show filming",
            "distance_km": 14.0,
            "lat": 37.5786,
            "lng": 126.8918
          },
          {
            "name_en": "Hongdae Busking Street",
            "spot_tag": "Trainee Memory",
            "description_en": "Pre-debut busking spot",
            "distance_km": 17.6,
            "lat": 37.5563,
            "lng": 126.922
          },
          {
            "name_en": "Gwangjang Market",
            "spot_tag": "Debut Memory",
            "description_en": "2013 debut location",
            "distance_km": 23.4,
            "lat": 37.57,
            "lng": 127.0098
          }
        ],
        "restaurant": [
          {
            "name_en": "La Festa Restaurants",
            "spot_tag": "Dining Hub",
            "description_en": "Restaurant complex",
            "distance_km": 0.2,
            "lat": 37.6575,
            "lng": 126.7705
          },
          {
            "name_en": "Ilsan Food Street",
            "spot_tag": "Local Eats",
            "description_en": "Local food street",
            "distance_km": 0.3,
            "lat": 37.658,
            "lng": 126.772
          },
          {
            "name_en": "Western Dom Food Court",
            "spot_tag": "Food Court",
            "description_en": "Food court",
            "distance_km": 0.8,
            "lat": 37.663,
            "lng": 126.762
          }
        ],
        "cafe": [
          {
            "name_en": "La Festa Cafes",
            "spot_tag": "Trendy Cafe",
            "description_en": "Trendy cafes",
            "distance_km": 0.2,
            "lat": 37.6572,
            "lng": 126.771
          },
          {
            "name_en": "Ilsan Lake Park Cafe Street",
            "spot_tag": "Lake View",
            "description_en": "Scenic cafes",
            "distance_km": 0.8,
            "lat": 37.659,
            "lng": 126.76
          }
        ],
        "hotspot": [
          {
            "name_en": "Ilsan Lake Park",
            "spot_tag": "Must Visit",
            "description_en": "Beautiful lake park",
            "distance_km": 0.9,
            "lat": 37.658,
            "lng": 126.759
          },
          {
            "name_en": "One Mount",
            "spot_tag": "Entertainment",
            "description_en": "Theme park",
            "distance_km": 1.7,
            "lat": 37.665,
            "lng": 126.751
          },
          {
            "name_en": "Starfield Goyang",
            "spot_tag": "Shopping",
            "description_en": "Shopping mall",
            "distance_km": 11.2,
            "lat": 37.645,
            "lng": 126.895
          }
        ]
      },
      "map_detail": {
        "hotel": {
          "name_en": "서울 게스트하우스 외국인 전용",
          "lat": 37.65834492242155,
          "lng": 126.76889924403726
        },
        "venue": {
          "name_en": "Goyang Stadium",
          "lat": 37.6556,
          "lng": 126.7714
        },
        "nearby_spots": [
          {
            "name_en": "La Festa Restaurants",
            "category": "restaurant",
            "spot_tag": "Dining Hub",
            "lat": 37.6575,
            "lng": 126.7705,
            "distance_km": 0.2
          },
          {
            "name_en": "La Festa Cafes",
            "category": "cafe",
            "spot_tag": "Trendy Cafe",
            "lat": 37.6572,
            "lng": 126.771,
            "distance_km": 0.2
          },
          {
            "name_en": "Ilsan Food Street",
            "category": "restaurant",
            "spot_tag": "Local Eats",
            "lat": 37.658,
            "lng": 126.772,
            "distance_km": 0.3
          },
          {
            "name_en": "Western Dom Food Court",
            "category": "restaurant",
            "spot_tag": "Food Court",
            "lat": 37.663,
            "lng": 126.762,
            "distance_km": 0.8
          },
          {
            "name_en": "Ilsan Lake Park Cafe Street",
            "category": "cafe",
            "spot_tag": "Lake View",
            "lat": 37.659,
            "lng": 126.76,
            "distance_km": 0.8
          }
        ]
      },
      "platform": {
        "name": "Booking.com",
        "booking_url": "https://www.booking.comhttps://www.booking.com/hotel/kr/seoul-guesthouse.ko.html?aid=304142&label=mkt123sc-bdd20f8a-7c44-4913-ac68-156f1cc4f5bc&ucfs=1&arphpl=1&checkin=2026-06-11&checkout=2026-06-13&dest_id=-716583&dest_type=city&group_adults=2&req_adults=2&no_rooms=1&group_children=0&req_children=0&hpos=1&hapos=1&sr_order=price&srpvid=91e6d9a692d3aa270258ba029c021a19&srepoch=1770111323&all_sr_blocks=968622702_369287732_1_0_0%2C968622702_369287732_1_0_0&highlighted_blocks=968622702_369287732_1_0_0%2C968622702_369287732_1_0_0&matching_block_id=968622702_369287732_1_0_0&sr_pri_blocks=968622702_369287732_1_0_0__2363636%2C968622702_369287732_1_0_0__2363636&from=searchresults"
      },
      "booking_guide": {
        "steps_en": [
          "1. Search Goyang hotels",
          "2. Filter by 'Free Cancellation'",
          "3. Select room and enter info",
          "4. Pay online or at property",
          "5. Show confirmation at check-in"
        ],
        "tips_en": [
          "Genius membership for discounts",
          "Free cancellation options"
        ],
        "payment_methods": [
          "Credit Card",
          "Pay at Property"
        ],
        "foreigner_friendly": true
      },
      "last_update": "2026-02-03 09:35:27",
      "nearby": [
        {
          "id": "hotel_71887",
          "name_en": "서울 달빛 동대문 게스트하우스",
          "price_krw": 33,
          "distance_km": 0.4,
          "image_url": "https://cf.bstatic.com/xdata/images/hotel/square240/60558901.webp?k=341cf6cd0494c088362804a26c07b2e57616de64bbea974a8aa18d18583bf8ab&o="
        },
        {
          "id": "hotel_61768",
          "name_en": "서울앤호텔 동대문",
          "price_krw": 34,
          "distance_km": 0.4,
          "image_url": "https://cf.bstatic.com/xdata/images/hotel/square240/103588071.webp?k=70e14c2e8e5c64d9b13040cbf891d408d498ab54ab0f3e5e23596c3ae374c8f7&o="
        },
        {
          "id": "hotel_28829",
          "name_en": "커플 모텔",
          "price_krw": 34,
          "distance_km": 0.4,
          "image_url": "https://cf.bstatic.com/xdata/images/hotel/square240/378118152.webp?k=65bcd6e2cba02f6f521245d6ed2e49475333030834f372f682acbbac861f2d6b&o="
        }
      ]
    },
    {
      "id": "hotel_93190",
      "name_en": "나비 모텔",
      "price_krw": 29,
      "rating": 7.97,
      "image_url": "https://cf.bstatic.com/xdata/images/hotel/square240/742412160.webp?k=63250a68ba8b666002c2532891aebefe0b4bdab4114f6db63d5e0fb33129312e&o=",
      "rooms_left": -1,
      "is_available": true,
      "hotel_type": {
        "label_en": "Hotel",
        "color": "#4A90D9"
      },
      "cancellation": {
        "type": "free",
        "label_en": "Free Cancellation",
        "label_kr": "무료 취소",
        "is_refundable": true
      },
      "tags": {
        "list_en": [
          "#FreeCancellation",
          "#ARMYPopular",
          "#WalkToVenue"
        ],
        "list_kr": [
          "#취소가능",
          "#아미인기",
          "#도보가능"
        ],
        "display_en": "#FreeCancellation #ARMYPopular #WalkToVenue",
        "display_kr": "#취소가능 #아미인기 #도보가능"
      },
      "lat": 37.65388951977401,
      "lng": 126.76763145637142,
      "location": {
        "area_en": "Hongdae",
        "area_kr": "홍대",
        "address_en": "Hongdae, Seoul",
        "address_kr": "서울 홍대"
      },
      "city_key": "hongdae",
      "army_density": {
        "value": 65,
        "level_en": "High",
        "level_kr": "높음",
        "label_en": "ARMY 65%",
        "label_kr": "아미 65%"
      },
      "distance": {
        "type": "walk",
        "display_en": "Walk 4min",
        "minutes": 4,
        "distance_km": 0.4
      },
      "transport": {
        "station_en": "Jeongbalsan",
        "line_en": "Line 3",
        "line_color": "#EF7C1C",
        "display_en": "Jeongbalsan (Line 3)"
      },
      "safe_return": {
        "venue_en": "Goyang Stadium",
        "route_en": "Walk from Goyang Stadium → Hotel",
        "transport": "walk",
        "time_min": 4,
        "last_train": "23:50",
        "taxi_krw": 0
      },
      "army_local_guide": {
        "bts": [
          {
            "name_en": "MBC Sangam",
            "spot_tag": "Music Show",
            "description_en": "Music show filming",
            "distance_km": 13.8,
            "lat": 37.5786,
            "lng": 126.8918
          },
          {
            "name_en": "Hongdae Busking Street",
            "spot_tag": "Trainee Memory",
            "description_en": "Pre-debut busking spot",
            "distance_km": 17.4,
            "lat": 37.5563,
            "lng": 126.922
          },
          {
            "name_en": "Gwangjang Market",
            "spot_tag": "Debut Memory",
            "description_en": "2013 debut location",
            "distance_km": 23.3,
            "lat": 37.57,
            "lng": 127.0098
          }
        ],
        "restaurant": [
          {
            "name_en": "La Festa Restaurants",
            "spot_tag": "Dining Hub",
            "description_en": "Restaurant complex",
            "distance_km": 0.5,
            "lat": 37.6575,
            "lng": 126.7705
          },
          {
            "name_en": "Ilsan Food Street",
            "spot_tag": "Local Eats",
            "description_en": "Local food street",
            "distance_km": 0.6,
            "lat": 37.658,
            "lng": 126.772
          },
          {
            "name_en": "Western Dom Food Court",
            "spot_tag": "Food Court",
            "description_en": "Food court",
            "distance_km": 1.1,
            "lat": 37.663,
            "lng": 126.762
          }
        ],
        "cafe": [
          {
            "name_en": "La Festa Cafes",
            "spot_tag": "Trendy Cafe",
            "description_en": "Trendy cafes",
            "distance_km": 0.5,
            "lat": 37.6572,
            "lng": 126.771
          },
          {
            "name_en": "Ilsan Lake Park Cafe Street",
            "spot_tag": "Lake View",
            "description_en": "Scenic cafes",
            "distance_km": 0.9,
            "lat": 37.659,
            "lng": 126.76
          }
        ],
        "hotspot": [
          {
            "name_en": "Ilsan Lake Park",
            "spot_tag": "Must Visit",
            "description_en": "Beautiful lake park",
            "distance_km": 0.9,
            "lat": 37.658,
            "lng": 126.759
          },
          {
            "name_en": "One Mount",
            "spot_tag": "Entertainment",
            "description_en": "Theme park",
            "distance_km": 1.9,
            "lat": 37.665,
            "lng": 126.751
          },
          {
            "name_en": "Starfield Goyang",
            "spot_tag": "Shopping",
            "description_en": "Shopping mall",
            "distance_km": 11.3,
            "lat": 37.645,
            "lng": 126.895
          }
        ]
      },
      "map_detail": {
        "hotel": {
          "name_en": "나비 모텔",
          "lat": 37.65388951977401,
          "lng": 126.76763145637142
        },
        "venue": {
          "name_en": "Goyang Stadium",
          "lat": 37.6556,
          "lng": 126.7714
        },
        "nearby_spots": [
          {
            "name_en": "La Festa Restaurants",
            "category": "restaurant",
            "spot_tag": "Dining Hub",
            "lat": 37.6575,
            "lng": 126.7705,
            "distance_km": 0.5
          },
          {
            "name_en": "La Festa Cafes",
            "category": "cafe",
            "spot_tag": "Trendy Cafe",
            "lat": 37.6572,
            "lng": 126.771,
            "distance_km": 0.5
          },
          {
            "name_en": "Ilsan Food Street",
            "category": "restaurant",
            "spot_tag": "Local Eats",
            "lat": 37.658,
            "lng": 126.772,
            "distance_km": 0.6
          },
          {
            "name_en": "Ilsan Lake Park Cafe Street",
            "category": "cafe",
            "spot_tag": "Lake View",
            "lat": 37.659,
            "lng": 126.76,
            "distance_km": 0.9
          },
          {
            "name_en": "Ilsan Lake Park",
            "category": "hotspot",
            "spot_tag": "Must Visit",
            "lat": 37.658,
            "lng": 126.759,
            "distance_km": 0.9
          }
        ]
      },
      "platform": {
        "name": "Booking.com",
        "booking_url": "https://www.booking.comhttps://www.booking.com/hotel/kr/navi.ko.html?aid=304142&label=mkt123sc-bdd20f8a-7c44-4913-ac68-156f1cc4f5bc&ucfs=1&arphpl=1&checkin=2026-06-11&checkout=2026-06-13&dest_id=-716583&dest_type=city&group_adults=2&req_adults=2&no_rooms=1&group_children=0&req_children=0&hpos=7&hapos=7&sr_order=price&srpvid=91e6d9a692d3aa270258ba029c021a19&srepoch=1770111323&all_sr_blocks=1489147801_420567604_2_0_0&highlighted_blocks=1489147801_420567604_2_0_0&matching_block_id=1489147801_420567604_2_0_0&sr_pri_blocks=1489147801_420567604_2_0_0__8590909&from=searchresults"
      },
      "booking_guide": {
        "steps_en": [
          "1. Search Goyang hotels",
          "2. Filter by 'Free Cancellation'",
          "3. Select room and enter info",
          "4. Pay online or at property",
          "5. Show confirmation at check-in"
        ],
        "tips_en": [
          "Genius membership for discounts",
          "Free cancellation options"
        ],
        "payment_methods": [
          "Credit Card",
          "Pay at Property"
        ],
        "foreigner_friendly": true
      },
      "last_update": "2026-02-03 09:35:27",
      "nearby": [
        {
          "id": "hotel_67000",
          "name_en": "From H US Hotel with Anook Seoul Gangseo Hwagok",
          "price_krw": 31,
          "distance_km": 0.4,
          "image_url": "https://cf.bstatic.com/xdata/images/hotel/square240/693138885.webp?k=67dae519fe5cf81b48616ab53ed9f427c5e5829679d8b00a3a756c981f6fe4fb&o="
        },
        {
          "id": "hotel_31104",
          "name_en": "하우재 이태원",
          "price_krw": 32,
          "distance_km": 0.4,
          "image_url": "https://cf.bstatic.com/xdata/images/hotel/square240/186139806.webp?k=ecff2c5195af1f03a79ce7bb93f4a183a270700f0a995f19820d276a1d85cde2&o="
        },
        {
          "id": "hotel_71887",
          "name_en": "서울 달빛 동대문 게스트하우스",
          "price_krw": 33,
          "distance_km": 0.4,
          "image_url": "https://cf.bstatic.com/xdata/images/hotel/square240/60558901.webp?k=341cf6cd0494c088362804a26c07b2e57616de64bbea974a8aa18d18583bf8ab&o="
        }
      ]
    },
    {
      "id": "hotel_22627",
      "name_en": "댓 하우스 홍대 게스트하우스",
      "price_krw": 33,
      "rating": 7.47,
      "image_url": "https://cf.bstatic.com/xdata/images/hotel/square240/61802936.webp?k=d69c6742d66a81c8d169fce434c380d6b1ab7fa073035c0c923cbbe9d36d5a12&o=",
      "rooms_left": -1,
      "is_available": true,
      "hotel_type": {
        "label_en": "Hotel",
        "color": "#4A90D9"
      },
      "cancellation": {
        "type": "free",
        "label_en": "Free Cancellation",
        "label_kr": "무료 취소",
        "is_refundable": true
      },
      "tags": {
        "list_en": [
          "#FreeCancellation",
          "#ARMYPopular",
          "#WalkToVenue"
        ],
        "list_kr": [
          "#취소가능",
          "#아미인기",
          "#도보가능"
        ],
        "display_en": "#FreeCancellation #ARMYPopular #WalkToVenue",
        "display_kr": "#취소가능 #아미인기 #도보가능"
      },
      "lat": 37.657780272763446,
      "lng": 126.77551991286954,
      "location": {
        "area_en": "Hongdae",
        "area_kr": "홍대",
        "address_en": "Hongdae, Seoul",
        "address_kr": "서울 홍대"
      },
      "city_key": "hongdae",
      "army_density": {
        "value": 65,
        "level_en": "High",
        "level_kr": "높음",
        "label_en": "ARMY 65%",
        "label_kr": "아미 65%"
      },
      "distance": {
        "type": "walk",
        "display_en": "Walk 5min",
        "minutes": 5,
        "distance_km": 0.4
      },
      "transport": {
        "station_en": "Jeongbalsan",
        "line_en": "Line 3",
        "line_color": "#EF7C1C",
        "display_en": "Jeongbalsan (Line 3)"
      },
      "safe_return": {
        "venue_en": "Goyang Stadium",
        "route_en": "Walk from Goyang Stadium → Hotel",
        "transport": "walk",
        "time_min": 5,
        "last_train": "23:50",
        "taxi_krw": 0
      },
      "army_local_guide": {
        "bts": [
          {
            "name_en": "MBC Sangam",
            "spot_tag": "Music Show",
            "description_en": "Music show filming",
            "distance_km": 13.5,
            "lat": 37.5786,
            "lng": 126.8918
          },
          {
            "name_en": "Hongdae Busking Street",
            "spot_tag": "Trainee Memory",
            "description_en": "Pre-debut busking spot",
            "distance_km": 17.1,
            "lat": 37.5563,
            "lng": 126.922
          },
          {
            "name_en": "Gwangjang Market",
            "spot_tag": "Debut Memory",
            "description_en": "2013 debut location",
            "distance_km": 22.8,
            "lat": 37.57,
            "lng": 127.0098
          }
        ],
        "restaurant": [
          {
            "name_en": "Ilsan Food Street",
            "spot_tag": "Local Eats",
            "description_en": "Local food street",
            "distance_km": 0.3,
            "lat": 37.658,
            "lng": 126.772
          },
          {
            "name_en": "La Festa Restaurants",
            "spot_tag": "Dining Hub",
            "description_en": "Restaurant complex",
            "distance_km": 0.4,
            "lat": 37.6575,
            "lng": 126.7705
          },
          {
            "name_en": "Western Dom Food Court",
            "spot_tag": "Food Court",
            "description_en": "Food court",
            "distance_km": 1.3,
            "lat": 37.663,
            "lng": 126.762
          }
        ],
        "cafe": [
          {
            "name_en": "La Festa Cafes",
            "spot_tag": "Trendy Cafe",
            "description_en": "Trendy cafes",
            "distance_km": 0.4,
            "lat": 37.6572,
            "lng": 126.771
          },
          {
            "name_en": "Ilsan Lake Park Cafe Street",
            "spot_tag": "Lake View",
            "description_en": "Scenic cafes",
            "distance_km": 1.4,
            "lat": 37.659,
            "lng": 126.76
          }
        ],
        "hotspot": [
          {
            "name_en": "Ilsan Lake Park",
            "spot_tag": "Must Visit",
            "description_en": "Beautiful lake park",
            "distance_km": 1.5,
            "lat": 37.658,
            "lng": 126.759
          },
          {
            "name_en": "One Mount",
            "spot_tag": "Entertainment",
            "description_en": "Theme park",
            "distance_km": 2.3,
            "lat": 37.665,
            "lng": 126.751
          },
          {
            "name_en": "Starfield Goyang",
            "spot_tag": "Shopping",
            "description_en": "Shopping mall",
            "distance_km": 10.6,
            "lat": 37.645,
            "lng": 126.895
          }
        ]
      },
      "map_detail": {
        "hotel": {
          "name_en": "댓 하우스 홍대 게스트하우스",
          "lat": 37.657780272763446,
          "lng": 126.77551991286954
        },
        "venue": {
          "name_en": "Goyang Stadium",
          "lat": 37.6556,
          "lng": 126.7714
        },
        "nearby_spots": [
          {
            "name_en": "Ilsan Food Street",
            "category": "restaurant",
            "spot_tag": "Local Eats",
            "lat": 37.658,
            "lng": 126.772,
            "distance_km": 0.3
          },
          {
            "name_en": "La Festa Restaurants",
            "category": "restaurant",
            "spot_tag": "Dining Hub",
            "lat": 37.6575,
            "lng": 126.7705,
            "distance_km": 0.4
          },
          {
            "name_en": "La Festa Cafes",
            "category": "cafe",
            "spot_tag": "Trendy Cafe",
            "lat": 37.6572,
            "lng": 126.771,
            "distance_km": 0.4
          },
          {
            "name_en": "Western Dom Food Court",
            "category": "restaurant",
            "spot_tag": "Food Court",
            "lat": 37.663,
            "lng": 126.762,
            "distance_km": 1.3
          },
          {
            "name_en": "Ilsan Lake Park Cafe Street",
            "category": "cafe",
            "spot_tag": "Lake View",
            "lat": 37.659,
            "lng": 126.76,
            "distance_km": 1.4
          }
        ]
      },
      "platform": {
        "name": "Booking.com",
        "booking_url": "https://www.booking.comhttps://www.booking.com/hotel/kr/that-house.ko.html?aid=304142&label=mkt123sc-bdd20f8a-7c44-4913-ac68-156f1cc4f5bc&ucfs=1&arphpl=1&checkin=2026-06-11&checkout=2026-06-13&dest_id=-716583&dest_type=city&group_adults=2&req_adults=2&no_rooms=1&group_children=0&req_children=0&hpos=17&hapos=17&sr_order=price&srpvid=91e6d9a692d3aa270258ba029c021a19&srepoch=1770111323&all_sr_blocks=166732206_128134293_0_0_0%2C166732201_128134293_0_0_0&highlighted_blocks=166732206_128134293_0_0_0%2C166732201_128134293_0_0_0&matching_block_id=166732206_128134293_0_0_0&sr_pri_blocks=166732206_128134293_0_0_0__4818182%2C166732201_128134293_0_0_0__4818182&from=searchresults"
      },
      "booking_guide": {
        "steps_en": [
          "1. Search Goyang hotels",
          "2. Filter by 'Free Cancellation'",
          "3. Select room and enter info",
          "4. Pay online or at property",
          "5. Show confirmation at check-in"
        ],
        "tips_en": [
          "Genius membership for discounts",
          "Free cancellation options"
        ],
        "payment_methods": [
          "Credit Card",
          "Pay at Property"
        ],
        "foreigner_friendly": true
      },
      "last_update": "2026-02-03 09:35:27",
      "nearby": [
        {
          "id": "hotel_34032",
          "name_en": "수정장 여관",
          "price_krw": 31,
          "distance_km": 0.4,
          "image_url": "https://cf.bstatic.com/xdata/images/hotel/square240/576487838.webp?k=a67fcc63fed9e1c41ef7aa8644d2164321e9f7f6fd5683d18bc0f470c953537a&o="
        },
        {
          "id": "hotel_35712",
          "name_en": "J2 Us#1",
          "price_krw": 26,
          "distance_km": 0.5,
          "image_url": "https://cf.bstatic.com/xdata/images/hotel/square240/816706261.webp?k=7757757d41fa086e07cea3037beb0013f5f00d6af21059eff4a7323af0a1f3ed&o="
        },
        {
          "id": "hotel_61768",
          "name_en": "서울앤호텔 동대문",
          "price_krw": 34,
          "distance_km": 0.5,
          "image_url": "https://cf.bstatic.com/xdata/images/hotel/square240/103588071.webp?k=70e14c2e8e5c64d9b13040cbf891d408d498ab54ab0f3e5e23596c3ae374c8f7&o="
        }
      ]
    },
    {
      "id": "hotel_25252",
      "name_en": "Station Hostel In Namguro",
      "price_krw": 25,
      "rating": 5.75,
      "image_url": "https://cf.bstatic.com/xdata/images/hotel/square240/717301239.webp?k=f1e1c25285eb10e7da6e6ad0c8342c1ee07e2e950c4fee7b014955f5035f1d2c&o=",
      "rooms_left": -1,
      "is_available": true,
      "hotel_type": {
        "label_en": "Hotel",
        "color": "#4A90D9"
      },
      "cancellation": {
        "type": "free",
        "label_en": "Free Cancellation",
        "label_kr": "무료 취소",
        "is_refundable": true
      },
      "tags": {
        "list_en": [
          "#FreeCancellation",
          "#ARMYPopular",
          "#WalkToVenue"
        ],
        "list_kr": [
          "#취소가능",
          "#아미인기",
          "#도보가능"
        ],
        "display_en": "#FreeCancellation #ARMYPopular #WalkToVenue",
        "display_kr": "#취소가능 #아미인기 #도보가능"
      },
      "lat": 37.65065946057414,
      "lng": 126.77109967873967,
      "location": {
        "area_en": "Hongdae",
        "area_kr": "홍대",
        "address_en": "Hongdae, Seoul",
        "address_kr": "서울 홍대"
      },
      "city_key": "hongdae",
      "army_density": {
        "value": 65,
        "level_en": "High",
        "level_kr": "높음",
        "label_en": "ARMY 65%",
        "label_kr": "아미 65%"
      },
      "distance": {
        "type": "walk",
        "display_en": "Walk 6min",
        "minutes": 6,
        "distance_km": 0.5
      },
      "transport": {
        "station_en": "Jeongbalsan",
        "line_en": "Line 3",
        "line_color": "#EF7C1C",
        "display_en": "Jeongbalsan (Line 3)"
      },
      "safe_return": {
        "venue_en": "Goyang Stadium",
        "route_en": "Walk from Goyang Stadium → Hotel",
        "transport": "walk",
        "time_min": 6,
        "last_train": "23:50",
        "taxi_krw": 0
      },
      "army_local_guide": {
        "bts": [
          {
            "name_en": "MBC Sangam",
            "spot_tag": "Music Show",
            "description_en": "Music show filming",
            "distance_km": 13.3,
            "lat": 37.5786,
            "lng": 126.8918
          },
          {
            "name_en": "Hongdae Busking Street",
            "spot_tag": "Trainee Memory",
            "description_en": "Pre-debut busking spot",
            "distance_km": 16.9,
            "lat": 37.5563,
            "lng": 126.922
          },
          {
            "name_en": "Gwangjang Market",
            "spot_tag": "Debut Memory",
            "description_en": "2013 debut location",
            "distance_km": 22.9,
            "lat": 37.57,
            "lng": 127.0098
          }
        ],
        "restaurant": [
          {
            "name_en": "Ilsan Food Street",
            "spot_tag": "Local Eats",
            "description_en": "Local food street",
            "distance_km": 0.8,
            "lat": 37.658,
            "lng": 126.772
          },
          {
            "name_en": "La Festa Restaurants",
            "spot_tag": "Dining Hub",
            "description_en": "Restaurant complex",
            "distance_km": 0.8,
            "lat": 37.6575,
            "lng": 126.7705
          },
          {
            "name_en": "Western Dom Food Court",
            "spot_tag": "Food Court",
            "description_en": "Food court",
            "distance_km": 1.6,
            "lat": 37.663,
            "lng": 126.762
          }
        ],
        "cafe": [
          {
            "name_en": "La Festa Cafes",
            "spot_tag": "Trendy Cafe",
            "description_en": "Trendy cafes",
            "distance_km": 0.7,
            "lat": 37.6572,
            "lng": 126.771
          },
          {
            "name_en": "Ilsan Lake Park Cafe Street",
            "spot_tag": "Lake View",
            "description_en": "Scenic cafes",
            "distance_km": 1.3,
            "lat": 37.659,
            "lng": 126.76
          }
        ],
        "hotspot": [
          {
            "name_en": "Ilsan Lake Park",
            "spot_tag": "Must Visit",
            "description_en": "Beautiful lake park",
            "distance_km": 1.3,
            "lat": 37.658,
            "lng": 126.759
          },
          {
            "name_en": "One Mount",
            "spot_tag": "Entertainment",
            "description_en": "Theme park",
            "distance_km": 2.4,
            "lat": 37.665,
            "lng": 126.751
          },
          {
            "name_en": "Starfield Goyang",
            "spot_tag": "Shopping",
            "description_en": "Shopping mall",
            "distance_km": 10.9,
            "lat": 37.645,
            "lng": 126.895
          }
        ]
      },
      "map_detail": {
        "hotel": {
          "name_en": "Station Hostel In Namguro",
          "lat": 37.65065946057414,
          "lng": 126.77109967873967
        },
        "venue": {
          "name_en": "Goyang Stadium",
          "lat": 37.6556,
          "lng": 126.7714
        },
        "nearby_spots": [
          {
            "name_en": "La Festa Cafes",
            "category": "cafe",
            "spot_tag": "Trendy Cafe",
            "lat": 37.6572,
            "lng": 126.771,
            "distance_km": 0.7
          },
          {
            "name_en": "Ilsan Food Street",
            "category": "restaurant",
            "spot_tag": "Local Eats",
            "lat": 37.658,
            "lng": 126.772,
            "distance_km": 0.8
          },
          {
            "name_en": "La Festa Restaurants",
            "category": "restaurant",
            "spot_tag": "Dining Hub",
            "lat": 37.6575,
            "lng": 126.7705,
            "distance_km": 0.8
          },
          {
            "name_en": "Ilsan Lake Park Cafe Street",
            "category": "cafe",
            "spot_tag": "Lake View",
            "lat": 37.659,
            "lng": 126.76,
            "distance_km": 1.3
          },
          {
            "name_en": "Ilsan Lake Park",
            "category": "hotspot",
            "spot_tag": "Must Visit",
            "lat": 37.658,
            "lng": 126.759,
            "distance_km": 1.3
          }
        ]
      },
      "platform": {
        "name": "Booking.com",
        "booking_url": "https://www.booking.comhttps://www.booking.com/hotel/kr/seoul-namguroyeog-1bun-paemilrirum-101ho.ko.html?aid=304142&label=mkt123sc-bdd20f8a-7c44-4913-ac68-156f1cc4f5bc&ucfs=1&arphpl=1&checkin=2026-06-11&checkout=2026-06-13&dest_id=-716583&dest_type=city&group_adults=2&req_adults=2&no_rooms=1&group_children=0&req_children=0&hpos=4&hapos=4&sr_order=price&srpvid=91e6d9a692d3aa270258ba029c021a19&srepoch=1770111323&all_sr_blocks=1461239001_417420081_2_0_0&highlighted_blocks=1461239001_417420081_2_0_0&matching_block_id=1461239001_417420081_2_0_0&sr_pri_blocks=1461239001_417420081_2_0_0__7363636&from=searchresults"
      },
      "booking_guide": {
        "steps_en": [
          "1. Search Goyang hotels",
          "2. Filter by 'Free Cancellation'",
          "3. Select room and enter info",
          "4. Pay online or at property",
          "5. Show confirmation at check-in"
        ],
        "tips_en": [
          "Genius membership for discounts",
          "Free cancellation options"
        ],
        "payment_methods": [
          "Credit Card",
          "Pay at Property"
        ],
        "foreigner_friendly": true
      },
      "last_update": "2026-02-03 09:35:27",
      "nearby": [
        {
          "id": "hotel_76665",
          "name_en": "호스텔 서울",
          "price_krw": 35,
          "distance_km": 0.2,
          "image_url": "https://cf.bstatic.com/xdata/images/hotel/square240/337419903.webp?k=168426d79b393f29905e957746c0e5b81e6dbeb14c91d91bea3f7a19a126c583&o="
        },
        {
          "id": "hotel_67000",
          "name_en": "From H US Hotel with Anook Seoul Gangseo Hwagok",
          "price_krw": 31,
          "distance_km": 0.4,
          "image_url": "https://cf.bstatic.com/xdata/images/hotel/square240/693138885.webp?k=67dae519fe5cf81b48616ab53ed9f427c5e5829679d8b00a3a756c981f6fe4fb&o="
        },
        {
          "id": "hotel_93190",
          "name_en": "나비 모텔",
          "price_krw": 29,
          "distance_km": 0.5,
          "image_url": "https://cf.bstatic.com/xdata/images/hotel/square240/742412160.webp?k=63250a68ba8b666002c2532891aebefe0b4bdab4114f6db63d5e0fb33129312e&o="
        }
      ]
    },
    {
      "id": "hotel_91733",
      "name_en": "아마존 게스트하우스",
      "price_krw": 32,
      "rating": 8.08,
      "image_url": "https://cf.bstatic.com/xdata/images/hotel/square240/204809971.webp?k=2076895c90fbe62ff827488d80e3c0ed366c172052bce07cf491528f6f2577b3&o=",
      "rooms_left": -1,
      "is_available": true,
      "hotel_type": {
        "label_en": "Hotel",
        "color": "#4A90D9"
      },
      "cancellation": {
        "type": "free",
        "label_en": "Free Cancellation",
        "label_kr": "무료 취소",
        "is_refundable": true
      },
      "tags": {
        "list_en": [
          "#FreeCancellation",
          "#ARMYPopular",
          "#WalkToVenue"
        ],
        "list_kr": [
          "#취소가능",
          "#아미인기",
          "#도보가능"
        ],
        "display_en": "#FreeCancellation #ARMYPopular #WalkToVenue",
        "display_kr": "#취소가능 #아미인기 #도보가능"
      },
      "lat": 37.652536530242855,
      "lng": 126.77585727307698,
      "location": {
        "area_en": "Hongdae",
        "area_kr": "홍대",
        "address_en": "Hongdae, Seoul",
        "address_kr": "서울 홍대"
      },
      "city_key": "hongdae",
      "army_density": {
        "value": 65,
        "level_en": "High",
        "level_kr": "높음",
        "label_en": "ARMY 65%",
        "label_kr": "아미 65%"
      },
      "distance": {
        "type": "walk",
        "display_en": "Walk 6min",
        "minutes": 6,
        "distance_km": 0.5
      },
      "transport": {
        "station_en": "Jeongbalsan",
        "line_en": "Line 3",
        "line_color": "#EF7C1C",
        "display_en": "Jeongbalsan (Line 3)"
      },
      "safe_return": {
        "venue_en": "Goyang Stadium",
        "route_en": "Walk from Goyang Stadium → Hotel",
        "transport": "walk",
        "time_min": 6,
        "last_train": "23:50",
        "taxi_krw": 0
      },
      "army_local_guide": {
        "bts": [
          {
            "name_en": "MBC Sangam",
            "spot_tag": "Music Show",
            "description_en": "Music show filming",
            "distance_km": 13.1,
            "lat": 37.5786,
            "lng": 126.8918
          },
          {
            "name_en": "Hongdae Busking Street",
            "spot_tag": "Trainee Memory",
            "description_en": "Pre-debut busking spot",
            "distance_km": 16.7,
            "lat": 37.5563,
            "lng": 126.922
          },
          {
            "name_en": "Gwangjang Market",
            "spot_tag": "Debut Memory",
            "description_en": "2013 debut location",
            "distance_km": 22.6,
            "lat": 37.57,
            "lng": 127.0098
          }
        ],
        "restaurant": [
          {
            "name_en": "Ilsan Food Street",
            "spot_tag": "Local Eats",
            "description_en": "Local food street",
            "distance_km": 0.7,
            "lat": 37.658,
            "lng": 126.772
          },
          {
            "name_en": "La Festa Restaurants",
            "spot_tag": "Dining Hub",
            "description_en": "Restaurant complex",
            "distance_km": 0.7,
            "lat": 37.6575,
            "lng": 126.7705
          },
          {
            "name_en": "Western Dom Food Court",
            "spot_tag": "Food Court",
            "description_en": "Food court",
            "distance_km": 1.7,
            "lat": 37.663,
            "lng": 126.762
          }
        ],
        "cafe": [
          {
            "name_en": "La Festa Cafes",
            "spot_tag": "Trendy Cafe",
            "description_en": "Trendy cafes",
            "distance_km": 0.7,
            "lat": 37.6572,
            "lng": 126.771
          },
          {
            "name_en": "Ilsan Lake Park Cafe Street",
            "spot_tag": "Lake View",
            "description_en": "Scenic cafes",
            "distance_km": 1.6,
            "lat": 37.659,
            "lng": 126.76
          }
        ],
        "hotspot": [
          {
            "name_en": "Ilsan Lake Park",
            "spot_tag": "Must Visit",
            "description_en": "Beautiful lake park",
            "distance_km": 1.6,
            "lat": 37.658,
            "lng": 126.759
          },
          {
            "name_en": "One Mount",
            "spot_tag": "Entertainment",
            "description_en": "Theme park",
            "distance_km": 2.6,
            "lat": 37.665,
            "lng": 126.751
          },
          {
            "name_en": "Starfield Goyang",
            "spot_tag": "Shopping",
            "description_en": "Shopping mall",
            "distance_km": 10.5,
            "lat": 37.645,
            "lng": 126.895
          }
        ]
      },
      "map_detail": {
        "hotel": {
          "name_en": "아마존 게스트하우스",
          "lat": 37.652536530242855,
          "lng": 126.77585727307698
        },
        "venue": {
          "name_en": "Goyang Stadium",
          "lat": 37.6556,
          "lng": 126.7714
        },
        "nearby_spots": [
          {
            "name_en": "Ilsan Food Street",
            "category": "restaurant",
            "spot_tag": "Local Eats",
            "lat": 37.658,
            "lng": 126.772,
            "distance_km": 0.7
          },
          {
            "name_en": "La Festa Restaurants",
            "category": "restaurant",
            "spot_tag": "Dining Hub",
            "lat": 37.6575,
            "lng": 126.7705,
            "distance_km": 0.7
          },
          {
            "name_en": "La Festa Cafes",
            "category": "cafe",
            "spot_tag": "Trendy Cafe",
            "lat": 37.6572,
            "lng": 126.771,
            "distance_km": 0.7
          },
          {
            "name_en": "Ilsan Lake Park Cafe Street",
            "category": "cafe",
            "spot_tag": "Lake View",
            "lat": 37.659,
            "lng": 126.76,
            "distance_km": 1.6
          },
          {
            "name_en": "Ilsan Lake Park",
            "category": "hotspot",
            "spot_tag": "Must Visit",
            "lat": 37.658,
            "lng": 126.759,
            "distance_km": 1.6
          }
        ]
      },
      "platform": {
        "name": "Booking.com",
        "booking_url": "https://www.booking.comhttps://www.booking.com/hotel/kr/amazon-guesthouse.ko.html?aid=304142&label=mkt123sc-bdd20f8a-7c44-4913-ac68-156f1cc4f5bc&ucfs=1&arphpl=1&checkin=2026-06-11&checkout=2026-06-13&dest_id=-716583&dest_type=city&group_adults=2&req_adults=2&no_rooms=1&group_children=0&req_children=0&hpos=13&hapos=13&sr_order=price&srpvid=91e6d9a692d3aa270258ba029c021a19&srepoch=1770111323&all_sr_blocks=201417405_171843636_0_0_0%2C201417405_171843636_0_0_0&highlighted_blocks=201417405_171843636_0_0_0%2C201417405_171843636_0_0_0&matching_block_id=201417405_171843636_0_0_0&sr_pri_blocks=201417405_171843636_0_0_0__4636364%2C201417405_171843636_0_0_0__4636364&from=searchresults"
      },
      "booking_guide": {
        "steps_en": [
          "1. Search Goyang hotels",
          "2. Filter by 'Free Cancellation'",
          "3. Select room and enter info",
          "4. Pay online or at property",
          "5. Show confirmation at check-in"
        ],
        "tips_en": [
          "Genius membership for discounts",
          "Free cancellation options"
        ],
        "payment_methods": [
          "Credit Card",
          "Pay at Property"
        ],
        "foreigner_friendly": true
      },
      "last_update": "2026-02-03 09:35:27",
      "nearby": [
        {
          "id": "hotel_20673",
          "name_en": "루미에르h호텔",
          "price_krw": 33,
          "distance_km": 0.1,
          "image_url": "https://cf.bstatic.com/xdata/images/hotel/square240/798399499.webp?k=ba73f52e9ce3fabcb1ad60c40afdc85eb4981015a66496406e49eac3a66a23d6&o="
        },
        {
          "id": "hotel_32302",
          "name_en": "호스텔 코리아 - 오리지널",
          "price_krw": 31,
          "distance_km": 0.2,
          "image_url": "https://cf.bstatic.com/xdata/images/hotel/square240/136597371.webp?k=23108736ef367db8cb300bf857249eaa70b51fb8ce5efdc3d12f9541429f379d&o="
        },
        {
          "id": "hotel_34032",
          "name_en": "수정장 여관",
          "price_krw": 31,
          "distance_km": 0.3,
          "image_url": "https://cf.bstatic.com/xdata/images/hotel/square240/576487838.webp?k=a67fcc63fed9e1c41ef7aa8644d2164321e9f7f6fd5683d18bc0f470c953537a&o="
        }
      ]
    },
    {
      "id": "hotel_34032",
      "name_en": "수정장 여관",
      "price_krw": 31,
      "rating": 7.47,
      "image_url": "https://cf.bstatic.com/xdata/images/hotel/square240/576487838.webp?k=a67fcc63fed9e1c41ef7aa8644d2164321e9f7f6fd5683d18bc0f470c953537a&o=",
      "rooms_left": -1,
      "is_available": true,
      "hotel_type": {
        "label_en": "Hotel",
        "color": "#4A90D9"
      },
      "cancellation": {
        "type": "free",
        "label_en": "Free Cancellation",
        "label_kr": "무료 취소",
        "is_refundable": true
      },
      "tags": {
        "list_en": [
          "#FreeCancellation",
          "#ARMYPopular",
          "#WalkToVenue"
        ],
        "list_kr": [
          "#취소가능",
          "#아미인기",
          "#도보가능"
        ],
        "display_en": "#FreeCancellation #ARMYPopular #WalkToVenue",
        "display_kr": "#취소가능 #아미인기 #도보가능"
      },
      "lat": 37.65456155149171,
      "lng": 126.77819995636914,
      "location": {
        "area_en": "Hongdae",
        "area_kr": "홍대",
        "address_en": "Hongdae, Seoul",
        "address_kr": "서울 홍대"
      },
      "city_key": "hongdae",
      "army_density": {
        "value": 65,
        "level_en": "High",
        "level_kr": "높음",
        "label_en": "ARMY 65%",
        "label_kr": "아미 65%"
      },
      "distance": {
        "type": "walk",
        "display_en": "Walk 7min",
        "minutes": 7,
        "distance_km": 0.6
      },
      "transport": {
        "station_en": "Jeongbalsan",
        "line_en": "Line 3",
        "line_color": "#EF7C1C",
        "display_en": "Jeongbalsan (Line 3)"
      },
      "safe_return": {
        "venue_en": "Goyang Stadium",
        "route_en": "Walk from Goyang Stadium → Hotel",
        "transport": "walk",
        "time_min": 7,
        "last_train": "23:50",
        "taxi_krw": 0
      },
      "army_local_guide": {
        "bts": [
          {
            "name_en": "MBC Sangam",
            "spot_tag": "Music Show",
            "description_en": "Music show filming",
            "distance_km": 13.1,
            "lat": 37.5786,
            "lng": 126.8918
          },
          {
            "name_en": "Hongdae Busking Street",
            "spot_tag": "Trainee Memory",
            "description_en": "Pre-debut busking spot",
            "distance_km": 16.7,
            "lat": 37.5563,
            "lng": 126.922
          },
          {
            "name_en": "Gwangjang Market",
            "spot_tag": "Debut Memory",
            "description_en": "2013 debut location",
            "distance_km": 22.5,
            "lat": 37.57,
            "lng": 127.0098
          }
        ],
        "restaurant": [
          {
            "name_en": "Ilsan Food Street",
            "spot_tag": "Local Eats",
            "description_en": "Local food street",
            "distance_km": 0.7,
            "lat": 37.658,
            "lng": 126.772
          },
          {
            "name_en": "La Festa Restaurants",
            "spot_tag": "Dining Hub",
            "description_en": "Restaurant complex",
            "distance_km": 0.8,
            "lat": 37.6575,
            "lng": 126.7705
          },
          {
            "name_en": "Western Dom Food Court",
            "spot_tag": "Food Court",
            "description_en": "Food court",
            "distance_km": 1.7,
            "lat": 37.663,
            "lng": 126.762
          }
        ],
        "cafe": [
          {
            "name_en": "La Festa Cafes",
            "spot_tag": "Trendy Cafe",
            "description_en": "Trendy cafes",
            "distance_km": 0.7,
            "lat": 37.6572,
            "lng": 126.771
          },
          {
            "name_en": "Ilsan Lake Park Cafe Street",
            "spot_tag": "Lake View",
            "description_en": "Scenic cafes",
            "distance_km": 1.7,
            "lat": 37.659,
            "lng": 126.76
          }
        ],
        "hotspot": [
          {
            "name_en": "Ilsan Lake Park",
            "spot_tag": "Must Visit",
            "description_en": "Beautiful lake park",
            "distance_km": 1.7,
            "lat": 37.658,
            "lng": 126.759
          },
          {
            "name_en": "One Mount",
            "spot_tag": "Entertainment",
            "description_en": "Theme park",
            "distance_km": 2.7,
            "lat": 37.665,
            "lng": 126.751
          },
          {
            "name_en": "Starfield Goyang",
            "spot_tag": "Shopping",
            "description_en": "Shopping mall",
            "distance_km": 10.3,
            "lat": 37.645,
            "lng": 126.895
          }
        ]
      },
      "map_detail": {
        "hotel": {
          "name_en": "수정장 여관",
          "lat": 37.65456155149171,
          "lng": 126.77819995636914
        },
        "venue": {
          "name_en": "Goyang Stadium",
          "lat": 37.6556,
          "lng": 126.7714
        },
        "nearby_spots": [
          {
            "name_en": "Ilsan Food Street",
            "category": "restaurant",
            "spot_tag": "Local Eats",
            "lat": 37.658,
            "lng": 126.772,
            "distance_km": 0.7
          },
          {
            "name_en": "La Festa Cafes",
            "category": "cafe",
            "spot_tag": "Trendy Cafe",
            "lat": 37.6572,
            "lng": 126.771,
            "distance_km": 0.7
          },
          {
            "name_en": "La Festa Restaurants",
            "category": "restaurant",
            "spot_tag": "Dining Hub",
            "lat": 37.6575,
            "lng": 126.7705,
            "distance_km": 0.8
          },
          {
            "name_en": "Western Dom Food Court",
            "category": "restaurant",
            "spot_tag": "Food Court",
            "lat": 37.663,
            "lng": 126.762,
            "distance_km": 1.7
          },
          {
            "name_en": "Ilsan Lake Park Cafe Street",
            "category": "cafe",
            "spot_tag": "Lake View",
            "lat": 37.659,
            "lng": 126.76,
            "distance_km": 1.7
          }
        ]
      },
      "platform": {
        "name": "Booking.com",
        "booking_url": "https://www.booking.comhttps://www.booking.com/hotel/kr/sujeongjang-inn.ko.html?aid=304142&label=mkt123sc-bdd20f8a-7c44-4913-ac68-156f1cc4f5bc&ucfs=1&arphpl=1&checkin=2026-06-11&checkout=2026-06-13&dest_id=-716583&dest_type=city&group_adults=2&req_adults=2&no_rooms=1&group_children=0&req_children=0&hpos=11&hapos=11&sr_order=price&srpvid=91e6d9a692d3aa270258ba029c021a19&srepoch=1770111323&all_sr_blocks=1069107515_380493398_2_0_0&highlighted_blocks=1069107515_380493398_2_0_0&matching_block_id=1069107515_380493398_2_0_0&sr_pri_blocks=1069107515_380493398_2_0_0__9090909&from=searchresults"
      },
      "booking_guide": {
        "steps_en": [
          "1. Search Goyang hotels",
          "2. Filter by 'Free Cancellation'",
          "3. Select room and enter info",
          "4. Pay online or at property",
          "5. Show confirmation at check-in"
        ],
        "tips_en": [
          "Genius membership for discounts",
          "Free cancellation options"
        ],
        "payment_methods": [
          "Credit Card",
          "Pay at Property"
        ],
        "foreigner_friendly": true
      },
      "last_update": "2026-02-03 09:35:27",
      "nearby": [
        {
          "id": "hotel_35712",
          "name_en": "J2 Us#1",
          "price_krw": 26,
          "distance_km": 0.1,
          "image_url": "https://cf.bstatic.com/xdata/images/hotel/square240/816706261.webp?k=7757757d41fa086e07cea3037beb0013f5f00d6af21059eff4a7323af0a1f3ed&o="
        },
        {
          "id": "hotel_91733",
          "name_en": "아마존 게스트하우스",
          "price_krw": 32,
          "distance_km": 0.3,
          "image_url": "https://cf.bstatic.com/xdata/images/hotel/square240/204809971.webp?k=2076895c90fbe62ff827488d80e3c0ed366c172052bce07cf491528f6f2577b3&o="
        },
        {
          "id": "hotel_20673",
          "name_en": "루미에르h호텔",
          "price_krw": 33,
          "distance_km": 0.3,
          "image_url": "https://cf.bstatic.com/xdata/images/hotel/square240/798399499.webp?k=ba73f52e9ce3fabcb1ad60c40afdc85eb4981015a66496406e49eac3a66a23d6&o="
        }
      ]
    },
    {
      "id": "hotel_71887",
      "name_en": "서울 달빛 동대문 게스트하우스",
      "price_krw": 33,
      "rating": 7.17,
      "image_url": "https://cf.bstatic.com/xdata/images/hotel/square240/60558901.webp?k=341cf6cd0494c088362804a26c07b2e57616de64bbea974a8aa18d18583bf8ab&o=",
      "rooms_left": -1,
      "is_available": true,
      "hotel_type": {
        "label_en": "Hotel",
        "color": "#4A90D9"
      },
      "cancellation": {
        "type": "free",
        "label_en": "Free Cancellation",
        "label_kr": "무료 취소",
        "is_refundable": true
      },
      "tags": {
        "list_en": [
          "#FreeCancellation",
          "#ARMYPopular",
          "#WalkToVenue"
        ],
        "list_kr": [
          "#취소가능",
          "#아미인기",
          "#도보가능"
        ],
        "display_en": "#FreeCancellation #ARMYPopular #WalkToVenue",
        "display_kr": "#취소가능 #아미인기 #도보가능"
      },
      "lat": 37.65640374602772,
      "lng": 126.76490854858868,
      "location": {
        "area_en": "Hongdae",
        "area_kr": "홍대",
        "address_en": "Hongdae, Seoul",
        "address_kr": "서울 홍대"
      },
      "city_key": "hongdae",
      "army_density": {
        "value": 65,
        "level_en": "High",
        "level_kr": "높음",
        "label_en": "ARMY 65%",
        "label_kr": "아미 65%"
      },
      "distance": {
        "type": "walk",
        "display_en": "Walk 6min",
        "minutes": 6,
        "distance_km": 0.6
      },
      "transport": {
        "station_en": "Jeongbalsan",
        "line_en": "Line 3",
        "line_color": "#EF7C1C",
        "display_en": "Jeongbalsan (Line 3)"
      },
      "safe_return": {
        "venue_en": "Goyang Stadium",
        "route_en": "Walk from Goyang Stadium → Hotel",
        "transport": "walk",
        "time_min": 6,
        "last_train": "23:50",
        "taxi_krw": 0
      },
      "army_local_guide": {
        "bts": [
          {
            "name_en": "MBC Sangam",
            "spot_tag": "Music Show",
            "description_en": "Music show filming",
            "distance_km": 14.1,
            "lat": 37.5786,
            "lng": 126.8918
          },
          {
            "name_en": "Hongdae Busking Street",
            "spot_tag": "Trainee Memory",
            "description_en": "Pre-debut busking spot",
            "distance_km": 17.8,
            "lat": 37.5563,
            "lng": 126.922
          },
          {
            "name_en": "Gwangjang Market",
            "spot_tag": "Debut Memory",
            "description_en": "2013 debut location",
            "distance_km": 23.6,
            "lat": 37.57,
            "lng": 127.0098
          }
        ],
        "restaurant": [
          {
            "name_en": "La Festa Restaurants",
            "spot_tag": "Dining Hub",
            "description_en": "Restaurant complex",
            "distance_km": 0.5,
            "lat": 37.6575,
            "lng": 126.7705
          },
          {
            "name_en": "Ilsan Food Street",
            "spot_tag": "Local Eats",
            "description_en": "Local food street",
            "distance_km": 0.6,
            "lat": 37.658,
            "lng": 126.772
          },
          {
            "name_en": "Western Dom Food Court",
            "spot_tag": "Food Court",
            "description_en": "Food court",
            "distance_km": 0.8,
            "lat": 37.663,
            "lng": 126.762
          }
        ],
        "cafe": [
          {
            "name_en": "Ilsan Lake Park Cafe Street",
            "spot_tag": "Lake View",
            "description_en": "Scenic cafes",
            "distance_km": 0.5,
            "lat": 37.659,
            "lng": 126.76
          },
          {
            "name_en": "La Festa Cafes",
            "spot_tag": "Trendy Cafe",
            "description_en": "Trendy cafes",
            "distance_km": 0.5,
            "lat": 37.6572,
            "lng": 126.771
          }
        ],
        "hotspot": [
          {
            "name_en": "Ilsan Lake Park",
            "spot_tag": "Must Visit",
            "description_en": "Beautiful lake park",
            "distance_km": 0.5,
            "lat": 37.658,
            "lng": 126.759
          },
          {
            "name_en": "One Mount",
            "spot_tag": "Entertainment",
            "description_en": "Theme park",
            "distance_km": 1.6,
            "lat": 37.665,
            "lng": 126.751
          },
          {
            "name_en": "Starfield Goyang",
            "spot_tag": "Shopping",
            "description_en": "Shopping mall",
            "distance_km": 11.5,
            "lat": 37.645,
            "lng": 126.895
          }
        ]
      },
      "map_detail": {
        "hotel": {
          "name_en": "서울 달빛 동대문 게스트하우스",
          "lat": 37.65640374602772,
          "lng": 126.76490854858868
        },
        "venue": {
          "name_en": "Goyang Stadium",
          "lat": 37.6556,
          "lng": 126.7714
        },
        "nearby_spots": [
          {
            "name_en": "La Festa Restaurants",
            "category": "restaurant",
            "spot_tag": "Dining Hub",
            "lat": 37.6575,
            "lng": 126.7705,
            "distance_km": 0.5
          },
          {
            "name_en": "Ilsan Lake Park Cafe Street",
            "category": "cafe",
            "spot_tag": "Lake View",
            "lat": 37.659,
            "lng": 126.76,
            "distance_km": 0.5
          },
          {
            "name_en": "La Festa Cafes",
            "category": "cafe",
            "spot_tag": "Trendy Cafe",
            "lat": 37.6572,
            "lng": 126.771,
            "distance_km": 0.5
          },
          {
            "name_en": "Ilsan Lake Park",
            "category": "hotspot",
            "spot_tag": "Must Visit",
            "lat": 37.658,
            "lng": 126.759,
            "distance_km": 0.5
          },
          {
            "name_en": "Ilsan Food Street",
            "category": "restaurant",
            "spot_tag": "Local Eats",
            "lat": 37.658,
            "lng": 126.772,
            "distance_km": 0.6
          }
        ]
      },
      "platform": {
        "name": "Booking.com",
        "booking_url": "https://www.booking.comhttps://www.booking.com/hotel/kr/seoul-dalbit-guesthouse.ko.html?aid=304142&label=mkt123sc-bdd20f8a-7c44-4913-ac68-156f1cc4f5bc&ucfs=1&arphpl=1&checkin=2026-06-11&checkout=2026-06-13&dest_id=-716583&dest_type=city&group_adults=2&req_adults=2&no_rooms=1&group_children=0&req_children=0&hpos=16&hapos=16&sr_order=price&srpvid=91e6d9a692d3aa270258ba029c021a19&srepoch=1770111323&all_sr_blocks=154467804_420652136_0_0_0&highlighted_blocks=154467804_420652136_0_0_0&matching_block_id=154467804_420652136_0_0_0&sr_pri_blocks=154467804_420652136_0_0_0__9545455&from=searchresults"
      },
      "booking_guide": {
        "steps_en": [
          "1. Search Goyang hotels",
          "2. Filter by 'Free Cancellation'",
          "3. Select room and enter info",
          "4. Pay online or at property",
          "5. Show confirmation at check-in"
        ],
        "tips_en": [
          "Genius membership for discounts",
          "Free cancellation options"
        ],
        "payment_methods": [
          "Credit Card",
          "Pay at Property"
        ],
        "foreigner_friendly": true
      },
      "last_update": "2026-02-03 09:35:27",
      "nearby": [
        {
          "id": "hotel_28829",
          "name_en": "커플 모텔",
          "price_krw": 34,
          "distance_km": 0.1,
          "image_url": "https://cf.bstatic.com/xdata/images/hotel/square240/378118152.webp?k=65bcd6e2cba02f6f521245d6ed2e49475333030834f372f682acbbac861f2d6b&o="
        },
        {
          "id": "hotel_79471",
          "name_en": "서울 게스트하우스 외국인 전용",
          "price_krw": 16,
          "distance_km": 0.4,
          "image_url": "https://cf.bstatic.com/xdata/images/hotel/square240/433494322.webp?k=0bd3a96524ab66f1c9de9750e3f3c19884e713ea2a044de30586672d5d71e4a8&o="
        },
        {
          "id": "hotel_93190",
          "name_en": "나비 모텔",
          "price_krw": 29,
          "distance_km": 0.4,
          "image_url": "https://cf.bstatic.com/xdata/images/hotel/square240/742412160.webp?k=63250a68ba8b666002c2532891aebefe0b4bdab4114f6db63d5e0fb33129312e&o="
        }
      ]
    },
    {
      "id": "hotel_61768",
      "name_en": "서울앤호텔 동대문",
      "price_krw": 34,
      "rating": 7.27,
      "image_url": "https://cf.bstatic.com/xdata/images/hotel/square240/103588071.webp?k=70e14c2e8e5c64d9b13040cbf891d408d498ab54ab0f3e5e23596c3ae374c8f7&o=",
      "rooms_left": -1,
      "is_available": true,
      "hotel_type": {
        "label_en": "Hotel",
        "color": "#4A90D9"
      },
      "cancellation": {
        "type": "free",
        "label_en": "Free Cancellation",
        "label_kr": "무료 취소",
        "is_refundable": true
      },
      "tags": {
        "list_en": [
          "#FreeCancellation",
          "#ARMYPopular",
          "#WalkToVenue"
        ],
        "list_kr": [
          "#취소가능",
          "#아미인기",
          "#도보가능"
        ],
        "display_en": "#FreeCancellation #ARMYPopular #WalkToVenue",
        "display_kr": "#취소가능 #아미인기 #도보가능"
      },
      "lat": 37.66116136476272,
      "lng": 126.77217686039147,
      "location": {
        "area_en": "Hongdae",
        "area_kr": "홍대",
        "address_en": "Hongdae, Seoul",
        "address_kr": "서울 홍대"
      },
      "city_key": "hongdae",
      "army_density": {
        "value": 65,
        "level_en": "High",
        "level_kr": "높음",
        "label_en": "ARMY 65%",
        "label_kr": "아미 65%"
      },
      "distance": {
        "type": "walk",
        "display_en": "Walk 7min",
        "minutes": 7,
        "distance_km": 0.6
      },
      "transport": {
        "station_en": "Jeongbalsan",
        "line_en": "Line 3",
        "line_color": "#EF7C1C",
        "display_en": "Jeongbalsan (Line 3)"
      },
      "safe_return": {
        "venue_en": "Goyang Stadium",
        "route_en": "Walk from Goyang Stadium → Hotel",
        "transport": "walk",
        "time_min": 7,
        "last_train": "23:50",
        "taxi_krw": 0
      },
      "army_local_guide": {
        "bts": [
          {
            "name_en": "MBC Sangam",
            "spot_tag": "Music Show",
            "description_en": "Music show filming",
            "distance_km": 14.0,
            "lat": 37.5786,
            "lng": 126.8918
          },
          {
            "name_en": "Hongdae Busking Street",
            "spot_tag": "Trainee Memory",
            "description_en": "Pre-debut busking spot",
            "distance_km": 17.6,
            "lat": 37.5563,
            "lng": 126.922
          },
          {
            "name_en": "Gwangjang Market",
            "spot_tag": "Debut Memory",
            "description_en": "2013 debut location",
            "distance_km": 23.3,
            "lat": 37.57,
            "lng": 127.0098
          }
        ],
        "restaurant": [
          {
            "name_en": "Ilsan Food Street",
            "spot_tag": "Local Eats",
            "description_en": "Local food street",
            "distance_km": 0.4,
            "lat": 37.658,
            "lng": 126.772
          },
          {
            "name_en": "La Festa Restaurants",
            "spot_tag": "Dining Hub",
            "description_en": "Restaurant complex",
            "distance_km": 0.4,
            "lat": 37.6575,
            "lng": 126.7705
          },
          {
            "name_en": "Western Dom Food Court",
            "spot_tag": "Food Court",
            "description_en": "Food court",
            "distance_km": 0.9,
            "lat": 37.663,
            "lng": 126.762
          }
        ],
        "cafe": [
          {
            "name_en": "La Festa Cafes",
            "spot_tag": "Trendy Cafe",
            "description_en": "Trendy cafes",
            "distance_km": 0.5,
            "lat": 37.6572,
            "lng": 126.771
          },
          {
            "name_en": "Ilsan Lake Park Cafe Street",
            "spot_tag": "Lake View",
            "description_en": "Scenic cafes",
            "distance_km": 1.1,
            "lat": 37.659,
            "lng": 126.76
          }
        ],
        "hotspot": [
          {
            "name_en": "Ilsan Lake Park",
            "spot_tag": "Must Visit",
            "description_en": "Beautiful lake park",
            "distance_km": 1.2,
            "lat": 37.658,
            "lng": 126.759
          },
          {
            "name_en": "One Mount",
            "spot_tag": "Entertainment",
            "description_en": "Theme park",
            "distance_km": 1.9,
            "lat": 37.665,
            "lng": 126.751
          },
          {
            "name_en": "Starfield Goyang",
            "spot_tag": "Shopping",
            "description_en": "Shopping mall",
            "distance_km": 11.0,
            "lat": 37.645,
            "lng": 126.895
          }
        ]
      },
      "map_detail": {
        "hotel": {
          "name_en": "서울앤호텔 동대문",
          "lat": 37.66116136476272,
          "lng": 126.77217686039147
        },
        "venue": {
          "name_en": "Goyang Stadium",
          "lat": 37.6556,
          "lng": 126.7714
        },
        "nearby_spots": [
          {
            "name_en": "Ilsan Food Street",
            "category": "restaurant",
            "spot_tag": "Local Eats",
            "lat": 37.658,
            "lng": 126.772,
            "distance_km": 0.4
          },
          {
            "name_en": "La Festa Restaurants",
            "category": "restaurant",
            "spot_tag": "Dining Hub",
            "lat": 37.6575,
            "lng": 126.7705,
            "distance_km": 0.4
          },
          {
            "name_en": "La Festa Cafes",
            "category": "cafe",
            "spot_tag": "Trendy Cafe",
            "lat": 37.6572,
            "lng": 126.771,
            "distance_km": 0.5
          },
          {
            "name_en": "Western Dom Food Court",
            "category": "restaurant",
            "spot_tag": "Food Court",
            "lat": 37.663,
            "lng": 126.762,
            "distance_km": 0.9
          },
          {
            "name_en": "Ilsan Lake Park Cafe Street",
            "category": "cafe",
            "spot_tag": "Lake View",
            "lat": 37.659,
            "lng": 126.76,
            "distance_km": 1.1
          }
        ]
      },
      "platform": {
        "name": "Booking.com",
        "booking_url": "https://www.booking.comhttps://www.booking.com/hotel/kr/seoulnhotel.ko.html?aid=304142&label=mkt123sc-bdd20f8a-7c44-4913-ac68-156f1cc4f5bc&ucfs=1&arphpl=1&checkin=2026-06-11&checkout=2026-06-13&dest_id=-716583&dest_type=city&group_adults=2&req_adults=2&no_rooms=1&group_children=0&req_children=0&hpos=20&hapos=20&sr_order=price&srpvid=91e6d9a692d3aa270258ba029c021a19&srepoch=1770111323&all_sr_blocks=198130212_379297430_0_2_0%2C198130212_379297430_0_2_0&highlighted_blocks=198130212_379297430_0_2_0%2C198130212_379297430_0_2_0&matching_block_id=198130212_379297430_0_2_0&sr_pri_blocks=198130212_379297430_0_2_0__4963636%2C198130212_379297430_0_2_0__4963636&from=searchresults"
      },
      "booking_guide": {
        "steps_en": [
          "1. Search Goyang hotels",
          "2. Filter by 'Free Cancellation'",
          "3. Select room and enter info",
          "4. Pay online or at property",
          "5. Show confirmation at check-in"
        ],
        "tips_en": [
          "Genius membership for discounts",
          "Free cancellation options"
        ],
        "payment_methods": [
          "Credit Card",
          "Pay at Property"
        ],
        "foreigner_friendly": true
      },
      "last_update": "2026-02-03 09:35:27",
      "nearby": [
        {
          "id": "hotel_85702",
          "name_en": "스프링 라이트",
          "price_krw": 25,
          "distance_km": 0.3,
          "image_url": "https://cf.bstatic.com/xdata/images/hotel/square240/329454863.webp?k=4d32ccde73798b309ec136a826de0a7a8fd83d728750e5f93dc6984f338785a5&o="
        },
        {
          "id": "hotel_79471",
          "name_en": "서울 게스트하우스 외국인 전용",
          "price_krw": 16,
          "distance_km": 0.4,
          "image_url": "https://cf.bstatic.com/xdata/images/hotel/square240/433494322.webp?k=0bd3a96524ab66f1c9de9750e3f3c19884e713ea2a044de30586672d5d71e4a8&o="
        },
        {
          "id": "hotel_22627",
          "name_en": "댓 하우스 홍대 게스트하우스",
          "price_krw": 33,
          "distance_km": 0.5,
          "image_url": "https://cf.bstatic.com/xdata/images/hotel/square240/61802936.webp?k=d69c6742d66a81c8d169fce434c380d6b1ab7fa073035c0c923cbbe9d36d5a12&o="
        }
      ]
    },
    {
      "id": "hotel_28829",
      "name_en": "커플 모텔",
      "price_krw": 34,
      "rating": 6.86,
      "image_url": "https://cf.bstatic.com/xdata/images/hotel/square240/378118152.webp?k=65bcd6e2cba02f6f521245d6ed2e49475333030834f372f682acbbac861f2d6b&o=",
      "rooms_left": -1,
      "is_available": true,
      "hotel_type": {
        "label_en": "Hotel",
        "color": "#4A90D9"
      },
      "cancellation": {
        "type": "free",
        "label_en": "Free Cancellation",
        "label_kr": "무료 취소",
        "is_refundable": true
      },
      "tags": {
        "list_en": [
          "#FreeCancellation",
          "#ARMYPopular",
          "#WalkToVenue"
        ],
        "list_kr": [
          "#취소가능",
          "#아미인기",
          "#도보가능"
        ],
        "display_en": "#FreeCancellation #ARMYPopular #WalkToVenue",
        "display_kr": "#취소가능 #아미인기 #도보가능"
      },
      "lat": 37.6575157928905,
      "lng": 126.76489394614097,
      "location": {
        "area_en": "Hongdae",
        "area_kr": "홍대",
        "address_en": "Hongdae, Seoul",
        "address_kr": "서울 홍대"
      },
      "city_key": "hongdae",
      "army_density": {
        "value": 65,
        "level_en": "High",
        "level_kr": "높음",
        "label_en": "ARMY 65%",
        "label_kr": "아미 65%"
      },
      "distance": {
        "type": "walk",
        "display_en": "Walk 7min",
        "minutes": 7,
        "distance_km": 0.6
      },
      "transport": {
        "station_en": "Jeongbalsan",
        "line_en": "Line 3",
        "line_color": "#EF7C1C",
        "display_en": "Jeongbalsan (Line 3)"
      },
      "safe_return": {
        "venue_en": "Goyang Stadium",
        "route_en": "Walk from Goyang Stadium → Hotel",
        "transport": "walk",
        "time_min": 7,
        "last_train": "23:50",
        "taxi_krw": 0
      },
      "army_local_guide": {
        "bts": [
          {
            "name_en": "MBC Sangam",
            "spot_tag": "Music Show",
            "description_en": "Music show filming",
            "distance_km": 14.2,
            "lat": 37.5786,
            "lng": 126.8918
          },
          {
            "name_en": "Hongdae Busking Street",
            "spot_tag": "Trainee Memory",
            "description_en": "Pre-debut busking spot",
            "distance_km": 17.8,
            "lat": 37.5563,
            "lng": 126.922
          },
          {
            "name_en": "Gwangjang Market",
            "spot_tag": "Debut Memory",
            "description_en": "2013 debut location",
            "distance_km": 23.7,
            "lat": 37.57,
            "lng": 127.0098
          }
        ],
        "restaurant": [
          {
            "name_en": "La Festa Restaurants",
            "spot_tag": "Dining Hub",
            "description_en": "Restaurant complex",
            "distance_km": 0.5,
            "lat": 37.6575,
            "lng": 126.7705
          },
          {
            "name_en": "Ilsan Food Street",
            "spot_tag": "Local Eats",
            "description_en": "Local food street",
            "distance_km": 0.6,
            "lat": 37.658,
            "lng": 126.772
          },
          {
            "name_en": "Western Dom Food Court",
            "spot_tag": "Food Court",
            "description_en": "Food court",
            "distance_km": 0.7,
            "lat": 37.663,
            "lng": 126.762
          }
        ],
        "cafe": [
          {
            "name_en": "Ilsan Lake Park Cafe Street",
            "spot_tag": "Lake View",
            "description_en": "Scenic cafes",
            "distance_km": 0.5,
            "lat": 37.659,
            "lng": 126.76
          },
          {
            "name_en": "La Festa Cafes",
            "spot_tag": "Trendy Cafe",
            "description_en": "Trendy cafes",
            "distance_km": 0.5,
            "lat": 37.6572,
            "lng": 126.771
          }
        ],
        "hotspot": [
          {
            "name_en": "Ilsan Lake Park",
            "spot_tag": "Must Visit",
            "description_en": "Beautiful lake park",
            "distance_km": 0.5,
            "lat": 37.658,
            "lng": 126.759
          },
          {
            "name_en": "One Mount",
            "spot_tag": "Entertainment",
            "description_en": "Theme park",
            "distance_km": 1.5,
            "lat": 37.665,
            "lng": 126.751
          },
          {
            "name_en": "Starfield Goyang",
            "spot_tag": "Shopping",
            "description_en": "Shopping mall",
            "distance_km": 11.5,
            "lat": 37.645,
            "lng": 126.895
          }
        ]
      },
      "map_detail": {
        "hotel": {
          "name_en": "커플 모텔",
          "lat": 37.6575157928905,
          "lng": 126.76489394614097
        },
        "venue": {
          "name_en": "Goyang Stadium",
          "lat": 37.6556,
          "lng": 126.7714
        },
        "nearby_spots": [
          {
            "name_en": "La Festa Restaurants",
            "category": "restaurant",
            "spot_tag": "Dining Hub",
            "lat": 37.6575,
            "lng": 126.7705,
            "distance_km": 0.5
          },
          {
            "name_en": "Ilsan Lake Park Cafe Street",
            "category": "cafe",
            "spot_tag": "Lake View",
            "lat": 37.659,
            "lng": 126.76,
            "distance_km": 0.5
          },
          {
            "name_en": "La Festa Cafes",
            "category": "cafe",
            "spot_tag": "Trendy Cafe",
            "lat": 37.6572,
            "lng": 126.771,
            "distance_km": 0.5
          },
          {
            "name_en": "Ilsan Lake Park",
            "category": "hotspot",
            "spot_tag": "Must Visit",
            "lat": 37.658,
            "lng": 126.759,
            "distance_km": 0.5
          },
          {
            "name_en": "Ilsan Food Street",
            "category": "restaurant",
            "spot_tag": "Local Eats",
            "lat": 37.658,
            "lng": 126.772,
            "distance_km": 0.6
          }
        ]
      },
      "platform": {
        "name": "Booking.com",
        "booking_url": "https://www.booking.comhttps://www.booking.com/hotel/kr/couple-motel-seoul1.ko.html?aid=304142&label=mkt123sc-bdd20f8a-7c44-4913-ac68-156f1cc4f5bc&ucfs=1&arphpl=1&checkin=2026-06-11&checkout=2026-06-13&dest_id=-716583&dest_type=city&group_adults=2&req_adults=2&no_rooms=1&group_children=0&req_children=0&hpos=22&hapos=22&sr_order=price&srpvid=91e6d9a692d3aa270258ba029c021a19&srepoch=1770111323&all_sr_blocks=886028101_358243750_2_0_0&highlighted_blocks=886028101_358243750_2_0_0&matching_block_id=886028101_358243750_2_0_0&sr_pri_blocks=886028101_358243750_2_0_0__10000000&from=searchresults"
      },
      "booking_guide": {
        "steps_en": [
          "1. Search Goyang hotels",
          "2. Filter by 'Free Cancellation'",
          "3. Select room and enter info",
          "4. Pay online or at property",
          "5. Show confirmation at check-in"
        ],
        "tips_en": [
          "Genius membership for discounts",
          "Free cancellation options"
        ],
        "payment_methods": [
          "Credit Card",
          "Pay at Property"
        ],
        "foreigner_friendly": true
      },
      "last_update": "2026-02-03 09:35:27",
      "nearby": [
        {
          "id": "hotel_71887",
          "name_en": "서울 달빛 동대문 게스트하우스",
          "price_krw": 33,
          "distance_km": 0.1,
          "image_url": "https://cf.bstatic.com/xdata/images/hotel/square240/60558901.webp?k=341cf6cd0494c088362804a26c07b2e57616de64bbea974a8aa18d18583bf8ab&o="
        },
        {
          "id": "hotel_79471",
          "name_en": "서울 게스트하우스 외국인 전용",
          "price_krw": 16,
          "distance_km": 0.4,
          "image_url": "https://cf.bstatic.com/xdata/images/hotel/square240/433494322.webp?k=0bd3a96524ab66f1c9de9750e3f3c19884e713ea2a044de30586672d5d71e4a8&o="
        },
        {
          "id": "hotel_93190",
          "name_en": "나비 모텔",
          "price_krw": 29,
          "distance_km": 0.5,
          "image_url": "https://cf.bstatic.com/xdata/images/hotel/square240/742412160.webp?k=63250a68ba8b666002c2532891aebefe0b4bdab4114f6db63d5e0fb33129312e&o="
        }
      ]
    },
    {
      "id": "hotel_35712",
      "name_en": "J2 Us#1",
      "price_krw": 26,
      "rating": 0,
      "image_url": "https://cf.bstatic.com/xdata/images/hotel/square240/816706261.webp?k=7757757d41fa086e07cea3037beb0013f5f00d6af21059eff4a7323af0a1f3ed&o=",
      "rooms_left": -1,
      "is_available": true,
      "hotel_type": {
        "label_en": "Hotel",
        "color": "#4A90D9"
      },
      "cancellation": {
        "type": "free",
        "label_en": "Free Cancellation",
        "label_kr": "무료 취소",
        "is_refundable": true
      },
      "tags": {
        "list_en": [
          "#FreeCancellation",
          "#ARMYPopular",
          "#WalkToVenue"
        ],
        "list_kr": [
          "#취소가능",
          "#아미인기",
          "#도보가능"
        ],
        "display_en": "#FreeCancellation #ARMYPopular #WalkToVenue",
        "display_kr": "#취소가능 #아미인기 #도보가능"
      },
      "lat": 37.65406818266528,
      "lng": 126.77958126230457,
      "location": {
        "area_en": "Hongdae",
        "area_kr": "홍대",
        "address_en": "Hongdae, Seoul",
        "address_kr": "서울 홍대"
      },
      "city_key": "hongdae",
      "army_density": {
        "value": 65,
        "level_en": "High",
        "level_kr": "높음",
        "label_en": "ARMY 65%",
        "label_kr": "아미 65%"
      },
      "distance": {
        "type": "walk",
        "display_en": "Walk 8min",
        "minutes": 8,
        "distance_km": 0.7
      },
      "transport": {
        "station_en": "Jeongbalsan",
        "line_en": "Line 3",
        "line_color": "#EF7C1C",
        "display_en": "Jeongbalsan (Line 3)"
      },
      "safe_return": {
        "venue_en": "Goyang Stadium",
        "route_en": "Walk from Goyang Stadium → Hotel",
        "transport": "walk",
        "time_min": 8,
        "last_train": "23:50",
        "taxi_krw": 0
      },
      "army_local_guide": {
        "bts": [
          {
            "name_en": "MBC Sangam",
            "spot_tag": "Music Show",
            "description_en": "Music show filming",
            "distance_km": 13.0,
            "lat": 37.5786,
            "lng": 126.8918
          },
          {
            "name_en": "Hongdae Busking Street",
            "spot_tag": "Trainee Memory",
            "description_en": "Pre-debut busking spot",
            "distance_km": 16.6,
            "lat": 37.5563,
            "lng": 126.922
          },
          {
            "name_en": "Gwangjang Market",
            "spot_tag": "Debut Memory",
            "description_en": "2013 debut location",
            "distance_km": 22.3,
            "lat": 37.57,
            "lng": 127.0098
          }
        ],
        "restaurant": [
          {
            "name_en": "Ilsan Food Street",
            "spot_tag": "Local Eats",
            "description_en": "Local food street",
            "distance_km": 0.8,
            "lat": 37.658,
            "lng": 126.772
          },
          {
            "name_en": "La Festa Restaurants",
            "spot_tag": "Dining Hub",
            "description_en": "Restaurant complex",
            "distance_km": 0.9,
            "lat": 37.6575,
            "lng": 126.7705
          },
          {
            "name_en": "Western Dom Food Court",
            "spot_tag": "Food Court",
            "description_en": "Food court",
            "distance_km": 1.8,
            "lat": 37.663,
            "lng": 126.762
          }
        ],
        "cafe": [
          {
            "name_en": "La Festa Cafes",
            "spot_tag": "Trendy Cafe",
            "description_en": "Trendy cafes",
            "distance_km": 0.8,
            "lat": 37.6572,
            "lng": 126.771
          },
          {
            "name_en": "Ilsan Lake Park Cafe Street",
            "spot_tag": "Lake View",
            "description_en": "Scenic cafes",
            "distance_km": 1.8,
            "lat": 37.659,
            "lng": 126.76
          }
        ],
        "hotspot": [
          {
            "name_en": "Ilsan Lake Park",
            "spot_tag": "Must Visit",
            "description_en": "Beautiful lake park",
            "distance_km": 1.9,
            "lat": 37.658,
            "lng": 126.759
          },
          {
            "name_en": "One Mount",
            "spot_tag": "Entertainment",
            "description_en": "Theme park",
            "distance_km": 2.8,
            "lat": 37.665,
            "lng": 126.751
          },
          {
            "name_en": "Starfield Goyang",
            "spot_tag": "Shopping",
            "description_en": "Shopping mall",
            "distance_km": 10.2,
            "lat": 37.645,
            "lng": 126.895
          }
        ]
      },
      "map_detail": {
        "hotel": {
          "name_en": "J2 Us#1",
          "lat": 37.65406818266528,
          "lng": 126.77958126230457
        },
        "venue": {
          "name_en": "Goyang Stadium",
          "lat": 37.6556,
          "lng": 126.7714
        },
        "nearby_spots": [
          {
            "name_en": "Ilsan Food Street",
            "category": "restaurant",
            "spot_tag": "Local Eats",
            "lat": 37.658,
            "lng": 126.772,
            "distance_km": 0.8
          },
          {
            "name_en": "La Festa Cafes",
            "category": "cafe",
            "spot_tag": "Trendy Cafe",
            "lat": 37.6572,
            "lng": 126.771,
            "distance_km": 0.8
          },
          {
            "name_en": "La Festa Restaurants",
            "category": "restaurant",
            "spot_tag": "Dining Hub",
            "lat": 37.6575,
            "lng": 126.7705,
            "distance_km": 0.9
          },
          {
            "name_en": "Western Dom Food Court",
            "category": "restaurant",
            "spot_tag": "Food Court",
            "lat": 37.663,
            "lng": 126.762,
            "distance_km": 1.8
          },
          {
            "name_en": "Ilsan Lake Park Cafe Street",
            "category": "cafe",
            "spot_tag": "Lake View",
            "lat": 37.659,
            "lng": 126.76,
            "distance_km": 1.8
          }
        ]
      },
      "platform": {
        "name": "Booking.com",
        "booking_url": "https://www.booking.comhttps://www.booking.com/hotel/kr/j2-us-1.ko.html?aid=304142&label=mkt123sc-bdd20f8a-7c44-4913-ac68-156f1cc4f5bc&ucfs=1&arphpl=1&checkin=2026-06-11&checkout=2026-06-13&dest_id=-716583&dest_type=city&group_adults=2&req_adults=2&no_rooms=1&group_children=0&req_children=0&hpos=8&hapos=8&sr_order=price&srpvid=91e6d9a692d3aa270258ba029c021a19&srepoch=1770111323&all_sr_blocks=1574089401_428454246_2_0_0&highlighted_blocks=1574089401_428454246_2_0_0&matching_block_id=1574089401_428454246_2_0_0&sr_pri_blocks=1574089401_428454246_2_0_0__8600000&from=searchresults"
      },
      "booking_guide": {
        "steps_en": [
          "1. Search Goyang hotels",
          "2. Filter by 'Free Cancellation'",
          "3. Select room and enter info",
          "4. Pay online or at property",
          "5. Show confirmation at check-in"
        ],
        "tips_en": [
          "Genius membership for discounts",
          "Free cancellation options"
        ],
        "payment_methods": [
          "Credit Card",
          "Pay at Property"
        ],
        "foreigner_friendly": true
      },
      "last_update": "2026-02-03 09:35:27",
      "nearby": [
        {
          "id": "hotel_34032",
          "name_en": "수정장 여관",
          "price_krw": 31,
          "distance_km": 0.1,
          "image_url": "https://cf.bstatic.com/xdata/images/hotel/square240/576487838.webp?k=a67fcc63fed9e1c41ef7aa8644d2164321e9f7f6fd5683d18bc0f470c953537a&o="
        },
        {
          "id": "hotel_20673",
          "name_en": "루미에르h호텔",
          "price_krw": 33,
          "distance_km": 0.3,
          "image_url": "https://cf.bstatic.com/xdata/images/hotel/square240/798399499.webp?k=ba73f52e9ce3fabcb1ad60c40afdc85eb4981015a66496406e49eac3a66a23d6&o="
        },
        {
          "id": "hotel_32302",
          "name_en": "호스텔 코리아 - 오리지널",
          "price_krw": 31,
          "distance_km": 0.4,
          "image_url": "https://cf.bstatic.com/xdata/images/hotel/square240/136597371.webp?k=23108736ef367db8cb300bf857249eaa70b51fb8ce5efdc3d12f9541429f379d&o="
        }
      ]
    },
    {
      "id": "hotel_32302",
      "name_en": "호스텔 코리아 - 오리지널",
      "price_krw": 31,
      "rating": 5.65,
      "image_url": "https://cf.bstatic.com/xdata/images/hotel/square240/136597371.webp?k=23108736ef367db8cb300bf857249eaa70b51fb8ce5efdc3d12f9541429f379d&o=",
      "rooms_left": -1,
      "is_available": true,
      "hotel_type": {
        "label_en": "Hotel",
        "color": "#4A90D9"
      },
      "cancellation": {
        "type": "free",
        "label_en": "Free Cancellation",
        "label_kr": "무료 취소",
        "is_refundable": true
      },
      "tags": {
        "list_en": [
          "#FreeCancellation",
          "#ARMYPopular",
          "#WalkToVenue"
        ],
        "list_kr": [
          "#취소가능",
          "#아미인기",
          "#도보가능"
        ],
        "display_en": "#FreeCancellation #ARMYPopular #WalkToVenue",
        "display_kr": "#취소가능 #아미인기 #도보가능"
      },
      "lat": 37.65125274781637,
      "lng": 126.77771349912148,
      "location": {
        "area_en": "Hongdae",
        "area_kr": "홍대",
        "address_en": "Hongdae, Seoul",
        "address_kr": "서울 홍대"
      },
      "city_key": "hongdae",
      "army_density": {
        "value": 65,
        "level_en": "High",
        "level_kr": "높음",
        "label_en": "ARMY 65%",
        "label_kr": "아미 65%"
      },
      "distance": {
        "type": "walk",
        "display_en": "Walk 8min",
        "minutes": 8,
        "distance_km": 0.7
      },
      "transport": {
        "station_en": "Jeongbalsan",
        "line_en": "Line 3",
        "line_color": "#EF7C1C",
        "display_en": "Jeongbalsan (Line 3)"
      },
      "safe_return": {
        "venue_en": "Goyang Stadium",
        "route_en": "Walk from Goyang Stadium → Hotel",
        "transport": "walk",
        "time_min": 8,
        "last_train": "23:50",
        "taxi_krw": 0
      },
      "army_local_guide": {
        "bts": [
          {
            "name_en": "MBC Sangam",
            "spot_tag": "Music Show",
            "description_en": "Music show filming",
            "distance_km": 12.9,
            "lat": 37.5786,
            "lng": 126.8918
          },
          {
            "name_en": "Hongdae Busking Street",
            "spot_tag": "Trainee Memory",
            "description_en": "Pre-debut busking spot",
            "distance_km": 16.5,
            "lat": 37.5563,
            "lng": 126.922
          },
          {
            "name_en": "Gwangjang Market",
            "spot_tag": "Debut Memory",
            "description_en": "2013 debut location",
            "distance_km": 22.4,
            "lat": 37.57,
            "lng": 127.0098
          }
        ],
        "restaurant": [
          {
            "name_en": "Ilsan Food Street",
            "spot_tag": "Local Eats",
            "description_en": "Local food street",
            "distance_km": 0.9,
            "lat": 37.658,
            "lng": 126.772
          },
          {
            "name_en": "La Festa Restaurants",
            "spot_tag": "Dining Hub",
            "description_en": "Restaurant complex",
            "distance_km": 0.9,
            "lat": 37.6575,
            "lng": 126.7705
          },
          {
            "name_en": "Western Dom Food Court",
            "spot_tag": "Food Court",
            "description_en": "Food court",
            "distance_km": 1.9,
            "lat": 37.663,
            "lng": 126.762
          }
        ],
        "cafe": [
          {
            "name_en": "La Festa Cafes",
            "spot_tag": "Trendy Cafe",
            "description_en": "Trendy cafes",
            "distance_km": 0.9,
            "lat": 37.6572,
            "lng": 126.771
          },
          {
            "name_en": "Ilsan Lake Park Cafe Street",
            "spot_tag": "Lake View",
            "description_en": "Scenic cafes",
            "distance_km": 1.8,
            "lat": 37.659,
            "lng": 126.76
          }
        ],
        "hotspot": [
          {
            "name_en": "Ilsan Lake Park",
            "spot_tag": "Must Visit",
            "description_en": "Beautiful lake park",
            "distance_km": 1.8,
            "lat": 37.658,
            "lng": 126.759
          },
          {
            "name_en": "One Mount",
            "spot_tag": "Entertainment",
            "description_en": "Theme park",
            "distance_km": 2.8,
            "lat": 37.665,
            "lng": 126.751
          },
          {
            "name_en": "Starfield Goyang",
            "spot_tag": "Shopping",
            "description_en": "Shopping mall",
            "distance_km": 10.3,
            "lat": 37.645,
            "lng": 126.895
          }
        ]
      },
      "map_detail": {
        "hotel": {
          "name_en": "호스텔 코리아 - 오리지널",
          "lat": 37.65125274781637,
          "lng": 126.77771349912148
        },
        "venue": {
          "name_en": "Goyang Stadium",
          "lat": 37.6556,
          "lng": 126.7714
        },
        "nearby_spots": [
          {
            "name_en": "Ilsan Food Street",
            "category": "restaurant",
            "spot_tag": "Local Eats",
            "lat": 37.658,
            "lng": 126.772,
            "distance_km": 0.9
          },
          {
            "name_en": "La Festa Restaurants",
            "category": "restaurant",
            "spot_tag": "Dining Hub",
            "lat": 37.6575,
            "lng": 126.7705,
            "distance_km": 0.9
          },
          {
            "name_en": "La Festa Cafes",
            "category": "cafe",
            "spot_tag": "Trendy Cafe",
            "lat": 37.6572,
            "lng": 126.771,
            "distance_km": 0.9
          },
          {
            "name_en": "Ilsan Lake Park Cafe Street",
            "category": "cafe",
            "spot_tag": "Lake View",
            "lat": 37.659,
            "lng": 126.76,
            "distance_km": 1.8
          },
          {
            "name_en": "Ilsan Lake Park",
            "category": "hotspot",
            "spot_tag": "Must Visit",
            "lat": 37.658,
            "lng": 126.759,
            "distance_km": 1.8
          }
        ]
      },
      "platform": {
        "name": "Booking.com",
        "booking_url": "https://www.booking.comhttps://www.booking.com/hotel/kr/hostel-korea-original.ko.html?aid=304142&label=mkt123sc-bdd20f8a-7c44-4913-ac68-156f1cc4f5bc&ucfs=1&arphpl=1&checkin=2026-06-11&checkout=2026-06-13&dest_id=-716583&dest_type=city&group_adults=2&req_adults=2&no_rooms=1&group_children=0&req_children=0&hpos=9&hapos=9&sr_order=price&srpvid=91e6d9a692d3aa270258ba029c021a19&srepoch=1770111323&all_sr_blocks=54842503_359105894_0_1_0&highlighted_blocks=54842503_359105894_0_1_0&matching_block_id=54842503_359105894_0_1_0&sr_pri_blocks=54842503_359105894_0_1_0__8981818&from=searchresults"
      },
      "booking_guide": {
        "steps_en": [
          "1. Search Goyang hotels",
          "2. Filter by 'Free Cancellation'",
          "3. Select room and enter info",
          "4. Pay online or at property",
          "5. Show confirmation at check-in"
        ],
        "tips_en": [
          "Genius membership for discounts",
          "Free cancellation options"
        ],
        "payment_methods": [
          "Credit Card",
          "Pay at Property"
        ],
        "foreigner_friendly": true
      },
      "last_update": "2026-02-03 09:35:27",
      "nearby": [
        {
          "id": "hotel_20673",
          "name_en": "루미에르h호텔",
          "price_krw": 33,
          "distance_km": 0.1,
          "image_url": "https://cf.bstatic.com/xdata/images/hotel/square240/798399499.webp?k=ba73f52e9ce3fabcb1ad60c40afdc85eb4981015a66496406e49eac3a66a23d6&o="
        },
        {
          "id": "hotel_91733",
          "name_en": "아마존 게스트하우스",
          "price_krw": 32,
          "distance_km": 0.2,
          "image_url": "https://cf.bstatic.com/xdata/images/hotel/square240/204809971.webp?k=2076895c90fbe62ff827488d80e3c0ed366c172052bce07cf491528f6f2577b3&o="
        },
        {
          "id": "hotel_35712",
          "name_en": "J2 Us#1",
          "price_krw": 26,
          "distance_km": 0.4,
          "image_url": "https://cf.bstatic.com/xdata/images/hotel/square240/816706261.webp?k=7757757d41fa086e07cea3037beb0013f5f00d6af21059eff4a7323af0a1f3ed&o="
        }
      ]
    },