{
  "home": {
    "venue": {
      "name_en": "Goyang Stadium",
      "name_kr": "고양종합운동장",
      "lat": 37.6556,
      "lng": 126.7714
    },
    "available_count": 45,
    "total_count": 48,
    "lowest_price_krw": 25000,
    "last_update": "2026-02-06 11:29:19"
  },
  "map": {
    "venue": {
      "name_en": "Goyang Stadium",
      "lat": 37.6556,
      "lng": 126.7714,
      "type": "venue"
    },
    "local_spots": [
      {
        "name_en": "HYBE INSIGHT",
        "category": "bts",
        "spot_tag": "BTS Museum",
        "lat": 37.526,
        "lng": 127.0405
      },
      {
        "name_en": "HYBE Headquarters",
        "category": "bts",
        "spot_tag": "BTS Home",
        "lat": 37.528,
        "lng": 127.04
      },
      {
        "name_en": "Hongdae Busking Street",
        "category": "bts",
        "spot_tag": "Trainee Memory",
        "lat": 37.5563,
        "lng": 126.922
      },
      {
        "name_en": "MBC Sangam",
        "category": "bts",
        "spot_tag": "Music Show",
        "lat": 37.5786,
        "lng": 126.8918
      },
      {
        "name_en": "Gwangjang Market",
        "category": "bts",
        "spot_tag": "Debut Memory",
        "lat": 37.57,
        "lng": 127.0098
      },
      {
        "name_en": "Ilsan Food Street",
        "category": "restaurant",
        "spot_tag": "Local Eats",
        "lat": 37.658,
        "lng": 126.772
      },
      {
        "name_en": "La Festa Restaurants",
        "category": "restaurant",
        "spot_tag": "Dining Hub",
        "lat": 37.6575,
        "lng": 126.7705
      },
      {
        "name_en": "Western Dom Food Court",
        "category": "restaurant",
        "spot_tag": "Food Court",
        "lat": 37.663,
        "lng": 126.762
      },
      {
        "name_en": "Ilsan Lake Park Cafe Street",
        "category": "cafe",
        "spot_tag": "Lake View",
        "lat": 37.659,
        "lng": 126.76
      },
      {
        "name_en": "La Festa Cafes",
        "category": "cafe",
        "spot_tag": "Trendy Cafe",
        "lat": 37.6572,
        "lng": 126.771
      },
      {
        "name_en": "Ilsan Lake Park",
        "category": "hotspot",
        "spot_tag": "Must Visit",
        "lat": 37.658,
        "lng": 126.759
      },
      {
        "name_en": "One Mount",
        "category": "hotspot",
        "spot_tag": "Entertainment",
        "lat": 37.665,
        "lng": 126.751
      },
      {
        "name_en": "Starfield Goyang",
        "category": "hotspot",
        "spot_tag": "Shopping",
        "lat": 37.645,
        "lng": 126.895
      }
    ],
    "hotels": [
      {
        "id": "hotel_50127",
        "name_en": "La Festa Residence",
        "lat": 37.6575,
        "lng": 126.7705,
        "price_krw": 95000
      },
      {
        "id": "hotel_11548",
        "name_en": "Ilsan Hotel M",
        "lat": 37.654,
        "lng": 126.773,
        "price_krw": 72000
      },
      {
        "id": "hotel_90429",
        "name_en": "Goyang Airbnb Studio",
        "lat": 37.656,
        "lng": 126.769,
        "price_krw": 58000
      },
      {
        "id": "hotel_94444",
        "name_en": "Sono Calm Goyang",
        "lat": 37.658,
        "lng": 126.77,
        "price_krw": 135000
      },
      {
        "id": "hotel_69056",
        "name_en": "Antives Hotel Ilsan",
        "lat": 37.6555,
        "lng": 126.775,
        "price_krw": 75000
      },
      {
        "id": "hotel_71505",
        "name_en": "Yellow 8 Hotel Goyang",
        "lat": 37.652,
        "lng": 126.768,
        "price_krw": 55000
      },
      {
        "id": "hotel_62639",
        "name_en": "Ilsan Lake Park View",
        "lat": 37.6585,
        "lng": 126.765,
        "price_krw": 85000
      },
      {
        "id": "hotel_23754",
        "name_en": "Ramada Encore Goyang",
        "lat": 37.662,
        "lng": 126.76,
        "price_krw": 115000
      },
      {
        "id": "hotel_39464",
        "name_en": "Best Western Premier Guro",
        "lat": 37.665,
        "lng": 126.752,
        "price_krw": 125000
      },
      {
        "id": "hotel_57792",
        "name_en": "Hotel Claum Ilsan",
        "lat": 37.6715,
        "lng": 126.7495,
        "price_krw": 68000
      },
      {
        "id": "hotel_18000",
        "name_en": "Kintex by K-Tree",
        "lat": 37.6693,
        "lng": 126.7458,
        "price_krw": 89000
      },
      {
        "id": "hotel_60393",
        "name_en": "MVL Hotel Kintex",
        "lat": 37.6701,
        "lng": 126.7445,
        "price_krw": 195000
      },
      {
        "id": "hotel_67528",
        "name_en": "Paju Farm Stay",
        "lat": 37.715,
        "lng": 126.725,
        "price_krw": 78000
      },
      {
        "id": "hotel_28475",
        "name_en": "Lotte Premium Outlet Paju",
        "lat": 37.718,
        "lng": 126.715,
        "price_krw": 145000
      },
      {
        "id": "hotel_42404",
        "name_en": "Paju Heyri Art Valley Hotel",
        "lat": 37.725,
        "lng": 126.72,
        "price_krw": 98000
      },
      {
        "id": "hotel_71321",
        "name_en": "DMZ Resort Paju",
        "lat": 37.73,
        "lng": 126.71,
        "price_krw": 175000
      },
      {
        "id": "hotel_69526",
        "name_en": "Nine Tree Premier Hotel",
        "lat": 37.56,
        "lng": 126.918,
        "price_krw": 145000
      },
      {
        "id": "hotel_52041",
        "name_en": "Mercure Ambassador Seoul Hongdae",
        "lat": 37.558,
        "lng": 126.921,
        "price_krw": 155000
      },
      {
        "id": "hotel_16441",
        "name_en": "RYSE Autograph Collection",
        "lat": 37.5563,
        "lng": 126.922,
        "price_krw": 280000
      },
      {
        "id": "hotel_11163",
        "name_en": "L7 Hongdae by Lotte",
        "lat": 37.557,
        "lng": 126.9235,
        "price_krw": 165000
      },
      {
        "id": "hotel_63523",
        "name_en": "Hongdae Purple House",
        "lat": 37.5545,
        "lng": 126.92,
        "price_krw": 45000
      },
      {
        "id": "hotel_36529",
        "name_en": "Marigold Hotel Hongdae",
        "lat": 37.5535,
        "lng": 126.9195,
        "price_krw": 89000
      },
      {
        "id": "hotel_85088",
        "name_en": "Hongdae Stay Inn",
        "lat": 37.556,
        "lng": 126.924,
        "price_krw": 62000
      },
      {
        "id": "hotel_60509",
        "name_en": "Zzzip Guesthouse Hongdae",
        "lat": 37.555,
        "lng": 126.9225,
        "price_krw": 28000
      },
      {
        "id": "hotel_55039",
        "name_en": "Hongdae ARMS Residence",
        "lat": 37.554,
        "lng": 126.9215,
        "price_krw": 98000
      },
      {
        "id": "hotel_18646",
        "name_en": "Stanford Hotel Seoul",
        "lat": 37.5555,
        "lng": 126.925,
        "price_krw": 138000
      },
      {
        "id": "hotel_14541",
        "name_en": "Four Seasons Hotel Seoul",
        "lat": 37.576,
        "lng": 126.9769,
        "price_krw": 420000
      },
      {
        "id": "hotel_29546",
        "name_en": "Gwanghwamun Guesthouse",
        "lat": 37.575,
        "lng": 126.9775,
        "price_krw": 55000
      },
      {
        "id": "hotel_14088",
        "name_en": "Somerset Palace Seoul",
        "lat": 37.5755,
        "lng": 126.978,
        "price_krw": 250000
      },
      {
        "id": "hotel_45683",
        "name_en": "Fraser Place Central Seoul",
        "lat": 37.5665,
        "lng": 126.9795,
        "price_krw": 195000
      },
      {
        "id": "hotel_00885",
        "name_en": "Lotte Hotel Seoul",
        "lat": 37.5659,
        "lng": 126.9805,
        "price_krw": 320000
      },
      {
        "id": "hotel_51755",
        "name_en": "The Westin Chosun Seoul",
        "lat": 37.5658,
        "lng": 126.9813,
        "price_krw": 380000
      },
      {
        "id": "hotel_58575",
        "name_en": "Glad Live Gangnam",
        "lat": 37.546,
        "lng": 127.054,
        "price_krw": 155000
      },
      {
        "id": "hotel_62137",
        "name_en": "Hotel Cappuccino Seongsu",
        "lat": 37.5443,
        "lng": 127.0557,
        "price_krw": 175000
      },
      {
        "id": "hotel_90710",
        "name_en": "Seongsu Urban Stay",
        "lat": 37.5435,
        "lng": 127.055,
        "price_krw": 125000
      },
      {
        "id": "hotel_47502",
        "name_en": "Ttukseom Guesthouse",
        "lat": 37.544,
        "lng": 127.0545,
        "price_krw": 48000
      },
      {
        "id": "hotel_35597",
        "name_en": "Seongsu Stay",
        "lat": 37.545,
        "lng": 127.0565,
        "price_krw": 95000
      },
      {
        "id": "hotel_06470",
        "name_en": "Seongsu Boutique Hotel",
        "lat": 37.5455,
        "lng": 127.057,
        "price_krw": 145000
      },
      {
        "id": "hotel_73782",
        "name_en": "Park Hyatt Busan",
        "lat": 35.1631,
        "lng": 129.1636,
        "price_krw": 350000
      },
      {
        "id": "hotel_38126",
        "name_en": "Shilla Stay Haeundae",
        "lat": 35.162,
        "lng": 129.165,
        "price_krw": 185000
      },
      {
        "id": "hotel_61031",
        "name_en": "Lotte Hotel Busan",
        "lat": 35.1615,
        "lng": 129.1635,
        "price_krw": 265000
      },
      {
        "id": "hotel_09008",
        "name_en": "Toyoko Inn Busan Haeundae",
        "lat": 35.16,
        "lng": 129.162,
        "price_krw": 65000
      },
      {
        "id": "hotel_97721",
        "name_en": "Novotel Ambassador Busan",
        "lat": 35.161,
        "lng": 129.164,
        "price_krw": 220000
      },
      {
        "id": "hotel_25091",
        "name_en": "Haeundae Grand Hotel",
        "lat": 35.1625,
        "lng": 129.166,
        "price_krw": 145000
      },
      {
        "id": "hotel_40134",
        "name_en": "Haeundae Seacloud Hotel",
        "lat": 35.1595,
        "lng": 129.1625,
        "price_krw": 165000
      },
      {
        "id": "hotel_88793",
        "name_en": "Busan Backpackers Hostel",
        "lat": 35.158,
        "lng": 129.161,
        "price_krw": 25000
      },
      {
        "id": "hotel_89907",
        "name_en": "Haeundae Beach Airbnb",
        "lat": 35.1605,
        "lng": 129.1645,
        "price_krw": 95000
      },
      {
        "id": "hotel_62980",
        "name_en": "Paradise Hotel Busan",
        "lat": 35.159,
        "lng": 129.168,
        "price_krw": 280000
      }
    ]
  },
  "hotels": [
    {
      "id": "hotel_50127",
      "name_en": "La Festa Residence",
      "price_krw": 95000,
      "rating": 4.2,
      "image_url": "https://images.unsplash.com/photo-1502672260266-1c1ef2d93688?w=800",
      "rooms_left": 2,
      "is_available": true,
      "hotel_type": {
        "label_en": "Residence",
        "color": "#87CEEB"
      },
      "cancellation": {
        "type": "unknown",
        "label_en": "Check Policy",
        "label_kr": "정책 확인",
        "is_refundable": null
      },
      "tags": {
        "list_en": [
          "#ARMYPopular",
          "#WalkToVenue"
        ],
        "list_kr": [
          "#아미인기",
          "#도보가능"
        ],
        "display_en": "#ARMYPopular #WalkToVenue",
        "display_kr": "#아미인기 #도보가능"
      },
      "lat": 37.6575,
      "lng": 126.7705,
      "location": {
        "area_en": "Goyang",
        "area_kr": "고양",
        "address_en": "Goyang, Gyeonggi-do",
        "address_kr": "경기도 고양"
      },
      "city_key": "goyang",
      "army_density": {
        "value": 68,
        "level_en": "High",
        "level_kr": "높음",
        "label_en": "ARMY 68%",
        "label_kr": "아미 68%"
      },
      "distance": {
        "type": "walk",
        "display_en": "Walk 2min",
        "minutes": 2,
        "distance_km": 0.2
      },
      "transport": {
        "station_en": "Jeongbalsan",
        "line_en": "Line 3",
        "line_color": "#EF7C1C",
        "display_en": "Jeongbalsan (Line 3)"
      },
      "safe_return": {
        "venue_en": "Goyang Stadium",
        "route_en": "Walk from Goyang Stadium → Hotel",
        "transport": "walk",
        "time_min": 2,
        "last_train": "23:50",
        "taxi_krw": 0
      },
      "army_local_guide": {
        "bts": [
          {
            "name_en": "MBC Sangam",
            "spot_tag": "Music Show",
            "description_en": "Music show filming",
            "distance_km": 13.8,
            "lat": 37.5786,
            "lng": 126.8918
          },
          {
            "name_en": "Hongdae Busking Street",
            "spot_tag": "Trainee Memory",
            "description_en": "Pre-debut busking spot",
            "distance_km": 17.5,
            "lat": 37.5563,
            "lng": 126.922
          },
          {
            "name_en": "Gwangjang Market",
            "spot_tag": "Debut Memory",
            "description_en": "2013 debut location",
            "distance_km": 23.2,
            "lat": 37.57,
            "lng": 127.0098
          }
        ],
        "restaurant": [
          {
            "name_en": "La Festa Restaurants",
            "spot_tag": "Dining Hub",
            "description_en": "Restaurant complex",
            "distance_km": 0.0,
            "lat": 37.6575,
            "lng": 126.7705
          },
          {
            "name_en": "Ilsan Food Street",
            "spot_tag": "Local Eats",
            "description_en": "Local food street",
            "distance_km": 0.1,
            "lat": 37.658,
            "lng": 126.772
          },
          {
            "name_en": "Western Dom Food Court",
            "spot_tag": "Food Court",
            "description_en": "Food court",
            "distance_km": 1.0,
            "lat": 37.663,
            "lng": 126.762
          }
        ],
        "cafe": [
          {
            "name_en": "La Festa Cafes",
            "spot_tag": "Trendy Cafe",
            "description_en": "Trendy cafes",
            "distance_km": 0.1,
            "lat": 37.6572,
            "lng": 126.771
          },
          {
            "name_en": "Ilsan Lake Park Cafe Street",
            "spot_tag": "Lake View",
            "description_en": "Scenic cafes",
            "distance_km": 0.9,
            "lat": 37.659,
            "lng": 126.76
          }
        ],
        "hotspot": [
          {
            "name_en": "Ilsan Lake Park",
            "spot_tag": "Must Visit",
            "description_en": "Beautiful lake park",
            "distance_km": 1.0,
            "lat": 37.658,
            "lng": 126.759
          },
          {
            "name_en": "One Mount",
            "spot_tag": "Entertainment",
            "description_en": "Theme park",
            "distance_km": 1.9,
            "lat": 37.665,
            "lng": 126.751
          },
          {
            "name_en": "Starfield Goyang",
            "spot_tag": "Shopping",
            "description_en": "Shopping mall",
            "distance_km": 11.0,
            "lat": 37.645,
            "lng": 126.895
          }
        ]
      },
      "map_detail": {
        "hotel": {
          "name_en": "La Festa Residence",
          "lat": 37.6575,
          "lng": 126.7705
        },
        "venue": {
          "name_en": "Goyang Stadium",
          "lat": 37.6556,
          "lng": 126.7714
        },
        "nearby_spots": [
          {
            "name_en": "La Festa Restaurants",
            "category": "restaurant",
            "spot_tag": "Dining Hub",
            "lat": 37.6575,
            "lng": 126.7705,
            "distance_km": 0.0
          },
          {
            "name_en": "Ilsan Food Street",
            "category": "restaurant",
            "spot_tag": "Local Eats",
            "lat": 37.658,
            "lng": 126.772,
            "distance_km": 0.1
          },
          {
            "name_en": "La Festa Cafes",
            "category": "cafe",
            "spot_tag": "Trendy Cafe",
            "lat": 37.6572,
            "lng": 126.771,
            "distance_km": 0.1
          },
          {
            "name_en": "Ilsan Lake Park Cafe Street",
            "category": "cafe",
            "spot_tag": "Lake View",
            "lat": 37.659,
            "lng": 126.76,
            "distance_km": 0.9
          },
          {
            "name_en": "Western Dom Food Court",
            "category": "restaurant",
            "spot_tag": "Food Court",
            "lat": 37.663,
            "lng": 126.762,
            "distance_km": 1.0
          }
        ]
      },
      "platform": {
        "name": "Expedia",
        "booking_url": "https://www.expedia.com/Goyang-Hotels-La-Festa.h12345.Hotel-Information"
      },
      "booking_guide": {
        "steps_en": [
          "1. Select dates and search",
          "2. Choose room, click 'Book Now'",
          "3. Enter passport name",
          "4. Pay with credit card or PayPal",
          "5. Get instant confirmation"
        ],
        "tips_en": [
          "Pay at Hotel option available",
          "Check cancellation policy"
        ],
        "payment_methods": [
          "Credit Card",
          "PayPal",
          "Pay at Hotel"
        ],
        "foreigner_friendly": true
      },
      "last_update": "2026-02-06 11:29:19",
      "nearby": [
        {
          "id": "hotel_94444",
          "name_en": "Sono Calm Goyang",
          "price_krw": 135000,
          "distance_km": 0.1,
          "image_url": "https://images.unsplash.com/photo-1551882547-ff40c63fe5fa?w=800"
        },
        {
          "id": "hotel_90429",
          "name_en": "Goyang Airbnb Studio",
          "price_krw": 58000,
          "distance_km": 0.2,
          "image_url": "https://images.unsplash.com/photo-1501183638710-841dd1904471?w=800"
        },
        {
          "id": "hotel_11548",
          "name_en": "Ilsan Hotel M",
          "price_krw": 72000,
          "distance_km": 0.4,
          "image_url": "https://images.unsplash.com/photo-1631049307264-da0ec9d70304?w=800"
        }
      ]
    },
    {
      "id": "hotel_11548",
      "name_en": "Ilsan Hotel M",
      "price_krw": 72000,
      "rating": 3.9,
      "image_url": "https://images.unsplash.com/photo-1631049307264-da0ec9d70304?w=800",
      "rooms_left": 10,
      "is_available": true,
      "hotel_type": {
        "label_en": "3-Star Hotel",
        "color": "#CD7F32"
      },
      "cancellation": {
        "type": "partial",
        "label_en": "Partial Refund",
        "label_kr": "부분 환불",
        "is_refundable": true
      },
      "tags": {
        "list_en": [
          "#ARMYPopular",
          "#WalkToVenue"
        ],
        "list_kr": [
          "#아미인기",
          "#도보가능"
        ],
        "display_en": "#ARMYPopular #WalkToVenue",
        "display_kr": "#아미인기 #도보가능"
      },
      "lat": 37.654,
      "lng": 126.773,
      "location": {
        "area_en": "Goyang",
        "area_kr": "고양",
        "address_en": "Goyang, Gyeonggi-do",
        "address_kr": "경기도 고양"
      },
      "city_key": "goyang",
      "army_density": {
        "value": 65,
        "level_en": "High",
        "level_kr": "높음",
        "label_en": "ARMY 65%",
        "label_kr": "아미 65%"
      },
      "distance": {
        "type": "walk",
        "display_en": "Walk 2min",
        "minutes": 2,
        "distance_km": 0.2
      },
      "transport": {
        "station_en": "Jeongbalsan",
        "line_en": "Line 3",
        "line_color": "#EF7C1C",
        "display_en": "Jeongbalsan (Line 3)"
      },
      "safe_return": {
        "venue_en": "Goyang Stadium",
        "route_en": "Walk from Goyang Stadium → Hotel",
        "transport": "walk",
        "time_min": 2,
        "last_train": "23:50",
        "taxi_krw": 0
      },
      "army_local_guide": {
        "bts": [
          {
            "name_en": "MBC Sangam",
            "spot_tag": "Music Show",
            "description_en": "Music show filming",
            "distance_km": 13.4,
            "lat": 37.5786,
            "lng": 126.8918
          },
          {
            "name_en": "Hongdae Busking Street",
            "spot_tag": "Trainee Memory",
            "description_en": "Pre-debut busking spot",
            "distance_km": 17.0,
            "lat": 37.5563,
            "lng": 126.922
          },
          {
            "name_en": "Gwangjang Market",
            "spot_tag": "Debut Memory",
            "description_en": "2013 debut location",
            "distance_km": 22.9,
            "lat": 37.57,
            "lng": 127.0098
          }
        ],
        "restaurant": [
          {
            "name_en": "La Festa Restaurants",
            "spot_tag": "Dining Hub",
            "description_en": "Restaurant complex",
            "distance_km": 0.4,
            "lat": 37.6575,
            "lng": 126.7705
          },
          {
            "name_en": "Ilsan Food Street",
            "spot_tag": "Local Eats",
            "description_en": "Local food street",
            "distance_km": 0.5,
            "lat": 37.658,
            "lng": 126.772
          },
          {
            "name_en": "Western Dom Food Court",
            "spot_tag": "Food Court",
            "description_en": "Food court",
            "distance_km": 1.4,
            "lat": 37.663,
            "lng": 126.762
          }
        ],
        "cafe": [
          {
            "name_en": "La Festa Cafes",
            "spot_tag": "Trendy Cafe",
            "description_en": "Trendy cafes",
            "distance_km": 0.4,
            "lat": 37.6572,
            "lng": 126.771
          },
          {
            "name_en": "Ilsan Lake Park Cafe Street",
            "spot_tag": "Lake View",
            "description_en": "Scenic cafes",
            "distance_km": 1.3,
            "lat": 37.659,
            "lng": 126.76
          }
        ],
        "hotspot": [
          {
            "name_en": "Ilsan Lake Park",
            "spot_tag": "Must Visit",
            "description_en": "Beautiful lake park",
            "distance_km": 1.3,
            "lat": 37.658,
            "lng": 126.759
          },
          {
            "name_en": "One Mount",
            "spot_tag": "Entertainment",
            "description_en": "Theme park",
            "distance_km": 2.3,
            "lat": 37.665,
            "lng": 126.751
          },
          {
            "name_en": "Starfield Goyang",
            "spot_tag": "Shopping",
            "description_en": "Shopping mall",
            "distance_km": 10.8,
            "lat": 37.645,
            "lng": 126.895
          }
        ]
      },
      "map_detail": {
        "hotel": {
          "name_en": "Ilsan Hotel M",
          "lat": 37.654,
          "lng": 126.773
        },
        "venue": {
          "name_en": "Goyang Stadium",
          "lat": 37.6556,
          "lng": 126.7714
        },
        "nearby_spots": [
          {
            "name_en": "La Festa Restaurants",
            "category": "restaurant",
            "spot_tag": "Dining Hub",
            "lat": 37.6575,
            "lng": 126.7705,
            "distance_km": 0.4
          },
          {
            "name_en": "La Festa Cafes",
            "category": "cafe",
            "spot_tag": "Trendy Cafe",
            "lat": 37.6572,
            "lng": 126.771,
            "distance_km": 0.4
          },
          {
            "name_en": "Ilsan Food Street",
            "category": "restaurant",
            "spot_tag": "Local Eats",
            "lat": 37.658,
            "lng": 126.772,
            "distance_km": 0.5
          },
          {
            "name_en": "Ilsan Lake Park Cafe Street",
            "category": "cafe",
            "spot_tag": "Lake View",
            "lat": 37.659,
            "lng": 126.76,
            "distance_km": 1.3
          },
          {
            "name_en": "Ilsan Lake Park",
            "category": "hotspot",
            "spot_tag": "Must Visit",
            "lat": 37.658,
            "lng": 126.759,
            "distance_km": 1.3
          }
        ]
      },
      "platform": {
        "name": "야놀자",
        "booking_url": "https://www.yanolja.com/hotel/ilsan-hotel-m"
      },
      "booking_guide": {
        "steps_en": [
          "1. Download Yanolja app",
          "2. Search '고양' for hotels",
          "3. Select dates and room",
          "4. Register with phone number",
          "5. Pay with card"
        ],
        "tips_en": [
          "App has English option",
          "Some require Korean phone"
        ],
        "payment_methods": [
          "Credit Card",
          "Korean Pay"
        ],
        "foreigner_friendly": "partial"
      },
      "last_update": "2026-02-06 11:29:19",
      "nearby": [
        {
          "id": "hotel_69056",
          "name_en": "Antives Hotel Ilsan",
          "price_krw": 75000,
          "distance_km": 0.2,
          "image_url": "https://images.unsplash.com/photo-1631049307264-da0ec9d70304?w=800"
        },
        {
          "id": "hotel_50127",
          "name_en": "La Festa Residence",
          "price_krw": 95000,
          "distance_km": 0.4,
          "image_url": "https://images.unsplash.com/photo-1502672260266-1c1ef2d93688?w=800"
        },
        {
          "id": "hotel_90429",
          "name_en": "Goyang Airbnb Studio",
          "price_krw": 58000,
          "distance_km": 0.4,
          "image_url": "https://images.unsplash.com/photo-1501183638710-841dd1904471?w=800"
        }
      ]
    },
    {
      "id": "hotel_90429",
      "name_en": "Goyang Airbnb Studio",
      "price_krw": 58000,
      "rating": 4.4,
      "image_url": "https://images.unsplash.com/photo-1501183638710-841dd1904471?w=800",
      "rooms_left": 1,
      "is_available": true,
      "hotel_type": {
        "label_en": "Airbnb",
        "color": "#FF5A5F"
      },
      "cancellation": {
        "type": "partial",
        "label_en": "Partial Refund",
        "label_kr": "부분 환불",
        "is_refundable": true
      },
      "tags": {
        "list_en": [
          "#ARMYPopular",
          "#WalkToVenue",
          "#LocalLife"
        ],
        "list_kr": [
          "#아미인기",
          "#도보가능",
          "#현지생활"
        ],
        "display_en": "#ARMYPopular #WalkToVenue #LocalLife",
        "display_kr": "#아미인기 #도보가능 #현지생활"
      },
      "lat": 37.656,
      "lng": 126.769,
      "location": {
        "area_en": "Goyang",
        "area_kr": "고양",
        "address_en": "Goyang, Gyeonggi-do",
        "address_kr": "경기도 고양"
      },
      "city_key": "goyang",
      "army_density": {
        "value": 70,
        "level_en": "High",
        "level_kr": "높음",
        "label_en": "ARMY 70%",
        "label_kr": "아미 70%"
      },
      "distance": {
        "type": "walk",
        "display_en": "Walk 2min",
        "minutes": 2,
        "distance_km": 0.2
      },
      "transport": {
        "station_en": "Jeongbalsan",
        "line_en": "Line 3",
        "line_color": "#EF7C1C",
        "display_en": "Jeongbalsan (Line 3)"
      },
      "safe_return": {
        "venue_en": "Goyang Stadium",
        "route_en": "Walk from Goyang Stadium → Hotel",
        "transport": "walk",
        "time_min": 2,
        "last_train": "23:50",
        "taxi_krw": 0
      },
      "army_local_guide": {
        "bts": [
          {
            "name_en": "MBC Sangam",
            "spot_tag": "Music Show",
            "description_en": "Music show filming",
            "distance_km": 13.8,
            "lat": 37.5786,
            "lng": 126.8918
          },
          {
            "name_en": "Hongdae Busking Street",
            "spot_tag": "Trainee Memory",
            "description_en": "Pre-debut busking spot",
            "distance_km": 17.5,
            "lat": 37.5563,
            "lng": 126.922
          },
          {
            "name_en": "Gwangjang Market",
            "spot_tag": "Debut Memory",
            "description_en": "2013 debut location",
            "distance_km": 23.3,
            "lat": 37.57,
            "lng": 127.0098
          }
        ],
        "restaurant": [
          {
            "name_en": "La Festa Restaurants",
            "spot_tag": "Dining Hub",
            "description_en": "Restaurant complex",
            "distance_km": 0.2,
            "lat": 37.6575,
            "lng": 126.7705
          },
          {
            "name_en": "Ilsan Food Street",
            "spot_tag": "Local Eats",
            "description_en": "Local food street",
            "distance_km": 0.3,
            "lat": 37.658,
            "lng": 126.772
          },
          {
            "name_en": "Western Dom Food Court",
            "spot_tag": "Food Court",
            "description_en": "Food court",
            "distance_km": 1.0,
            "lat": 37.663,
            "lng": 126.762
          }
        ],
        "cafe": [
          {
            "name_en": "La Festa Cafes",
            "spot_tag": "Trendy Cafe",
            "description_en": "Trendy cafes",
            "distance_km": 0.2,
            "lat": 37.6572,
            "lng": 126.771
          },
          {
            "name_en": "Ilsan Lake Park Cafe Street",
            "spot_tag": "Lake View",
            "description_en": "Scenic cafes",
            "distance_km": 0.9,
            "lat": 37.659,
            "lng": 126.76
          }
        ],
        "hotspot": [
          {
            "name_en": "Ilsan Lake Park",
            "spot_tag": "Must Visit",
            "description_en": "Beautiful lake park",
            "distance_km": 0.9,
            "lat": 37.658,
            "lng": 126.759
          },
          {
            "name_en": "One Mount",
            "spot_tag": "Entertainment",
            "description_en": "Theme park",
            "distance_km": 1.9,
            "lat": 37.665,
            "lng": 126.751
          },
          {
            "name_en": "Starfield Goyang",
            "spot_tag": "Shopping",
            "description_en": "Shopping mall",
            "distance_km": 11.2,
            "lat": 37.645,
            "lng": 126.895
          }
        ]
      },
      "map_detail": {
        "hotel": {
          "name_en": "Goyang Airbnb Studio",
          "lat": 37.656,
          "lng": 126.769
        },
        "venue": {
          "name_en": "Goyang Stadium",
          "lat": 37.6556,
          "lng": 126.7714
        },
        "nearby_spots": [
          {
            "name_en": "La Festa Restaurants",
            "category": "restaurant",
            "spot_tag": "Dining Hub",
            "lat": 37.6575,
            "lng": 126.7705,
            "distance_km": 0.2
          },
          {
            "name_en": "La Festa Cafes",
            "category": "cafe",
            "spot_tag": "Trendy Cafe",
            "lat": 37.6572,
            "lng": 126.771,
            "distance_km": 0.2
          },
          {
            "name_en": "Ilsan Food Street",
            "category": "restaurant",
            "spot_tag": "Local Eats",
            "lat": 37.658,
            "lng": 126.772,
            "distance_km": 0.3
          },
          {
            "name_en": "Ilsan Lake Park Cafe Street",
            "category": "cafe",
            "spot_tag": "Lake View",
            "lat": 37.659,
            "lng": 126.76,
            "distance_km": 0.9
          },
          {
            "name_en": "Ilsan Lake Park",
            "category": "hotspot",
            "spot_tag": "Must Visit",
            "lat": 37.658,
            "lng": 126.759,
            "distance_km": 0.9
          }
        ]
      },
      "platform": {
        "name": "여기어때",
        "booking_url": "https://www.goodchoice.kr/product/detail?ano=12345"
      },
      "booking_guide": {
        "steps_en": [
          "1. Use GoodChoice app/website",
          "2. Search Goyang area",
          "3. Select room type",
          "4. Enter booking info",
          "5. Pay and confirm"
        ],
        "tips_en": [
          "Limited English",
          "Use Papago translator"
        ],
        "payment_methods": [
          "Credit Card",
          "Korean Pay"
        ],
        "foreigner_friendly": "limited"
      },
      "last_update": "2026-02-06 11:29:19",
      "nearby": [
        {
          "id": "hotel_94444",
          "name_en": "Sono Calm Goyang",
          "price_krw": 135000,
          "distance_km": 0.2,
          "image_url": "https://images.unsplash.com/photo-1551882547-ff40c63fe5fa?w=800"
        },
        {
          "id": "hotel_50127",
          "name_en": "La Festa Residence",
          "price_krw": 95000,
          "distance_km": 0.2,
          "image_url": "https://images.unsplash.com/photo-1502672260266-1c1ef2d93688?w=800"
        },
        {
          "id": "hotel_11548",
          "name_en": "Ilsan Hotel M",
          "price_krw": 72000,
          "distance_km": 0.4,
          "image_url": "https://images.unsplash.com/photo-1631049307264-da0ec9d70304?w=800"
        }
      ]
    },
    {
      "id": "hotel_94444",
      "name_en": "Sono Calm Goyang",
      "price_krw": 135000,
      "rating": 4.5,
      "image_url": "https://images.unsplash.com/photo-1551882547-ff40c63fe5fa?w=800",
      "rooms_left": 3,
      "is_available": true,
      "hotel_type": {
        "label_en": "4-Star Hotel",
        "color": "#C0C0C0"
      },
      "cancellation": {
        "type": "free",
        "label_en": "Free Cancellation",
        "label_kr": "무료 취소",
        "is_refundable": true
      },
      "tags": {
        "list_en": [
          "#FreeCancellation",
          "#WalkToVenue"
        ],
        "list_kr": [
          "#취소가능",
          "#도보가능"
        ],
        "display_en": "#FreeCancellation #WalkToVenue",
        "display_kr": "#취소가능 #도보가능"
      },
      "lat": 37.658,
      "lng": 126.77,
      "location": {
        "area_en": "Goyang",
        "area_kr": "고양",
        "address_en": "Goyang, Gyeonggi-do",
        "address_kr": "경기도 고양"
      },
      "city_key": "goyang",
      "army_density": {
        "value": 63,
        "level_en": "Medium",
        "level_kr": "보통",
        "label_en": "ARMY 63%",
        "label_kr": "아미 63%"
      },
      "distance": {
        "type": "walk",
        "display_en": "Walk 3min",
        "minutes": 3,
        "distance_km": 0.3
      },
      "transport": {
        "station_en": "Jeongbalsan",
        "line_en": "Line 3",
        "line_color": "#EF7C1C",
        "display_en": "Jeongbalsan (Line 3)"
      },
      "safe_return": {
        "venue_en": "Goyang Stadium",
        "route_en": "Walk from Goyang Stadium → Hotel",
        "transport": "walk",
        "time_min": 3,
        "last_train": "23:50",
        "taxi_krw": 0
      },
      "army_local_guide": {
        "bts": [
          {
            "name_en": "MBC Sangam",
            "spot_tag": "Music Show",
            "description_en": "Music show filming",
            "distance_km": 13.9,
            "lat": 37.5786,
            "lng": 126.8918
          },
          {
            "name_en": "Hongdae Busking Street",
            "spot_tag": "Trainee Memory",
            "description_en": "Pre-debut busking spot",
            "distance_km": 17.5,
            "lat": 37.5563,
            "lng": 126.922
          },
          {
            "name_en": "Gwangjang Market",
            "spot_tag": "Debut Memory",
            "description_en": "2013 debut location",
            "distance_km": 23.3,
            "lat": 37.57,
            "lng": 127.0098
          }
        ],
        "restaurant": [
          {
            "name_en": "La Festa Restaurants",
            "spot_tag": "Dining Hub",
            "description_en": "Restaurant complex",
            "distance_km": 0.1,
            "lat": 37.6575,
            "lng": 126.7705
          },
          {
            "name_en": "Ilsan Food Street",
            "spot_tag": "Local Eats",
            "description_en": "Local food street",
            "distance_km": 0.2,
            "lat": 37.658,
            "lng": 126.772
          },
          {
            "name_en": "Western Dom Food Court",
            "spot_tag": "Food Court",
            "description_en": "Food court",
            "distance_km": 0.9,
            "lat": 37.663,
            "lng": 126.762
          }
        ],
        "cafe": [
          {
            "name_en": "La Festa Cafes",
            "spot_tag": "Trendy Cafe",
            "description_en": "Trendy cafes",
            "distance_km": 0.1,
            "lat": 37.6572,
            "lng": 126.771
          },
          {
            "name_en": "Ilsan Lake Park Cafe Street",
            "spot_tag": "Lake View",
            "description_en": "Scenic cafes",
            "distance_km": 0.9,
            "lat": 37.659,
            "lng": 126.76
          }
        ],
        "hotspot": [
          {
            "name_en": "Ilsan Lake Park",
            "spot_tag": "Must Visit",
            "description_en": "Beautiful lake park",
            "distance_km": 1.0,
            "lat": 37.658,
            "lng": 126.759
          },
          {
            "name_en": "One Mount",
            "spot_tag": "Entertainment",
            "description_en": "Theme park",
            "distance_km": 1.8,
            "lat": 37.665,
            "lng": 126.751
          },
          {
            "name_en": "Starfield Goyang",
            "spot_tag": "Shopping",
            "description_en": "Shopping mall",
            "distance_km": 11.1,
            "lat": 37.645,
            "lng": 126.895
          }
        ]
      },
      "map_detail": {
        "hotel": {
          "name_en": "Sono Calm Goyang",
          "lat": 37.658,
          "lng": 126.77
        },
        "venue": {
          "name_en": "Goyang Stadium",
          "lat": 37.6556,
          "lng": 126.7714
        },
        "nearby_spots": [
          {
            "name_en": "La Festa Restaurants",
            "category": "restaurant",
            "spot_tag": "Dining Hub",
            "lat": 37.6575,
            "lng": 126.7705,
            "distance_km": 0.1
          },
          {
            "name_en": "La Festa Cafes",
            "category": "cafe",
            "spot_tag": "Trendy Cafe",
            "lat": 37.6572,
            "lng": 126.771,
            "distance_km": 0.1
          },
          {
            "name_en": "Ilsan Food Street",
            "category": "restaurant",
            "spot_tag": "Local Eats",
            "lat": 37.658,
            "lng": 126.772,
            "distance_km": 0.2
          },
          {
            "name_en": "Western Dom Food Court",
            "category": "restaurant",
            "spot_tag": "Food Court",
            "lat": 37.663,
            "lng": 126.762,
            "distance_km": 0.9
          },
          {
            "name_en": "Ilsan Lake Park Cafe Street",
            "category": "cafe",
            "spot_tag": "Lake View",
            "lat": 37.659,
            "lng": 126.76,
            "distance_km": 0.9
          }
        ]
      },
      "platform": {
        "name": "Booking.com",
        "booking_url": "https://www.booking.com/hotel/kr/sono-calm-goyang.html"
      },
      "booking_guide": {
        "steps_en": [
          "1. Search Goyang hotels",
          "2. Filter by 'Free Cancellation'",
          "3. Select room and enter info",
          "4. Pay online or at property",
          "5. Show confirmation at check-in"
        ],
        "tips_en": [
          "Genius membership for discounts",
          "Free cancellation options"
        ],
        "payment_methods": [
          "Credit Card",
          "Pay at Property"
        ],
        "foreigner_friendly": true
      },
      "last_update": "2026-02-06 11:29:19",
      "nearby": [
        {
          "id": "hotel_50127",
          "name_en": "La Festa Residence",
          "price_krw": 95000,
          "distance_km": 0.1,
          "image_url": "https://images.unsplash.com/photo-1502672260266-1c1ef2d93688?w=800"
        },
        {
          "id": "hotel_90429",
          "name_en": "Goyang Airbnb Studio",
          "price_krw": 58000,
          "distance_km": 0.2,
          "image_url": "https://images.unsplash.com/photo-1501183638710-841dd1904471?w=800"
        },
        {
          "id": "hotel_62639",
          "name_en": "Ilsan Lake Park View",
          "price_krw": 85000,
          "distance_km": 0.4,
          "image_url": "https://images.unsplash.com/photo-1502672260266-1c1ef2d93688?w=800"
        }
      ]
    },
    {
      "id": "hotel_69056",
      "name_en": "Antives Hotel Ilsan",
      "price_krw": 75000,
      "rating": 4.1,
      "image_url": "https://images.unsplash.com/photo-1631049307264-da0ec9d70304?w=800",
      "rooms_left": 8,
      "is_available": true,
      "hotel_type": {
        "label_en": "3-Star Hotel",
        "color": "#CD7F32"
      },
      "cancellation": {
        "type": "free",
        "label_en": "Free Cancellation",
        "label_kr": "무료 취소",
        "is_refundable": true
      },
      "tags": {
        "list_en": [
          "#FreeCancellation",
          "#ARMYPopular",
          "#WalkToVenue"
        ],
        "list_kr": [
          "#취소가능",
          "#아미인기",
          "#도보가능"
        ],
        "display_en": "#FreeCancellation #ARMYPopular #WalkToVenue",
        "display_kr": "#취소가능 #아미인기 #도보가능"
      },
      "lat": 37.6555,
      "lng": 126.775,
      "location": {
        "area_en": "Goyang",
        "area_kr": "고양",
        "address_en": "Goyang, Gyeonggi-do",
        "address_kr": "경기도 고양"
      },
      "city_key": "goyang",
      "army_density": {
        "value": 65,
        "level_en": "High",
        "level_kr": "높음",
        "label_en": "ARMY 65%",
        "label_kr": "아미 65%"
      },
      "distance": {
        "type": "walk",
        "display_en": "Walk 3min",
        "minutes": 3,
        "distance_km": 0.3
      },
      "transport": {
        "station_en": "Jeongbalsan",
        "line_en": "Line 3",
        "line_color": "#EF7C1C",
        "display_en": "Jeongbalsan (Line 3)"
      },
      "safe_return": {
        "venue_en": "Goyang Stadium",
        "route_en": "Walk from Goyang Stadium → Hotel",
        "transport": "walk",
        "time_min": 3,
        "last_train": "23:50",
        "taxi_krw": 0
      },
      "army_local_guide": {
        "bts": [
          {
            "name_en": "MBC Sangam",
            "spot_tag": "Music Show",
            "description_en": "Music show filming",
            "distance_km": 13.4,
            "lat": 37.5786,
            "lng": 126.8918
          },
          {
            "name_en": "Hongdae Busking Street",
            "spot_tag": "Trainee Memory",
            "description_en": "Pre-debut busking spot",
            "distance_km": 17.0,
            "lat": 37.5563,
            "lng": 126.922
          },
          {
            "name_en": "Gwangjang Market",
            "spot_tag": "Debut Memory",
            "description_en": "2013 debut location",
            "distance_km": 22.8,
            "lat": 37.57,
            "lng": 127.0098
          }
        ],
        "restaurant": [
          {
            "name_en": "Ilsan Food Street",
            "spot_tag": "Local Eats",
            "description_en": "Local food street",
            "distance_km": 0.4,
            "lat": 37.658,
            "lng": 126.772
          },
          {
            "name_en": "La Festa Restaurants",
            "spot_tag": "Dining Hub",
            "description_en": "Restaurant complex",
            "distance_km": 0.5,
            "lat": 37.6575,
            "lng": 126.7705
          },
          {
            "name_en": "Western Dom Food Court",
            "spot_tag": "Food Court",
            "description_en": "Food court",
            "distance_km": 1.4,
            "lat": 37.663,
            "lng": 126.762
          }
        ],
        "cafe": [
          {
            "name_en": "La Festa Cafes",
            "spot_tag": "Trendy Cafe",
            "description_en": "Trendy cafes",
            "distance_km": 0.4,
            "lat": 37.6572,
            "lng": 126.771
          },
          {
            "name_en": "Ilsan Lake Park Cafe Street",
            "spot_tag": "Lake View",
            "description_en": "Scenic cafes",
            "distance_km": 1.4,
            "lat": 37.659,
            "lng": 126.76
          }
        ],
        "hotspot": [
          {
            "name_en": "Ilsan Lake Park",
            "spot_tag": "Must Visit",
            "description_en": "Beautiful lake park",
            "distance_km": 1.4,
            "lat": 37.658,
            "lng": 126.759
          },
          {
            "name_en": "One Mount",
            "spot_tag": "Entertainment",
            "description_en": "Theme park",
            "distance_km": 2.4,
            "lat": 37.665,
            "lng": 126.751
          },
          {
            "name_en": "Starfield Goyang",
            "spot_tag": "Shopping",
            "description_en": "Shopping mall",
            "distance_km": 10.6,
            "lat": 37.645,
            "lng": 126.895
          }
        ]
      },
      "map_detail": {
        "hotel": {
          "name_en": "Antives Hotel Ilsan",
          "lat": 37.6555,
          "lng": 126.775
        },
        "venue": {
          "name_en": "Goyang Stadium",
          "lat": 37.6556,
          "lng": 126.7714
        },
        "nearby_spots": [
          {
            "name_en": "Ilsan Food Street",
            "category": "restaurant",
            "spot_tag": "Local Eats",
            "lat": 37.658,
            "lng": 126.772,
            "distance_km": 0.4
          },
          {
            "name_en": "La Festa Cafes",
            "category": "cafe",
            "spot_tag": "Trendy Cafe",
            "lat": 37.6572,
            "lng": 126.771,
            "distance_km": 0.4
          },
          {
            "name_en": "La Festa Restaurants",
            "category": "restaurant",
            "spot_tag": "Dining Hub",
            "lat": 37.6575,
            "lng": 126.7705,
            "distance_km": 0.5
          },
          {
            "name_en": "Western Dom Food Court",
            "category": "restaurant",
            "spot_tag": "Food Court",
            "lat": 37.663,
            "lng": 126.762,
            "distance_km": 1.4
          },
          {
            "name_en": "Ilsan Lake Park Cafe Street",
            "category": "cafe",
            "spot_tag": "Lake View",
            "lat": 37.659,
            "lng": 126.76,
            "distance_km": 1.4
          }
        ]
      },
      "platform": {
        "name": "Agoda",
        "booking_url": "https://www.agoda.com/antives-hotel-ilsan/hotel/goyang-si-kr.html"
      },
      "booking_guide": {
        "steps_en": [
          "1. Select dates and search",
          "2. Choose room, click 'Book Now'",
          "3. Enter passport name",
          "4. Pay with credit card or PayPal",
          "5. Get instant confirmation"
        ],
        "tips_en": [
          "Pay at Hotel option available",
          "Check cancellation policy"
        ],
        "payment_methods": [
          "Credit Card",
          "PayPal",
          "Pay at Hotel"
        ],
        "foreigner_friendly": true
      },
      "last_update": "2026-02-06 11:29:19",
      "nearby": [
        {
          "id": "hotel_11548",
          "name_en": "Ilsan Hotel M",
          "price_krw": 72000,
          "distance_km": 0.2,
          "image_url": "https://images.unsplash.com/photo-1631049307264-da0ec9d70304?w=800"
        },
        {
          "id": "hotel_94444",
          "name_en": "Sono Calm Goyang",
          "price_krw": 135000,
          "distance_km": 0.5,
          "image_url": "https://images.unsplash.com/photo-1551882547-ff40c63fe5fa?w=800"
        },
        {
          "id": "hotel_50127",
          "name_en": "La Festa Residence",
          "price_krw": 95000,
          "distance_km": 0.5,
          "image_url": "https://images.unsplash.com/photo-1502672260266-1c1ef2d93688?w=800"
        }
      ]
    },
    {
      "id": "hotel_71505",
      "name_en": "Yellow 8 Hotel Goyang",
      "price_krw": 55000,
      "rating": 3.8,
      "image_url": "https://images.unsplash.com/photo-1611892440504-42a792e24d32?w=800",
      "rooms_left": 12,
      "is_available": true,
      "hotel_type": {
        "label_en": "Budget Hotel",
        "color": "#8B4513"
      },
      "cancellation": {
        "type": "free",
        "label_en": "Free Cancellation",
        "label_kr": "무료 취소",
        "is_refundable": true
      },
      "tags": {
        "list_en": [
          "#FreeCancellation",
          "#ARMYPopular",
          "#WalkToVenue"
        ],
        "list_kr": [
          "#취소가능",
          "#아미인기",
          "#도보가능"
        ],
        "display_en": "#FreeCancellation #ARMYPopular #WalkToVenue",
        "display_kr": "#취소가능 #아미인기 #도보가능"
      },
      "lat": 37.652,
      "lng": 126.768,
      "location": {
        "area_en": "Goyang",
        "area_kr": "고양",
        "address_en": "Goyang, Gyeonggi-do",
        "address_kr": "경기도 고양"
      },
      "city_key": "goyang",
      "army_density": {
        "value": 65,
        "level_en": "High",
        "level_kr": "높음",
        "label_en": "ARMY 65%",
        "label_kr": "아미 65%"
      },
      "distance": {
        "type": "walk",
        "display_en": "Walk 5min",
        "minutes": 5,
        "distance_km": 0.5
      },
      "transport": {
        "station_en": "Jeongbalsan",
        "line_en": "Line 3",
        "line_color": "#EF7C1C",
        "display_en": "Jeongbalsan (Line 3)"
      },
      "safe_return": {
        "venue_en": "Goyang Stadium",
        "route_en": "Walk from Goyang Stadium → Hotel",
        "transport": "walk",
        "time_min": 5,
        "last_train": "23:50",
        "taxi_krw": 0
      },
      "army_local_guide": {
        "bts": [
          {
            "name_en": "MBC Sangam",
            "spot_tag": "Music Show",
            "description_en": "Music show filming",
            "distance_km": 13.6,
            "lat": 37.5786,
            "lng": 126.8918
          },
          {
            "name_en": "Hongdae Busking Street",
            "spot_tag": "Trainee Memory",
            "description_en": "Pre-debut busking spot",
            "distance_km": 17.2,
            "lat": 37.5563,
            "lng": 126.922
          },
          {
            "name_en": "Gwangjang Market",
            "spot_tag": "Debut Memory",
            "description_en": "2013 debut location",
            "distance_km": 23.2,
            "lat": 37.57,
            "lng": 127.0098
          }
        ],
        "restaurant": [
          {
            "name_en": "La Festa Restaurants",
            "spot_tag": "Dining Hub",
            "description_en": "Restaurant complex",
            "distance_km": 0.6,
            "lat": 37.6575,
            "lng": 126.7705
          },
          {
            "name_en": "Ilsan Food Street",
            "spot_tag": "Local Eats",
            "description_en": "Local food street",
            "distance_km": 0.8,
            "lat": 37.658,
            "lng": 126.772
          },
          {
            "name_en": "Western Dom Food Court",
            "spot_tag": "Food Court",
            "description_en": "Food court",
            "distance_km": 1.3,
            "lat": 37.663,
            "lng": 126.762
          }
        ],
        "cafe": [
          {
            "name_en": "La Festa Cafes",
            "spot_tag": "Trendy Cafe",
            "description_en": "Trendy cafes",
            "distance_km": 0.6,
            "lat": 37.6572,
            "lng": 126.771
          },
          {
            "name_en": "Ilsan Lake Park Cafe Street",
            "spot_tag": "Lake View",
            "description_en": "Scenic cafes",
            "distance_km": 1.0,
            "lat": 37.659,
            "lng": 126.76
          }
        ],
        "hotspot": [
          {
            "name_en": "Ilsan Lake Park",
            "spot_tag": "Must Visit",
            "description_en": "Beautiful lake park",
            "distance_km": 1.0,
            "lat": 37.658,
            "lng": 126.759
          },
          {
            "name_en": "One Mount",
            "spot_tag": "Entertainment",
            "description_en": "Theme park",
            "distance_km": 2.1,
            "lat": 37.665,
            "lng": 126.751
          },
          {
            "name_en": "Starfield Goyang",
            "spot_tag": "Shopping",
            "description_en": "Shopping mall",
            "distance_km": 11.2,
            "lat": 37.645,
            "lng": 126.895
          }
        ]
      },
      "map_detail": {
        "hotel": {
          "name_en": "Yellow 8 Hotel Goyang",
          "lat": 37.652,
          "lng": 126.768
        },
        "venue": {
          "name_en": "Goyang Stadium",
          "lat": 37.6556,
          "lng": 126.7714
        },
        "nearby_spots": [
          {
            "name_en": "La Festa Restaurants",
            "category": "restaurant",
            "spot_tag": "Dining Hub",
            "lat": 37.6575,
            "lng": 126.7705,
            "distance_km": 0.6
          },
          {
            "name_en": "La Festa Cafes",
            "category": "cafe",
            "spot_tag": "Trendy Cafe",
            "lat": 37.6572,
            "lng": 126.771,
            "distance_km": 0.6
          },
          {
            "name_en": "Ilsan Food Street",
            "category": "restaurant",
            "spot_tag": "Local Eats",
            "lat": 37.658,
            "lng": 126.772,
            "distance_km": 0.8
          },
          {
            "name_en": "Ilsan Lake Park Cafe Street",
            "category": "cafe",
            "spot_tag": "Lake View",
            "lat": 37.659,
            "lng": 126.76,
            "distance_km": 1.0
          },
          {
            "name_en": "Ilsan Lake Park",
            "category": "hotspot",
            "spot_tag": "Must Visit",
            "lat": 37.658,
            "lng": 126.759,
            "distance_km": 1.0
          }
        ]
      },
      "platform": {
        "name": "Hotels.com",
        "booking_url": "https://www.hotels.com/ho-yellow-8-goyang/"
      },
      "booking_guide": {
        "steps_en": [
          "1. Search 'Goyang, South Korea'",
          "2. Filter by price/rating",
          "3. Select hotel and room",
          "4. Enter guest details",
          "5. Collect stamps for free nights"
        ],
        "tips_en": [
          "10 stamps = 1 free night",
          "Secret prices on app"
        ],
        "payment_methods": [
          "Credit Card",
          "PayPal"
        ],
        "foreigner_friendly": true
      },
      "last_update": "2026-02-06 11:29:19",
      "nearby": [
        {
          "id": "hotel_11548",
          "name_en": "Ilsan Hotel M",
          "price_krw": 72000,
          "distance_km": 0.5,
          "image_url": "https://images.unsplash.com/photo-1631049307264-da0ec9d70304?w=800"
        },
        {
          "id": "hotel_90429",
          "name_en": "Goyang Airbnb Studio",
          "price_krw": 58000,
          "distance_km": 0.5,
          "image_url": "https://images.unsplash.com/photo-1501183638710-841dd1904471?w=800"
        },
        {
          "id": "hotel_50127",
          "name_en": "La Festa Residence",
          "price_krw": 95000,
          "distance_km": 0.6,
          "image_url": "https://images.unsplash.com/photo-1502672260266-1c1ef2d93688?w=800"
        }
      ]
    },
    {
      "id": "hotel_62639",
      "name_en": "Ilsan Lake Park View",
      "price_krw": 85000,
      "rating": 4.5,
      "image_url": "https://images.unsplash.com/photo-1502672260266-1c1ef2d93688?w=800",
      "rooms_left": 1,
      "is_available": true,
      "hotel_type": {
        "label_en": "Airbnb",
        "color": "#FF5A5F"
      },
      "cancellation": {
        "type": "free",
        "label_en": "Free Cancellation",
        "label_kr": "무료 취소",
        "is_refundable": true
      },
      "tags": {
        "list_en": [
          "#FreeCancellation",
          "#ARMYPopular",
          "#WalkToVenue",
          "#LocalLife"
        ],
        "list_kr": [
          "#취소가능",
          "#아미인기",
          "#도보가능",
          "#현지생활"
        ],
        "display_en": "#FreeCancellation #ARMYPopular #WalkToVenue",
        "display_kr": "#취소가능 #아미인기 #도보가능"
      },
      "lat": 37.6585,
      "lng": 126.765,
      "location": {
        "area_en": "Goyang",
        "area_kr": "고양",
        "address_en": "Goyang, Gyeonggi-do",
        "address_kr": "경기도 고양"
      },
      "city_key": "goyang",
      "army_density": {
        "value": 70,
        "level_en": "High",
        "level_kr": "높음",
        "label_en": "ARMY 70%",
        "label_kr": "아미 70%"
      },
      "distance": {
        "type": "walk",
        "display_en": "Walk 7min",
        "minutes": 7,
        "distance_km": 0.6
      },
      "transport": {
        "station_en": "Jeongbalsan",
        "line_en": "Line 3",
        "line_color": "#EF7C1C",
        "display_en": "Jeongbalsan (Line 3)"
      },
      "safe_return": {
        "venue_en": "Goyang Stadium",
        "route_en": "Walk from Goyang Stadium → Hotel",
        "transport": "walk",
        "time_min": 7,
        "last_train": "23:50",
        "taxi_krw": 0
      },
      "army_local_guide": {
        "bts": [
          {
            "name_en": "MBC Sangam",
            "spot_tag": "Music Show",
            "description_en": "Music show filming",
            "distance_km": 14.3,
            "lat": 37.5786,
            "lng": 126.8918
          },
          {
            "name_en": "Hongdae Busking Street",
            "spot_tag": "Trainee Memory",
            "description_en": "Pre-debut busking spot",
            "distance_km": 17.9,
            "lat": 37.5563,
            "lng": 126.922
          },
          {
            "name_en": "Gwangjang Market",
            "spot_tag": "Debut Memory",
            "description_en": "2013 debut location",
            "distance_km": 23.7,
            "lat": 37.57,
            "lng": 127.0098
          }
        ],
        "restaurant": [
          {
            "name_en": "La Festa Restaurants",
            "spot_tag": "Dining Hub",
            "description_en": "Restaurant complex",
            "distance_km": 0.5,
            "lat": 37.6575,
            "lng": 126.7705
          },
          {
            "name_en": "Ilsan Food Street",
            "spot_tag": "Local Eats",
            "description_en": "Local food street",
            "distance_km": 0.6,
            "lat": 37.658,
            "lng": 126.772
          },
          {
            "name_en": "Western Dom Food Court",
            "spot_tag": "Food Court",
            "description_en": "Food court",
            "distance_km": 0.6,
            "lat": 37.663,
            "lng": 126.762
          }
        ],
        "cafe": [
          {
            "name_en": "Ilsan Lake Park Cafe Street",
            "spot_tag": "Lake View",
            "description_en": "Scenic cafes",
            "distance_km": 0.4,
            "lat": 37.659,
            "lng": 126.76
          },
          {
            "name_en": "La Festa Cafes",
            "spot_tag": "Trendy Cafe",
            "description_en": "Trendy cafes",
            "distance_km": 0.5,
            "lat": 37.6572,
            "lng": 126.771
          }
        ],
        "hotspot": [
          {
            "name_en": "Ilsan Lake Park",
            "spot_tag": "Must Visit",
            "description_en": "Beautiful lake park",
            "distance_km": 0.5,
            "lat": 37.658,
            "lng": 126.759
          },
          {
            "name_en": "One Mount",
            "spot_tag": "Entertainment",
            "description_en": "Theme park",
            "distance_km": 1.4,
            "lat": 37.665,
            "lng": 126.751
          },
          {
            "name_en": "Starfield Goyang",
            "spot_tag": "Shopping",
            "description_en": "Shopping mall",
            "distance_km": 11.5,
            "lat": 37.645,
            "lng": 126.895
          }
        ]
      },
      "map_detail": {
        "hotel": {
          "name_en": "Ilsan Lake Park View",
          "lat": 37.6585,
          "lng": 126.765
        },
        "venue": {
          "name_en": "Goyang Stadium",
          "lat": 37.6556,
          "lng": 126.7714
        },
        "nearby_spots": [
          {
            "name_en": "Ilsan Lake Park Cafe Street",
            "category": "cafe",
            "spot_tag": "Lake View",
            "lat": 37.659,
            "lng": 126.76,
            "distance_km": 0.4
          },
          {
            "name_en": "La Festa Restaurants",
            "category": "restaurant",
            "spot_tag": "Dining Hub",
            "lat": 37.6575,
            "lng": 126.7705,
            "distance_km": 0.5
          },
          {
            "name_en": "La Festa Cafes",
            "category": "cafe",
            "spot_tag": "Trendy Cafe",
            "lat": 37.6572,
            "lng": 126.771,
            "distance_km": 0.5
          },
          {
            "name_en": "Ilsan Lake Park",
            "category": "hotspot",
            "spot_tag": "Must Visit",
            "lat": 37.658,
            "lng": 126.759,
            "distance_km": 0.5
          },
          {
            "name_en": "Ilsan Food Street",
            "category": "restaurant",
            "spot_tag": "Local Eats",
            "lat": 37.658,
            "lng": 126.772,
            "distance_km": 0.6
          }
        ]
      },
      "platform": {
        "name": "Agoda",
        "booking_url": "https://www.agoda.com/ilsan-lake-park-view/hotel/goyang-si-kr.html"
      },
      "booking_guide": {
        "steps_en": [
          "1. Select dates and search",
          "2. Choose room, click 'Book Now'",
          "3. Enter passport name",
          "4. Pay with credit card or PayPal",
          "5. Get instant confirmation"
        ],
        "tips_en": [
          "Pay at Hotel option available",
          "Check cancellation policy"
        ],
        "payment_methods": [
          "Credit Card",
          "PayPal",
          "Pay at Hotel"
        ],
        "foreigner_friendly": true
      },
      "last_update": "2026-02-06 11:29:19",
      "nearby": [
        {
          "id": "hotel_94444",
          "name_en": "Sono Calm Goyang",
          "price_krw": 135000,
          "distance_km": 0.4,
          "image_url": "https://images.unsplash.com/photo-1551882547-ff40c63fe5fa?w=800"
        },
        {
          "id": "hotel_90429",
          "name_en": "Goyang Airbnb Studio",
          "price_krw": 58000,
          "distance_km": 0.4,
          "image_url": "https://images.unsplash.com/photo-1501183638710-841dd1904471?w=800"
        },
        {
          "id": "hotel_50127",
          "name_en": "La Festa Residence",
          "price_krw": 95000,
          "distance_km": 0.5,
          "image_url": "https://images.unsplash.com/photo-1502672260266-1c1ef2d93688?w=800"
        }
      ]
    },
    {
      "id": "hotel_23754",
      "name_en": "Ramada Encore Goyang",
      "price_krw": 115000,
      "rating": 4.1,
      "image_url": "https://images.unsplash.com/photo-1566073771259-6a8506099945?w=800",
      "rooms_left": 0,
      "is_available": false,
      "hotel_type": {
        "label_en": "4-Star Hotel",
        "color": "#C0C0C0"
      },
      "cancellation": {
        "type": "unknown",
        "label_en": "Check Policy",
        "label_kr": "정책 확인",
        "is_refundable": null
      },
      "tags": {
        "list_en": [
          "#NearVenue"
        ],
        "list_kr": [
          "#공연장근처"
        ],
        "display_en": "#NearVenue",
        "display_kr": "#공연장근처"
      },
      "lat": 37.662,
      "lng": 126.76,
      "location": {
        "area_en": "Goyang",
        "area_kr": "고양",
        "address_en": "Goyang, Gyeonggi-do",
        "address_kr": "경기도 고양"
      },
      "city_key": "goyang",
      "army_density": {
        "value": 58,
        "level_en": "Medium",
        "level_kr": "보통",
        "label_en": "ARMY 58%",
        "label_kr": "아미 58%"
      },
      "distance": {
        "type": "walk",
        "display_en": "Walk 14min",
        "minutes": 14,
        "distance_km": 1.2
      },
      "transport": {
        "station_en": "Jeongbalsan",
        "line_en": "Line 3",
        "line_color": "#EF7C1C",
        "display_en": "Jeongbalsan (Line 3)"
      },
      "safe_return": {
        "venue_en": "Goyang Stadium",
        "route_en": "Walk from Goyang Stadium → Hotel",
        "transport": "walk",
        "time_min": 14,
        "last_train": "23:50",
        "taxi_krw": 0
      },
      "army_local_guide": {
        "bts": [
          {
            "name_en": "MBC Sangam",
            "spot_tag": "Music Show",
            "description_en": "Music show filming",
            "distance_km": 14.9,
            "lat": 37.5786,
            "lng": 126.8918
          },
          {
            "name_en": "Hongdae Busking Street",
            "spot_tag": "Trainee Memory",
            "description_en": "Pre-debut busking spot",
            "distance_km": 18.5,
            "lat": 37.5563,
            "lng": 126.922
          },
          {
            "name_en": "Gwangjang Market",
            "spot_tag": "Debut Memory",
            "description_en": "2013 debut location",
            "distance_km": 24.3,
            "lat": 37.57,
            "lng": 127.0098
          }
        ],
        "restaurant": [
          {
            "name_en": "Western Dom Food Court",
            "spot_tag": "Food Court",
            "description_en": "Food court",
            "distance_km": 0.2,
            "lat": 37.663,
            "lng": 126.762
          },
          {
            "name_en": "Ilsan Food Street",
            "spot_tag": "Local Eats",
            "description_en": "Local food street",
            "distance_km": 1.1,
            "lat": 37.658,
            "lng": 126.772
          },
          {
            "name_en": "La Festa Restaurants",
            "spot_tag": "Dining Hub",
            "description_en": "Restaurant complex",
            "distance_km": 1.1,
            "lat": 37.6575,
            "lng": 126.7705
          }
        ],
        "cafe": [
          {
            "name_en": "Ilsan Lake Park Cafe Street",
            "spot_tag": "Lake View",
            "description_en": "Scenic cafes",
            "distance_km": 0.3,
            "lat": 37.659,
            "lng": 126.76
          },
          {
            "name_en": "La Festa Cafes",
            "spot_tag": "Trendy Cafe",
            "description_en": "Trendy cafes",
            "distance_km": 1.1,
            "lat": 37.6572,
            "lng": 126.771
          }
        ],
        "hotspot": [
          {
            "name_en": "Ilsan Lake Park",
            "spot_tag": "Must Visit",
            "description_en": "Beautiful lake park",
            "distance_km": 0.5,
            "lat": 37.658,
            "lng": 126.759
          },
          {
            "name_en": "One Mount",
            "spot_tag": "Entertainment",
            "description_en": "Theme park",
            "distance_km": 0.9,
            "lat": 37.665,
            "lng": 126.751
          },
          {
            "name_en": "Starfield Goyang",
            "spot_tag": "Shopping",
            "description_en": "Shopping mall",
            "distance_km": 12.0,
            "lat": 37.645,
            "lng": 126.895
          }
        ]
      },
      "map_detail": {
        "hotel": {
          "name_en": "Ramada Encore Goyang",
          "lat": 37.662,
          "lng": 126.76
        },
        "venue": {
          "name_en": "Goyang Stadium",
          "lat": 37.6556,
          "lng": 126.7714
        },
        "nearby_spots": [
          {
            "name_en": "Western Dom Food Court",
            "category": "restaurant",
            "spot_tag": "Food Court",
            "lat": 37.663,
            "lng": 126.762,
            "distance_km": 0.2
          },
          {
            "name_en": "Ilsan Lake Park Cafe Street",
            "category": "cafe",
            "spot_tag": "Lake View",
            "lat": 37.659,
            "lng": 126.76,
            "distance_km": 0.3
          },
          {
            "name_en": "Ilsan Lake Park",
            "category": "hotspot",
            "spot_tag": "Must Visit",
            "lat": 37.658,
            "lng": 126.759,
            "distance_km": 0.5
          },
          {
            "name_en": "One Mount",
            "category": "hotspot",
            "spot_tag": "Entertainment",
            "lat": 37.665,
            "lng": 126.751,
            "distance_km": 0.9
          },
          {
            "name_en": "Ilsan Food Street",
            "category": "restaurant",
            "spot_tag": "Local Eats",
            "lat": 37.658,
            "lng": 126.772,
            "distance_km": 1.1
          }
        ]
      },
      "platform": {
        "name": "Trip.com",
        "booking_url": "https://www.trip.com/hotels/goyang-si-hotel-detail-ramada/"
      },
      "booking_guide": {
        "steps_en": [
          "1. Select dates and search",
          "2. Choose room, click 'Book Now'",
          "3. Enter passport name",
          "4. Pay with credit card or PayPal",
          "5. Get instant confirmation"
        ],
        "tips_en": [
          "Pay at Hotel option available",
          "Check cancellation policy"
        ],
        "payment_methods": [
          "Credit Card",
          "PayPal",
          "Pay at Hotel"
        ],
        "foreigner_friendly": true
      },
      "last_update": "2026-02-06 11:29:19",
      "nearby": [
        {
          "id": "hotel_62639",
          "name_en": "Ilsan Lake Park View",
          "price_krw": 85000,
          "distance_km": 0.6,
          "image_url": "https://images.unsplash.com/photo-1502672260266-1c1ef2d93688?w=800"
        },
        {
          "id": "hotel_39464",
          "name_en": "Best Western Premier Guro",
          "price_krw": 125000,
          "distance_km": 0.8,
          "image_url": "https://images.unsplash.com/photo-1551882547-ff40c63fe5fa?w=800"
        },
        {
          "id": "hotel_94444",
          "name_en": "Sono Calm Goyang",
          "price_krw": 135000,
          "distance_km": 1.0,
          "image_url": "https://images.unsplash.com/photo-1551882547-ff40c63fe5fa?w=800"
        }
      ]
    },
    {
      "id": "hotel_39464",
      "name_en": "Best Western Premier Guro",
      "price_krw": 125000,
      "rating": 4.2,
      "image_url": "https://images.unsplash.com/photo-1551882547-ff40c63fe5fa?w=800",
      "rooms_left": 7,
      "is_available": true,
      "hotel_type": {
        "label_en": "4-Star Hotel",
        "color": "#C0C0C0"
      },
      "cancellation": {
        "type": "free",
        "label_en": "Free Cancellation",
        "label_kr": "무료 취소",
        "is_refundable": true
      },
      "tags": {
        "list_en": [
          "#FreeCancellation",
          "#NearVenue"
        ],
        "list_kr": [
          "#취소가능",
          "#공연장근처"
        ],
        "display_en": "#FreeCancellation #NearVenue",
        "display_kr": "#취소가능 #공연장근처"
      },
      "lat": 37.665,
      "lng": 126.752,
      "location": {
        "area_en": "Goyang",
        "area_kr": "고양",
        "address_en": "Goyang, Gyeonggi-do",
        "address_kr": "경기도 고양"
      },
      "city_key": "goyang",
      "army_density": {
        "value": 58,
        "level_en": "Medium",
        "level_kr": "보통",
        "label_en": "ARMY 58%",
        "label_kr": "아미 58%"
      },
      "distance": {
        "type": "walk",
        "display_en": "Walk 24min",
        "minutes": 24,
        "distance_km": 2.0
      },
      "transport": {
        "station_en": "Jeongbalsan",
        "line_en": "Line 3",
        "line_color": "#EF7C1C",
        "display_en": "Jeongbalsan (Line 3)"
      },
      "safe_return": {
        "venue_en": "Goyang Stadium",
        "route_en": "Walk from Goyang Stadium → Hotel",
        "transport": "walk",
        "time_min": 24,
        "last_train": "23:50",
        "taxi_krw": 0
      },
      "army_local_guide": {
        "bts": [
          {
            "name_en": "MBC Sangam",
            "spot_tag": "Music Show",
            "description_en": "Music show filming",
            "distance_km": 15.6,
            "lat": 37.5786,
            "lng": 126.8918
          },
          {
            "name_en": "Hongdae Busking Street",
            "spot_tag": "Trainee Memory",
            "description_en": "Pre-debut busking spot",
            "distance_km": 19.2,
            "lat": 37.5563,
            "lng": 126.922
          },
          {
            "name_en": "Gwangjang Market",
            "spot_tag": "Debut Memory",
            "description_en": "2013 debut location",
            "distance_km": 25.0,
            "lat": 37.57,
            "lng": 127.0098
          }
        ],
        "restaurant": [
          {
            "name_en": "Western Dom Food Court",
            "spot_tag": "Food Court",
            "description_en": "Food court",
            "distance_km": 0.9,
            "lat": 37.663,
            "lng": 126.762
          },
          {
            "name_en": "La Festa Restaurants",
            "spot_tag": "Dining Hub",
            "description_en": "Restaurant complex",
            "distance_km": 1.8,
            "lat": 37.6575,
            "lng": 126.7705
          },
          {
            "name_en": "Ilsan Food Street",
            "spot_tag": "Local Eats",
            "description_en": "Local food street",
            "distance_km": 1.9,
            "lat": 37.658,
            "lng": 126.772
          }
        ],
        "cafe": [
          {
            "name_en": "Ilsan Lake Park Cafe Street",
            "spot_tag": "Lake View",
            "description_en": "Scenic cafes",
            "distance_km": 1.0,
            "lat": 37.659,
            "lng": 126.76
          },
          {
            "name_en": "La Festa Cafes",
            "spot_tag": "Trendy Cafe",
            "description_en": "Trendy cafes",
            "distance_km": 1.9,
            "lat": 37.6572,
            "lng": 126.771
          }
        ],
        "hotspot": [
          {
            "name_en": "One Mount",
            "spot_tag": "Entertainment",
            "description_en": "Theme park",
            "distance_km": 0.1,
            "lat": 37.665,
            "lng": 126.751
          },
          {
            "name_en": "Ilsan Lake Park",
            "spot_tag": "Must Visit",
            "description_en": "Beautiful lake park",
            "distance_km": 1.0,
            "lat": 37.658,
            "lng": 126.759
          },
          {
            "name_en": "Starfield Goyang",
            "spot_tag": "Shopping",
            "description_en": "Shopping mall",
            "distance_km": 12.8,
            "lat": 37.645,
            "lng": 126.895
          }
        ]
      },
      "map_detail": {
        "hotel": {
          "name_en": "Best Western Premier Guro",
          "lat": 37.665,
          "lng": 126.752
        },
        "venue": {
          "name_en": "Goyang Stadium",
          "lat": 37.6556,
          "lng": 126.7714
        },
        "nearby_spots": [
          {
            "name_en": "One Mount",
            "category": "hotspot",
            "spot_tag": "Entertainment",
            "lat": 37.665,
            "lng": 126.751,
            "distance_km": 0.1
          },
          {
            "name_en": "Western Dom Food Court",
            "category": "restaurant",
            "spot_tag": "Food Court",
            "lat": 37.663,
            "lng": 126.762,
            "distance_km": 0.9
          },
          {
            "name_en": "Ilsan Lake Park Cafe Street",
            "category": "cafe",
            "spot_tag": "Lake View",
            "lat": 37.659,
            "lng": 126.76,
            "distance_km": 1.0
          },
          {
            "name_en": "Ilsan Lake Park",
            "category": "hotspot",
            "spot_tag": "Must Visit",
            "lat": 37.658,
            "lng": 126.759,
            "distance_km": 1.0
          },
          {
            "name_en": "La Festa Restaurants",
            "category": "restaurant",
            "spot_tag": "Dining Hub",
            "lat": 37.6575,
            "lng": 126.7705,
            "distance_km": 1.8
          }
        ]
      },
      "platform": {
        "name": "Booking.com",
        "booking_url": "https://www.booking.com/hotel/kr/best-western-premier-guro.html"
      },
      "booking_guide": {
        "steps_en": [
          "1. Search Goyang hotels",
          "2. Filter by 'Free Cancellation'",
          "3. Select room and enter info",
          "4. Pay online or at property",
          "5. Show confirmation at check-in"
        ],
        "tips_en": [
          "Genius membership for discounts",
          "Free cancellation options"
        ],
        "payment_methods": [
          "Credit Card",
          "Pay at Property"
        ],
        "foreigner_friendly": true
      },
      "last_update": "2026-02-06 11:29:19",
      "nearby": [
        {
          "id": "hotel_18000",
          "name_en": "Kintex by K-Tree",
          "price_krw": 89000,
          "distance_km": 0.7,
          "image_url": "https://images.unsplash.com/photo-1566073771259-6a8506099945?w=800"
        },
        {
          "id": "hotel_57792",
          "name_en": "Hotel Claum Ilsan",
          "price_krw": 68000,
          "distance_km": 0.8,
          "image_url": "https://images.unsplash.com/photo-1590490360182-c33d57733427?w=800"
        },
        {
          "id": "hotel_23754",
          "name_en": "Ramada Encore Goyang",
          "price_krw": 115000,
          "distance_km": 0.8,
          "image_url": "https://images.unsplash.com/photo-1566073771259-6a8506099945?w=800"
        }
      ]
    },
    {
      "id": "hotel_57792",
      "name_en": "Hotel Claum Ilsan",
      "price_krw": 68000,
      "rating": 4.0,
      "image_url": "https://images.unsplash.com/photo-1590490360182-c33d57733427?w=800",
      "rooms_left": 6,
      "is_available": true,
      "hotel_type": {
        "label_en": "3-Star Hotel",
        "color": "#CD7F32"
      },
      "cancellation": {
        "type": "unknown",
        "label_en": "Check Policy",
        "label_kr": "정책 확인",
        "is_refundable": null
      },
      "tags": {
        "list_en": [
          "#NearVenue"
        ],
        "list_kr": [
          "#공연장근처"
        ],
        "display_en": "#NearVenue",
        "display_kr": "#공연장근처"
      },
      "lat": 37.6715,
      "lng": 126.7495,
      "location": {
        "area_en": "Goyang",
        "area_kr": "고양",
        "address_en": "Goyang, Gyeonggi-do",
        "address_kr": "경기도 고양"
      },
      "city_key": "goyang",
      "army_density": {
        "value": 60,
        "level_en": "Medium",
        "level_kr": "보통",
        "label_en": "ARMY 60%",
        "label_kr": "아미 60%"
      },
      "distance": {
        "type": "car",
        "display_en": "Drive 5min",
        "minutes": 5,
        "distance_km": 2.6
      },
      "transport": {
        "station_en": "Jeongbalsan",
        "line_en": "Line 3",
        "line_color": "#EF7C1C",
        "display_en": "Jeongbalsan (Line 3)"
      },
      "safe_return": {
        "venue_en": "Goyang Stadium",
        "route_en": "Goyang Stadium → Jeongbalsan (Line 3) → Hotel",
        "transport": "subway",
        "time_min": 25,
        "last_train": "23:50",
        "taxi_krw": 0
      },
      "army_local_guide": {
        "bts": [
          {
            "name_en": "MBC Sangam",
            "spot_tag": "Music Show",
            "description_en": "Music show filming",
            "distance_km": 16.2,
            "lat": 37.5786,
            "lng": 126.8918
          },
          {
            "name_en": "Hongdae Busking Street",
            "spot_tag": "Trainee Memory",
            "description_en": "Pre-debut busking spot",
            "distance_km": 19.9,
            "lat": 37.5563,
            "lng": 126.922
          },
          {
            "name_en": "Gwangjang Market",
            "spot_tag": "Debut Memory",
            "description_en": "2013 debut location",
            "distance_km": 25.6,
            "lat": 37.57,
            "lng": 127.0098
          }
        ],
        "restaurant": [
          {
            "name_en": "Western Dom Food Court",
            "spot_tag": "Food Court",
            "description_en": "Food court",
            "distance_km": 1.5,
            "lat": 37.663,
            "lng": 126.762
          },
          {
            "name_en": "La Festa Restaurants",
            "spot_tag": "Dining Hub",
            "description_en": "Restaurant complex",
            "distance_km": 2.4,
            "lat": 37.6575,
            "lng": 126.7705
          },
          {
            "name_en": "Ilsan Food Street",
            "spot_tag": "Local Eats",
            "description_en": "Local food street",
            "distance_km": 2.5,
            "lat": 37.658,
            "lng": 126.772
          }
        ],
        "cafe": [
          {
            "name_en": "Ilsan Lake Park Cafe Street",
            "spot_tag": "Lake View",
            "description_en": "Scenic cafes",
            "distance_km": 1.7,
            "lat": 37.659,
            "lng": 126.76
          },
          {
            "name_en": "La Festa Cafes",
            "spot_tag": "Trendy Cafe",
            "description_en": "Trendy cafes",
            "distance_km": 2.5,
            "lat": 37.6572,
            "lng": 126.771
          }
        ],
        "hotspot": [
          {
            "name_en": "One Mount",
            "spot_tag": "Entertainment",
            "description_en": "Theme park",
            "distance_km": 0.7,
            "lat": 37.665,
            "lng": 126.751
          },
          {
            "name_en": "Ilsan Lake Park",
            "spot_tag": "Must Visit",
            "description_en": "Beautiful lake park",
            "distance_km": 1.7,
            "lat": 37.658,
            "lng": 126.759
          },
          {
            "name_en": "Starfield Goyang",
            "spot_tag": "Shopping",
            "description_en": "Shopping mall",
            "distance_km": 13.1,
            "lat": 37.645,
            "lng": 126.895
          }
        ]
      },
      "map_detail": {
        "hotel": {
          "name_en": "Hotel Claum Ilsan",
          "lat": 37.6715,
          "lng": 126.7495
        },
        "venue": {
          "name_en": "Goyang Stadium",
          "lat": 37.6556,
          "lng": 126.7714
        },
        "nearby_spots": [
          {
            "name_en": "One Mount",
            "category": "hotspot",
            "spot_tag": "Entertainment",
            "lat": 37.665,
            "lng": 126.751,
            "distance_km": 0.7
          },
          {
            "name_en": "Western Dom Food Court",
            "category": "restaurant",
            "spot_tag": "Food Court",
            "lat": 37.663,
            "lng": 126.762,
            "distance_km": 1.5
          },
          {
            "name_en": "Ilsan Lake Park Cafe Street",
            "category": "cafe",
            "spot_tag": "Lake View",
            "lat": 37.659,
            "lng": 126.76,
            "distance_km": 1.7
          },
          {
            "name_en": "Ilsan Lake Park",
            "category": "hotspot",
            "spot_tag": "Must Visit",
            "lat": 37.658,
            "lng": 126.759,
            "distance_km": 1.7
          },
          {
            "name_en": "La Festa Restaurants",
            "category": "restaurant",
            "spot_tag": "Dining Hub",
            "lat": 37.6575,
            "lng": 126.7705,
            "distance_km": 2.4
          }
        ]
      },
      "platform": {
        "name": "Trip.com",
        "booking_url": "https://www.trip.com/hotels/goyang-si-hotel-detail-claum/"
      },
      "booking_guide": {
        "steps_en": [
          "1. Select dates and search",
          "2. Choose room, click 'Book Now'",
          "3. Enter passport name",
          "4. Pay with credit card or PayPal",
          "5. Get instant confirmation"
        ],
        "tips_en": [
          "Pay at Hotel option available",
          "Check cancellation policy"
        ],
        "payment_methods": [
          "Credit Card",
          "PayPal",
          "Pay at Hotel"
        ],
        "foreigner_friendly": true
      },
      "last_update": "2026-02-06 11:29:19",
      "nearby": [
        {
          "id": "hotel_18000",
          "name_en": "Kintex by K-Tree",
          "price_krw": 89000,
          "distance_km": 0.4,
          "image_url": "https://images.unsplash.com/photo-1566073771259-6a8506099945?w=800"
        },
        {
          "id": "hotel_60393",
          "name_en": "MVL Hotel Kintex",
          "price_krw": 195000,
          "distance_km": 0.5,
          "image_url": "https://images.unsplash.com/photo-1542314831-068cd1dbfeeb?w=800"
        },
        {
          "id": "hotel_39464",
          "name_en": "Best Western Premier Guro",
          "price_krw": 125000,
          "distance_km": 0.8,
          "image_url": "https://images.unsplash.com/photo-1551882547-ff40c63fe5fa?w=800"
        }
      ]
    },
    {
      "id": "hotel_18000",
      "name_en": "Kintex by K-Tree",
      "price_krw": 89000,
      "rating": 4.3,
      "image_url": "https://images.unsplash.com/photo-1566073771259-6a8506099945?w=800",
      "rooms_left": 5,
      "is_available": true,
      "hotel_type": {
        "label_en": "4-Star Hotel",
        "color": "#C0C0C0"
      },
      "cancellation": {
        "type": "free",
        "label_en": "Free Cancellation",
        "label_kr": "무료 취소",
        "is_refundable": true
      },
      "tags": {
        "list_en": [
          "#FreeCancellation",
          "#NearVenue"
        ],
        "list_kr": [
          "#취소가능",
          "#공연장근처"
        ],
        "display_en": "#FreeCancellation #NearVenue",
        "display_kr": "#취소가능 #공연장근처"
      },
      "lat": 37.6693,
      "lng": 126.7458,
      "location": {
        "area_en": "Goyang",
        "area_kr": "고양",
        "address_en": "Goyang, Gyeonggi-do",
        "address_kr": "경기도 고양"
      },
      "city_key": "goyang",
      "army_density": {
        "value": 58,
        "level_en": "Medium",
        "level_kr": "보통",
        "label_en": "ARMY 58%",
        "label_kr": "아미 58%"
      },
      "distance": {
        "type": "car",
        "display_en": "Drive 5min",
        "minutes": 5,
        "distance_km": 2.7
      },
      "transport": {
        "station_en": "Jeongbalsan",
        "line_en": "Line 3",
        "line_color": "#EF7C1C",
        "display_en": "Jeongbalsan (Line 3)"
      },
      "safe_return": {
        "venue_en": "Goyang Stadium",
        "route_en": "Goyang Stadium → Jeongbalsan (Line 3) → Hotel",
        "transport": "subway",
        "time_min": 25,
        "last_train": "23:50",
        "taxi_krw": 0
      },
      "army_local_guide": {
        "bts": [
          {
            "name_en": "MBC Sangam",
            "spot_tag": "Music Show",
            "description_en": "Music show filming",
            "distance_km": 16.3,
            "lat": 37.5786,
            "lng": 126.8918
          },
          {
            "name_en": "Hongdae Busking Street",
            "spot_tag": "Trainee Memory",
            "description_en": "Pre-debut busking spot",
            "distance_km": 20.0,
            "lat": 37.5563,
            "lng": 126.922
          },
          {
            "name_en": "Gwangjang Market",
            "spot_tag": "Debut Memory",
            "description_en": "2013 debut location",
            "distance_km": 25.7,
            "lat": 37.57,
            "lng": 127.0098
          }
        ],
        "restaurant": [
          {
            "name_en": "Western Dom Food Court",
            "spot_tag": "Food Court",
            "description_en": "Food court",
            "distance_km": 1.6,
            "lat": 37.663,
            "lng": 126.762
          },
          {
            "name_en": "La Festa Restaurants",
            "spot_tag": "Dining Hub",
            "description_en": "Restaurant complex",
            "distance_km": 2.5,
            "lat": 37.6575,
            "lng": 126.7705
          },
          {
            "name_en": "Ilsan Food Street",
            "spot_tag": "Local Eats",
            "description_en": "Local food street",
            "distance_km": 2.6,
            "lat": 37.658,
            "lng": 126.772
          }
        ],
        "cafe": [
          {
            "name_en": "Ilsan Lake Park Cafe Street",
            "spot_tag": "Lake View",
            "description_en": "Scenic cafes",
            "distance_km": 1.7,
            "lat": 37.659,
            "lng": 126.76
          },
          {
            "name_en": "La Festa Cafes",
            "spot_tag": "Trendy Cafe",
            "description_en": "Trendy cafes",
            "distance_km": 2.6,
            "lat": 37.6572,
            "lng": 126.771
          }
        ],
        "hotspot": [
          {
            "name_en": "One Mount",
            "spot_tag": "Entertainment",
            "description_en": "Theme park",
            "distance_km": 0.7,
            "lat": 37.665,
            "lng": 126.751
          },
          {
            "name_en": "Ilsan Lake Park",
            "spot_tag": "Must Visit",
            "description_en": "Beautiful lake park",
            "distance_km": 1.7,
            "lat": 37.658,
            "lng": 126.759
          },
          {
            "name_en": "Starfield Goyang",
            "spot_tag": "Shopping",
            "description_en": "Shopping mall",
            "distance_km": 13.4,
            "lat": 37.645,
            "lng": 126.895
          }
        ]
      },
      "map_detail": {
        "hotel": {
          "name_en": "Kintex by K-Tree",
          "lat": 37.6693,
          "lng": 126.7458
        },
        "venue": {
          "name_en": "Goyang Stadium",
          "lat": 37.6556,
          "lng": 126.7714
        },
        "nearby_spots": [
          {
            "name_en": "One Mount",
            "category": "hotspot",
            "spot_tag": "Entertainment",
            "lat": 37.665,
            "lng": 126.751,
            "distance_km": 0.7
          },
          {
            "name_en": "Western Dom Food Court",
            "category": "restaurant",
            "spot_tag": "Food Court",
            "lat": 37.663,
            "lng": 126.762,
            "distance_km": 1.6
          },
          {
            "name_en": "Ilsan Lake Park Cafe Street",
            "category": "cafe",
            "spot_tag": "Lake View",
            "lat": 37.659,
            "lng": 126.76,
            "distance_km": 1.7
          },
          {
            "name_en": "Ilsan Lake Park",
            "category": "hotspot",
            "spot_tag": "Must Visit",
            "lat": 37.658,
            "lng": 126.759,
            "distance_km": 1.7
          },
          {
            "name_en": "La Festa Restaurants",
            "category": "restaurant",
            "spot_tag": "Dining Hub",
            "lat": 37.6575,
            "lng": 126.7705,
            "distance_km": 2.5
          }
        ]
      },
      "platform": {
        "name": "Agoda",
        "booking_url": "https://www.agoda.com/kintex-by-k-tree/hotel/goyang-si-kr.html"
      },
      "booking_guide": {
        "steps_en": [
          "1. Select dates and search",
          "2. Choose room, click 'Book Now'",
          "3. Enter passport name",
          "4. Pay with credit card or PayPal",
          "5. Get instant confirmation"
        ],
        "tips_en": [
          "Pay at Hotel option available",
          "Check cancellation policy"
        ],
        "payment_methods": [
          "Credit Card",
          "PayPal",
          "Pay at Hotel"
        ],
        "foreigner_friendly": true
      },
      "last_update": "2026-02-06 11:29:19",
      "nearby": [
        {
          "id": "hotel_60393",
          "name_en": "MVL Hotel Kintex",
          "price_krw": 195000,
          "distance_km": 0.1,
          "image_url": "https://images.unsplash.com/photo-1542314831-068cd1dbfeeb?w=800"
        },
        {
          "id": "hotel_57792",
          "name_en": "Hotel Claum Ilsan",
          "price_krw": 68000,
          "distance_km": 0.4,
          "image_url": "https://images.unsplash.com/photo-1590490360182-c33d57733427?w=800"
        },
        {
          "id": "hotel_39464",
          "name_en": "Best Western Premier Guro",
          "price_krw": 125000,
          "distance_km": 0.7,
          "image_url": "https://images.unsplash.com/photo-1551882547-ff40c63fe5fa?w=800"
        }
      ]
    },
    {
      "id": "hotel_60393",
      "name_en": "MVL Hotel Kintex",
      "price_krw": 195000,
      "rating": 4.6,
      "image_url": "https://images.unsplash.com/photo-1542314831-068cd1dbfeeb?w=800",
      "rooms_left": 4,
      "is_available": true,
      "hotel_type": {
        "label_en": "5-Star Hotel",
        "color": "#FFD700"
      },
      "cancellation": {
        "type": "free",
        "label_en": "Free Cancellation",
        "label_kr": "무료 취소",
        "is_refundable": true
      },
      "tags": {
        "list_en": [
          "#FreeCancellation",
          "#NearVenue",
          "#Luxury"
        ],
        "list_kr": [
          "#취소가능",
          "#공연장근처",
          "#럭셔리"
        ],
        "display_en": "#FreeCancellation #NearVenue #Luxury",
        "display_kr": "#취소가능 #공연장근처 #럭셔리"
      },
      "lat": 37.6701,
      "lng": 126.7445,
      "location": {
        "area_en": "Goyang",
        "area_kr": "고양",
        "address_en": "Goyang, Gyeonggi-do",
        "address_kr": "경기도 고양"
      },
      "city_key": "goyang",
      "army_density": {
        "value": 57,
        "level_en": "Medium",
        "level_kr": "보통",
        "label_en": "ARMY 57%",
        "label_kr": "아미 57%"
      },
      "distance": {
        "type": "car",
        "display_en": "Drive 5min",
        "minutes": 5,
        "distance_km": 2.9
      },
      "transport": {
        "station_en": "Jeongbalsan",
        "line_en": "Line 3",
        "line_color": "#EF7C1C",
        "display_en": "Jeongbalsan (Line 3)"
      },
      "safe_return": {
        "venue_en": "Goyang Stadium",
        "route_en": "Goyang Stadium → Jeongbalsan (Line 3) → Hotel",
        "transport": "subway",
        "time_min": 26,
        "last_train": "23:50",
        "taxi_krw": 0
      },
      "army_local_guide": {
        "bts": [
          {
            "name_en": "MBC Sangam",
            "spot_tag": "Music Show",
            "description_en": "Music show filming",
            "distance_km": 16.5,
            "lat": 37.5786,
            "lng": 126.8918
          },
          {
            "name_en": "Hongdae Busking Street",
            "spot_tag": "Trainee Memory",
            "description_en": "Pre-debut busking spot",
            "distance_km": 20.1,
            "lat": 37.5563,
            "lng": 126.922
          },
          {
            "name_en": "Gwangjang Market",
            "spot_tag": "Debut Memory",
            "description_en": "2013 debut location",
            "distance_km": 25.9,
            "lat": 37.57,
            "lng": 127.0098
          }
        ],
        "restaurant": [
          {
            "name_en": "Western Dom Food Court",
            "spot_tag": "Food Court",
            "description_en": "Food court",
            "distance_km": 1.7,
            "lat": 37.663,
            "lng": 126.762
          },
          {
            "name_en": "La Festa Restaurants",
            "spot_tag": "Dining Hub",
            "description_en": "Restaurant complex",
            "distance_km": 2.7,
            "lat": 37.6575,
            "lng": 126.7705
          },
          {
            "name_en": "Ilsan Food Street",
            "spot_tag": "Local Eats",
            "description_en": "Local food street",
            "distance_km": 2.8,
            "lat": 37.658,
            "lng": 126.772
          }
        ],
        "cafe": [
          {
            "name_en": "Ilsan Lake Park Cafe Street",
            "spot_tag": "Lake View",
            "description_en": "Scenic cafes",
            "distance_km": 1.8,
            "lat": 37.659,
            "lng": 126.76
          },
          {
            "name_en": "La Festa Cafes",
            "spot_tag": "Trendy Cafe",
            "description_en": "Trendy cafes",
            "distance_km": 2.7,
            "lat": 37.6572,
            "lng": 126.771
          }
        ],
        "hotspot": [
          {
            "name_en": "One Mount",
            "spot_tag": "Entertainment",
            "description_en": "Theme park",
            "distance_km": 0.8,
            "lat": 37.665,
            "lng": 126.751
          },
          {
            "name_en": "Ilsan Lake Park",
            "spot_tag": "Must Visit",
            "description_en": "Beautiful lake park",
            "distance_km": 1.9,
            "lat": 37.658,
            "lng": 126.759
          },
          {
            "name_en": "Starfield Goyang",
            "spot_tag": "Shopping",
            "description_en": "Shopping mall",
            "distance_km": 13.5,
            "lat": 37.645,
            "lng": 126.895
          }
        ]
      },
      "map_detail": {
        "hotel": {
          "name_en": "MVL Hotel Kintex",
          "lat": 37.6701,
          "lng": 126.7445
        },
        "venue": {
          "name_en": "Goyang Stadium",
          "lat": 37.6556,
          "lng": 126.7714
        },
        "nearby_spots": [
          {
            "name_en": "One Mount",
            "category": "hotspot",
            "spot_tag": "Entertainment",
            "lat": 37.665,
            "lng": 126.751,
            "distance_km": 0.8
          },
          {
            "name_en": "Western Dom Food Court",
            "category": "restaurant",
            "spot_tag": "Food Court",
            "lat": 37.663,
            "lng": 126.762,
            "distance_km": 1.7
          },
          {
            "name_en": "Ilsan Lake Park Cafe Street",
            "category": "cafe",
            "spot_tag": "Lake View",
            "lat": 37.659,
            "lng": 126.76,
            "distance_km": 1.8
          },
          {
            "name_en": "Ilsan Lake Park",
            "category": "hotspot",
            "spot_tag": "Must Visit",
            "lat": 37.658,
            "lng": 126.759,
            "distance_km": 1.9
          },
          {
            "name_en": "La Festa Restaurants",
            "category": "restaurant",
            "spot_tag": "Dining Hub",
            "lat": 37.6575,
            "lng": 126.7705,
            "distance_km": 2.7
          }
        ]
      },
      "platform": {
        "name": "Agoda",
        "booking_url": "https://www.agoda.com/mvl-hotel-kintex/hotel/goyang-si-kr.html"
      },
      "booking_guide": {
        "steps_en": [
          "1. Select dates and search",
          "2. Choose room, click 'Book Now'",
          "3. Enter passport name",
          "4. Pay with credit card or PayPal",
          "5. Get instant confirmation"
        ],
        "tips_en": [
          "Pay at Hotel option available",
          "Check cancellation policy"
        ],
        "payment_methods": [
          "Credit Card",
          "PayPal",
          "Pay at Hotel"
        ],
        "foreigner_friendly": true
      },