{
  "home": {
    "venue": {
      "name_en": "Goyang Stadium",
      "name_kr": "고양종합운동장",
      "lat": 37.6556,
      "lng": 126.7714
    },
    "available_count": 27,
    "total_count": 27,
    "lowest_price_krw": 16,
    "last_update": "2026-02-05 11:32:13"
  },
  "map": {
    "venue": {
      "name_en": "Goyang Stadium",
      "lat": 37.6556,
      "lng": 126.7714,
      "type": "venue"
    },
    "local_spots": [
      {
        "name_en": "HYBE INSIGHT",
        "category": "bts",
        "spot_tag": "BTS Museum",
        "lat": 37.526,
        "lng": 127.0405
      },
      {
        "name_en": "HYBE Headquarters",
        "category": "bts",
        "spot_tag": "BTS Home",
        "lat": 37.528,
        "lng": 127.04
      },
      {
        "name_en": "Hongdae Busking Street",
        "category": "bts",
        "spot_tag": "Trainee Memory",
        "lat": 37.5563,
        "lng": 126.922
      },
      {
        "name_en": "MBC Sangam",
        "category": "bts",
        "spot_tag": "Music Show",
        "lat": 37.5786,
        "lng": 126.8918
      },
      {
        "name_en": "Gwangjang Market",
        "category": "bts",
        "spot_tag": "Debut Memory",
        "lat": 37.57,
        "lng": 127.0098
      },
      {
        "name_en": "Ilsan Food Street",
        "category": "restaurant",
        "spot_tag": "Local Eats",
        "lat": 37.658,
        "lng": 126.772
      },
      {
        "name_en": "La Festa Restaurants",
        "category": "restaurant",
        "spot_tag": "Dining Hub",
        "lat": 37.6575,
        "lng": 126.7705
      },
      {
        "name_en": "Western Dom Food Court",
        "category": "restaurant",
        "spot_tag": "Food Court",
        "lat": 37.663,
        "lng": 126.762
      },
      {
        "name_en": "Ilsan Lake Park Cafe Street",
        "category": "cafe",
        "spot_tag": "Lake View",
        "lat": 37.659,
        "lng": 126.76
      },
      {
        "name_en": "La Festa Cafes",
        "category": "cafe",
        "spot_tag": "Trendy Cafe",
        "lat": 37.6572,
        "lng": 126.771
      },
      {
        "name_en": "Ilsan Lake Park",
        "category": "hotspot",
        "spot_tag": "Must Visit",
        "lat": 37.658,
        "lng": 126.759
      },
      {
        "name_en": "One Mount",
        "category": "hotspot",
        "spot_tag": "Entertainment",
        "lat": 37.665,
        "lng": 126.751
      },
      {
        "name_en": "Starfield Goyang",
        "category": "hotspot",
        "spot_tag": "Shopping",
        "lat": 37.645,
        "lng": 126.895
      }
    ],
    "hotels": [
      {
        "id": "hotel_03840",
        "name_en": "호스텔 코리아 - 오리지널",
        "lat": 37.65610817825809,
        "lng": 126.77170955697137,
        "price_krw": 31
      },
      {
        "id": "hotel_44197",
        "name_en": "나비 모텔",
        "lat": 37.651935960081275,
        "lng": 126.76970414958257,
        "price_krw": 30
      },
      {
        "id": "hotel_62846",
        "name_en": "아마존 게스트하우스",
        "lat": 37.65957255054139,
        "lng": 126.77295037314302,
        "price_krw": 32
      },
      {
        "id": "hotel_32165",
        "name_en": "하우재 이태원",
        "lat": 37.6508002207699,
        "lng": 126.77102759260804,
        "price_krw": 33
      },
      {
        "id": "hotel_41884",
        "name_en": "NJ Affordable and cozy accommodation near Nakseongdae Station",
        "lat": 37.65983248670948,
        "lng": 126.77008021636722,
        "price_krw": 33
      },
      {
        "id": "hotel_07035",
        "name_en": "Only for Woman - Happy House",
        "lat": 37.66088724448781,
        "lng": 126.7686612306916,
        "price_krw": 33
      },
      {
        "id": "hotel_01052",
        "name_en": "봄스테이",
        "lat": 37.65037374682609,
        "lng": 126.77277606188524,
        "price_krw": 33
      },
      {
        "id": "hotel_85976",
        "name_en": "서울앤호텔 동대문",
        "lat": 37.656409944013475,
        "lng": 126.77785121465125,
        "price_krw": 34
      },
      {
        "id": "hotel_66776",
        "name_en": "영광 초현 펜션",
        "lat": 37.661297368385284,
        "lng": 126.76902692416822,
        "price_krw": 61
      },
      {
        "id": "hotel_54134",
        "name_en": "Station Hostel In Namguro",
        "lat": 37.65364611164047,
        "lng": 126.76392263719536,
        "price_krw": 25
      },
      {
        "id": "hotel_27361",
        "name_en": "스프링 라이트",
        "lat": 37.64933915505703,
        "lng": 126.77157745027952,
        "price_krw": 26
      },
      {
        "id": "hotel_85447",
        "name_en": "수정장 여관",
        "lat": 37.656354756787415,
        "lng": 126.76388390853057,
        "price_krw": 31
      },
      {
        "id": "hotel_09632",
        "name_en": "킴스테이 9",
        "lat": 37.659883797264236,
        "lng": 126.76484603093779,
        "price_krw": 33
      },
      {
        "id": "hotel_27282",
        "name_en": "해치 스테이 게스트하우스 - 외국인 전용",
        "lat": 37.65543297257381,
        "lng": 126.76336729308584,
        "price_krw": 34
      },
      {
        "id": "hotel_05829",
        "name_en": "Jinho's Guest House",
        "lat": 37.662685155334806,
        "lng": 126.77352655158903,
        "price_krw": 31
      },
      {
        "id": "hotel_65975",
        "name_en": "서울 게스트하우스 외국인 전용",
        "lat": 37.66350427305257,
        "lng": 126.77544195348446,
        "price_krw": 16
      },
      {
        "id": "hotel_83635",
        "name_en": "1975 Yurim Inn",
        "lat": 37.663588250698204,
        "lng": 126.77176225296971,
        "price_krw": 24
      },
      {
        "id": "hotel_08547",
        "name_en": "버즈네스트 호스텔 홍대 - 외국인 전용",
        "lat": 37.65876593570469,
        "lng": 126.76167063118933,
        "price_krw": 24
      },
      {
        "id": "hotel_01436",
        "name_en": "J2 Us#1",
        "lat": 37.64796734945227,
        "lng": 126.76965627514629,
        "price_krw": 26
      },
      {
        "id": "hotel_96637",
        "name_en": "웨이홈 가산",
        "lat": 37.663090390988145,
        "lng": 126.76644067508468,
        "price_krw": 33
      },
      {
        "id": "hotel_95995",
        "name_en": "서울 달빛 동대문 게스트하우스",
        "lat": 37.663097748713724,
        "lng": 126.77527726424438,
        "price_krw": 33
      },
      {
        "id": "hotel_84577",
        "name_en": "루미에르h호텔",
        "lat": 37.652375749943324,
        "lng": 126.76153703375043,
        "price_krw": 34
      },
      {
        "id": "hotel_80305",
        "name_en": "커플 모텔",
        "lat": 37.6580107500923,
        "lng": 126.76143192160858,
        "price_krw": 34
      },
      {
        "id": "hotel_73535",
        "name_en": "호스텔 서울",
        "lat": 37.66265819642744,
        "lng": 126.77575142887008,
        "price_krw": 36
      },
      {
        "id": "hotel_61515",
        "name_en": "고창 황토복분자펜션",
        "lat": 37.65034837151451,
        "lng": 126.7806415981261,
        "price_krw": 120
      },
      {
        "id": "hotel_45836",
        "name_en": "From H US Hotel with Anook Seoul Gangseo Hwagok",
        "lat": 37.65185765528744,
        "lng": 126.78112241889303,
        "price_krw": 31
      },
      {
        "id": "hotel_70788",
        "name_en": "명동 스튜디오 아파트먼트",
        "lat": 37.664583573109276,
        "lng": 126.77190780518433,
        "price_krw": 32
      }
    ]
  },
  "hotels": [
    {
      "id": "hotel_03840",
      "name_en": "호스텔 코리아 - 오리지널",
      "price_krw": 31,
      "rating": 5.65,
      "image_url": "https://cf.bstatic.com/xdata/images/hotel/square240/136597371.webp?k=23108736ef367db8cb300bf857249eaa70b51fb8ce5efdc3d12f9541429f379d&o=",
      "rooms_left": -1,
      "is_available": true,
      "hotel_type": {
        "label_en": "Hotel",
        "color": "#4A90D9"
      },
      "cancellation": {
        "type": "free",
        "label_en": "Free Cancellation",
        "label_kr": "무료 취소",
        "is_refundable": true
      },
      "tags": {
        "list_en": [
          "#FreeCancellation",
          "#ARMYPopular",
          "#WalkToVenue"
        ],
        "list_kr": [
          "#취소가능",
          "#아미인기",
          "#도보가능"
        ],
        "display_en": "#FreeCancellation #ARMYPopular #WalkToVenue",
        "display_kr": "#취소가능 #아미인기 #도보가능"
      },
      "lat": 37.65610817825809,
      "lng": 126.77170955697137,
      "location": {
        "area_en": "Gwanghwamun",
        "area_kr": "광화문",
        "address_en": "Gwanghwamun, Seoul",
        "address_kr": "서울 광화문"
      },
      "city_key": "gwanghwamun",
      "army_density": {
        "value": 65,
        "level_en": "High",
        "level_kr": "높음",
        "label_en": "ARMY 65%",
        "label_kr": "아미 65%"
      },
      "distance": {
        "type": "walk",
        "display_en": "Walk 0min",
        "minutes": 0,
        "distance_km": 0.1
      },
      "transport": {
        "station_en": "Jeongbalsan",
        "line_en": "Line 3",
        "line_color": "#EF7C1C",
        "display_en": "Jeongbalsan (Line 3)"
      },
      "safe_return": {
        "venue_en": "Goyang Stadium",
        "route_en": "Walk from Goyang Stadium → Hotel",
        "transport": "walk",
        "time_min": 0,
        "last_train": "23:50",
        "taxi_krw": 0
      },
      "army_local_guide": {
        "bts": [
          {
            "name_en": "MBC Sangam",
            "spot_tag": "Music Show",
            "description_en": "Music show filming",
            "distance_km": 13.6,
            "lat": 37.5786,
            "lng": 126.8918
          },
          {
            "name_en": "Hongdae Busking Street",
            "spot_tag": "Trainee Memory",
            "description_en": "Pre-debut busking spot",
            "distance_km": 17.3,
            "lat": 37.5563,
            "lng": 126.922
          },
          {
            "name_en": "Gwangjang Market",
            "spot_tag": "Debut Memory",
            "description_en": "2013 debut location",
            "distance_km": 23.1,
            "lat": 37.57,
            "lng": 127.0098
          }
        ],
        "restaurant": [
          {
            "name_en": "Ilsan Food Street",
            "spot_tag": "Local Eats",
            "description_en": "Local food street",
            "distance_km": 0.2,
            "lat": 37.658,
            "lng": 126.772
          },
          {
            "name_en": "La Festa Restaurants",
            "spot_tag": "Dining Hub",
            "description_en": "Restaurant complex",
            "distance_km": 0.2,
            "lat": 37.6575,
            "lng": 126.7705
          },
          {
            "name_en": "Western Dom Food Court",
            "spot_tag": "Food Court",
            "description_en": "Food court",
            "distance_km": 1.1,
            "lat": 37.663,
            "lng": 126.762
          }
        ],
        "cafe": [
          {
            "name_en": "La Festa Cafes",
            "spot_tag": "Trendy Cafe",
            "description_en": "Trendy cafes",
            "distance_km": 0.1,
            "lat": 37.6572,
            "lng": 126.771
          },
          {
            "name_en": "Ilsan Lake Park Cafe Street",
            "spot_tag": "Lake View",
            "description_en": "Scenic cafes",
            "distance_km": 1.1,
            "lat": 37.659,
            "lng": 126.76
          }
        ],
        "hotspot": [
          {
            "name_en": "Ilsan Lake Park",
            "spot_tag": "Must Visit",
            "description_en": "Beautiful lake park",
            "distance_km": 1.1,
            "lat": 37.658,
            "lng": 126.759
          },
          {
            "name_en": "One Mount",
            "spot_tag": "Entertainment",
            "description_en": "Theme park",
            "distance_km": 2.1,
            "lat": 37.665,
            "lng": 126.751
          },
          {
            "name_en": "Starfield Goyang",
            "spot_tag": "Shopping",
            "description_en": "Shopping mall",
            "distance_km": 10.9,
            "lat": 37.645,
            "lng": 126.895
          }
        ]
      },
      "map_detail": {
        "hotel": {
          "name_en": "호스텔 코리아 - 오리지널",
          "lat": 37.65610817825809,
          "lng": 126.77170955697137
        },
        "venue": {
          "name_en": "Goyang Stadium",
          "lat": 37.6556,
          "lng": 126.7714
        },
        "nearby_spots": [
          {
            "name_en": "La Festa Cafes",
            "category": "cafe",
            "spot_tag": "Trendy Cafe",
            "lat": 37.6572,
            "lng": 126.771,
            "distance_km": 0.1
          },
          {
            "name_en": "Ilsan Food Street",
            "category": "restaurant",
            "spot_tag": "Local Eats",
            "lat": 37.658,
            "lng": 126.772,
            "distance_km": 0.2
          },
          {
            "name_en": "La Festa Restaurants",
            "category": "restaurant",
            "spot_tag": "Dining Hub",
            "lat": 37.6575,
            "lng": 126.7705,
            "distance_km": 0.2
          },
          {
            "name_en": "Western Dom Food Court",
            "category": "restaurant",
            "spot_tag": "Food Court",
            "lat": 37.663,
            "lng": 126.762,
            "distance_km": 1.1
          },
          {
            "name_en": "Ilsan Lake Park Cafe Street",
            "category": "cafe",
            "spot_tag": "Lake View",
            "lat": 37.659,
            "lng": 126.76,
            "distance_km": 1.1
          }
        ]
      },
      "platform": {
        "name": "Booking.com",
        "booking_url": "https://www.booking.comhttps://www.booking.com/hotel/kr/hostel-korea-original.ko.html?aid=304142&label=mkt123sc-79896cbf-144b-4202-a3b3-91d0d8b371b7&ucfs=1&arphpl=1&checkin=2026-06-11&checkout=2026-06-13&dest_id=-716583&dest_type=city&group_adults=2&req_adults=2&no_rooms=1&group_children=0&req_children=0&hpos=8&hapos=8&sr_order=price&srpvid=861acfe8b7314bde7d196898baf9f8e1&srepoch=1770291121&all_sr_blocks=54842503_359105894_0_1_0&highlighted_blocks=54842503_359105894_0_1_0&matching_block_id=54842503_359105894_0_1_0&sr_pri_blocks=54842503_359105894_0_1_0__8981818&from=searchresults"
      },
      "booking_guide": {
        "steps_en": [
          "1. Search Goyang hotels",
          "2. Filter by 'Free Cancellation'",
          "3. Select room and enter info",
          "4. Pay online or at property",
          "5. Show confirmation at check-in"
        ],
        "tips_en": [
          "Genius membership for discounts",
          "Free cancellation options"
        ],
        "payment_methods": [
          "Credit Card",
          "Pay at Property"
        ],
        "foreigner_friendly": true
      },
      "last_update": "2026-02-05 11:32:13",
      "nearby": [
        {
          "id": "hotel_62846",
          "name_en": "아마존 게스트하우스",
          "price_krw": 32,
          "distance_km": 0.4,
          "image_url": "https://cf.bstatic.com/xdata/images/hotel/square240/204809971.webp?k=2076895c90fbe62ff827488d80e3c0ed366c172052bce07cf491528f6f2577b3&o="
        },
        {
          "id": "hotel_41884",
          "name_en": "NJ Affordable and cozy accommodation near Nakseongdae Station",
          "price_krw": 33,
          "distance_km": 0.4,
          "image_url": "https://cf.bstatic.com/xdata/images/hotel/square240/618384754.webp?k=ecfb59155c3c8dbda580cc3f6abc111997917ed07f6ec571aea2721795960f52&o="
        },
        {
          "id": "hotel_44197",
          "name_en": "나비 모텔",
          "price_krw": 30,
          "distance_km": 0.5,
          "image_url": "https://cf.bstatic.com/xdata/images/hotel/square240/742412160.webp?k=63250a68ba8b666002c2532891aebefe0b4bdab4114f6db63d5e0fb33129312e&o="
        }
      ]
    },
    {
      "id": "hotel_44197",
      "name_en": "나비 모텔",
      "price_krw": 30,
      "rating": 7.97,
      "image_url": "https://cf.bstatic.com/xdata/images/hotel/square240/742412160.webp?k=63250a68ba8b666002c2532891aebefe0b4bdab4114f6db63d5e0fb33129312e&o=",
      "rooms_left": -1,
      "is_available": true,
      "hotel_type": {
        "label_en": "Hotel",
        "color": "#4A90D9"
      },
      "cancellation": {
        "type": "free",
        "label_en": "Free Cancellation",
        "label_kr": "무료 취소",
        "is_refundable": true
      },
      "tags": {
        "list_en": [
          "#FreeCancellation",
          "#ARMYPopular",
          "#WalkToVenue"
        ],
        "list_kr": [
          "#취소가능",
          "#아미인기",
          "#도보가능"
        ],
        "display_en": "#FreeCancellation #ARMYPopular #WalkToVenue",
        "display_kr": "#취소가능 #아미인기 #도보가능"
      },
      "lat": 37.651935960081275,
      "lng": 126.76970414958257,
      "location": {
        "area_en": "Gwanghwamun",
        "area_kr": "광화문",
        "address_en": "Gwanghwamun, Seoul",
        "address_kr": "서울 광화문"
      },
      "city_key": "gwanghwamun",
      "army_density": {
        "value": 65,
        "level_en": "High",
        "level_kr": "높음",
        "label_en": "ARMY 65%",
        "label_kr": "아미 65%"
      },
      "distance": {
        "type": "walk",
        "display_en": "Walk 5min",
        "minutes": 5,
        "distance_km": 0.4
      },
      "transport": {
        "station_en": "Jeongbalsan",
        "line_en": "Line 3",
        "line_color": "#EF7C1C",
        "display_en": "Jeongbalsan (Line 3)"
      },
      "safe_return": {
        "venue_en": "Goyang Stadium",
        "route_en": "Walk from Goyang Stadium → Hotel",
        "transport": "walk",
        "time_min": 5,
        "last_train": "23:50",
        "taxi_krw": 0
      },
      "army_local_guide": {
        "bts": [
          {
            "name_en": "MBC Sangam",
            "spot_tag": "Music Show",
            "description_en": "Music show filming",
            "distance_km": 13.5,
            "lat": 37.5786,
            "lng": 126.8918
          },
          {
            "name_en": "Hongdae Busking Street",
            "spot_tag": "Trainee Memory",
            "description_en": "Pre-debut busking spot",
            "distance_km": 17.1,
            "lat": 37.5563,
            "lng": 126.922
          },
          {
            "name_en": "Gwangjang Market",
            "spot_tag": "Debut Memory",
            "description_en": "2013 debut location",
            "distance_km": 23.0,
            "lat": 37.57,
            "lng": 127.0098
          }
        ],
        "restaurant": [
          {
            "name_en": "La Festa Restaurants",
            "spot_tag": "Dining Hub",
            "description_en": "Restaurant complex",
            "distance_km": 0.6,
            "lat": 37.6575,
            "lng": 126.7705
          },
          {
            "name_en": "Ilsan Food Street",
            "spot_tag": "Local Eats",
            "description_en": "Local food street",
            "distance_km": 0.7,
            "lat": 37.658,
            "lng": 126.772
          },
          {
            "name_en": "Western Dom Food Court",
            "spot_tag": "Food Court",
            "description_en": "Food court",
            "distance_km": 1.4,
            "lat": 37.663,
            "lng": 126.762
          }
        ],
        "cafe": [
          {
            "name_en": "La Festa Cafes",
            "spot_tag": "Trendy Cafe",
            "description_en": "Trendy cafes",
            "distance_km": 0.6,
            "lat": 37.6572,
            "lng": 126.771
          },
          {
            "name_en": "Ilsan Lake Park Cafe Street",
            "spot_tag": "Lake View",
            "description_en": "Scenic cafes",
            "distance_km": 1.2,
            "lat": 37.659,
            "lng": 126.76
          }
        ],
        "hotspot": [
          {
            "name_en": "Ilsan Lake Park",
            "spot_tag": "Must Visit",
            "description_en": "Beautiful lake park",
            "distance_km": 1.2,
            "lat": 37.658,
            "lng": 126.759
          },
          {
            "name_en": "One Mount",
            "spot_tag": "Entertainment",
            "description_en": "Theme park",
            "distance_km": 2.2,
            "lat": 37.665,
            "lng": 126.751
          },
          {
            "name_en": "Starfield Goyang",
            "spot_tag": "Shopping",
            "description_en": "Shopping mall",
            "distance_km": 11.1,
            "lat": 37.645,
            "lng": 126.895
          }
        ]
      },
      "map_detail": {
        "hotel": {
          "name_en": "나비 모텔",
          "lat": 37.651935960081275,
          "lng": 126.76970414958257
        },
        "venue": {
          "name_en": "Goyang Stadium",
          "lat": 37.6556,
          "lng": 126.7714
        },
        "nearby_spots": [
          {
            "name_en": "La Festa Restaurants",
            "category": "restaurant",
            "spot_tag": "Dining Hub",
            "lat": 37.6575,
            "lng": 126.7705,
            "distance_km": 0.6
          },
          {
            "name_en": "La Festa Cafes",
            "category": "cafe",
            "spot_tag": "Trendy Cafe",
            "lat": 37.6572,
            "lng": 126.771,
            "distance_km": 0.6
          },
          {
            "name_en": "Ilsan Food Street",
            "category": "restaurant",
            "spot_tag": "Local Eats",
            "lat": 37.658,
            "lng": 126.772,
            "distance_km": 0.7
          },
          {
            "name_en": "Ilsan Lake Park Cafe Street",
            "category": "cafe",
            "spot_tag": "Lake View",
            "lat": 37.659,
            "lng": 126.76,
            "distance_km": 1.2
          },
          {
            "name_en": "Ilsan Lake Park",
            "category": "hotspot",
            "spot_tag": "Must Visit",
            "lat": 37.658,
            "lng": 126.759,
            "distance_km": 1.2
          }
        ]
      },
      "platform": {
        "name": "Booking.com",
        "booking_url": "https://www.booking.comhttps://www.booking.com/hotel/kr/navi.ko.html?aid=304142&label=mkt123sc-79896cbf-144b-4202-a3b3-91d0d8b371b7&ucfs=1&arphpl=1&checkin=2026-06-11&checkout=2026-06-13&dest_id=-716583&dest_type=city&group_adults=2&req_adults=2&no_rooms=1&group_children=0&req_children=0&hpos=6&hapos=6&sr_order=price&srpvid=861acfe8b7314bde7d196898baf9f8e1&srepoch=1770291121&all_sr_blocks=1489147801_420567604_2_0_0&highlighted_blocks=1489147801_420567604_2_0_0&matching_block_id=1489147801_420567604_2_0_0&sr_pri_blocks=1489147801_420567604_2_0_0__8590909&from=searchresults"
      },
      "booking_guide": {
        "steps_en": [
          "1. Search Goyang hotels",
          "2. Filter by 'Free Cancellation'",
          "3. Select room and enter info",
          "4. Pay online or at property",
          "5. Show confirmation at check-in"
        ],
        "tips_en": [
          "Genius membership for discounts",
          "Free cancellation options"
        ],
        "payment_methods": [
          "Credit Card",
          "Pay at Property"
        ],
        "foreigner_friendly": true
      },
      "last_update": "2026-02-05 11:32:13",
      "nearby": [
        {
          "id": "hotel_32165",
          "name_en": "하우재 이태원",
          "price_krw": 33,
          "distance_km": 0.2,
          "image_url": "https://cf.bstatic.com/xdata/images/hotel/square240/186139806.webp?k=ecff2c5195af1f03a79ce7bb93f4a183a270700f0a995f19820d276a1d85cde2&o="
        },
        {
          "id": "hotel_27361",
          "name_en": "스프링 라이트",
          "price_krw": 26,
          "distance_km": 0.3,
          "image_url": "https://cf.bstatic.com/xdata/images/hotel/square240/329454863.webp?k=4d32ccde73798b309ec136a826de0a7a8fd83d728750e5f93dc6984f338785a5&o="
        },
        {
          "id": "hotel_01052",
          "name_en": "봄스테이",
          "price_krw": 33,
          "distance_km": 0.3,
          "image_url": "https://cf.bstatic.com/xdata/images/hotel/square240/817732561.webp?k=3e021798c98fd0fbff978d6c86f54cb77809984cfed5c8d636acc17a61c3dbde&o="
        }
      ]
    },
    {
      "id": "hotel_62846",
      "name_en": "아마존 게스트하우스",
      "price_krw": 32,
      "rating": 8.08,
      "image_url": "https://cf.bstatic.com/xdata/images/hotel/square240/204809971.webp?k=2076895c90fbe62ff827488d80e3c0ed366c172052bce07cf491528f6f2577b3&o=",
      "rooms_left": -1,
      "is_available": true,
      "hotel_type": {
        "label_en": "Hotel",
        "color": "#4A90D9"
      },
      "cancellation": {
        "type": "free",
        "label_en": "Free Cancellation",
        "label_kr": "무료 취소",
        "is_refundable": true
      },
      "tags": {
        "list_en": [
          "#FreeCancellation",
          "#ARMYPopular",
          "#WalkToVenue"
        ],
        "list_kr": [
          "#취소가능",
          "#아미인기",
          "#도보가능"
        ],
        "display_en": "#FreeCancellation #ARMYPopular #WalkToVenue",
        "display_kr": "#취소가능 #아미인기 #도보가능"
      },
      "lat": 37.65957255054139,
      "lng": 126.77295037314302,
      "location": {
        "area_en": "Gwanghwamun",
        "area_kr": "광화문",
        "address_en": "Gwanghwamun, Seoul",
        "address_kr": "서울 광화문"
      },
      "city_key": "gwanghwamun",
      "army_density": {
        "value": 65,
        "level_en": "High",
        "level_kr": "높음",
        "label_en": "ARMY 65%",
        "label_kr": "아미 65%"
      },
      "distance": {
        "type": "walk",
        "display_en": "Walk 5min",
        "minutes": 5,
        "distance_km": 0.5
      },
      "transport": {
        "station_en": "Jeongbalsan",
        "line_en": "Line 3",
        "line_color": "#EF7C1C",
        "display_en": "Jeongbalsan (Line 3)"
      },
      "safe_return": {
        "venue_en": "Goyang Stadium",
        "route_en": "Walk from Goyang Stadium → Hotel",
        "transport": "walk",
        "time_min": 5,
        "last_train": "23:50",
        "taxi_krw": 0
      },
      "army_local_guide": {
        "bts": [
          {
            "name_en": "MBC Sangam",
            "spot_tag": "Music Show",
            "description_en": "Music show filming",
            "distance_km": 13.8,
            "lat": 37.5786,
            "lng": 126.8918
          },
          {
            "name_en": "Hongdae Busking Street",
            "spot_tag": "Trainee Memory",
            "description_en": "Pre-debut busking spot",
            "distance_km": 17.4,
            "lat": 37.5563,
            "lng": 126.922
          },
          {
            "name_en": "Gwangjang Market",
            "spot_tag": "Debut Memory",
            "description_en": "2013 debut location",
            "distance_km": 23.1,
            "lat": 37.57,
            "lng": 127.0098
          }
        ],
        "restaurant": [
          {
            "name_en": "Ilsan Food Street",
            "spot_tag": "Local Eats",
            "description_en": "Local food street",
            "distance_km": 0.2,
            "lat": 37.658,
            "lng": 126.772
          },
          {
            "name_en": "La Festa Restaurants",
            "spot_tag": "Dining Hub",
            "description_en": "Restaurant complex",
            "distance_km": 0.3,
            "lat": 37.6575,
            "lng": 126.7705
          },
          {
            "name_en": "Western Dom Food Court",
            "spot_tag": "Food Court",
            "description_en": "Food court",
            "distance_km": 1.0,
            "lat": 37.663,
            "lng": 126.762
          }
        ],
        "cafe": [
          {
            "name_en": "La Festa Cafes",
            "spot_tag": "Trendy Cafe",
            "description_en": "Trendy cafes",
            "distance_km": 0.3,
            "lat": 37.6572,
            "lng": 126.771
          },
          {
            "name_en": "Ilsan Lake Park Cafe Street",
            "spot_tag": "Lake View",
            "description_en": "Scenic cafes",
            "distance_km": 1.1,
            "lat": 37.659,
            "lng": 126.76
          }
        ],
        "hotspot": [
          {
            "name_en": "Ilsan Lake Park",
            "spot_tag": "Must Visit",
            "description_en": "Beautiful lake park",
            "distance_km": 1.2,
            "lat": 37.658,
            "lng": 126.759
          },
          {
            "name_en": "One Mount",
            "spot_tag": "Entertainment",
            "description_en": "Theme park",
            "distance_km": 2.0,
            "lat": 37.665,
            "lng": 126.751
          },
          {
            "name_en": "Starfield Goyang",
            "spot_tag": "Shopping",
            "description_en": "Shopping mall",
            "distance_km": 10.9,
            "lat": 37.645,
            "lng": 126.895
          }
        ]
      },
      "map_detail": {
        "hotel": {
          "name_en": "아마존 게스트하우스",
          "lat": 37.65957255054139,
          "lng": 126.77295037314302
        },
        "venue": {
          "name_en": "Goyang Stadium",
          "lat": 37.6556,
          "lng": 126.7714
        },
        "nearby_spots": [
          {
            "name_en": "Ilsan Food Street",
            "category": "restaurant",
            "spot_tag": "Local Eats",
            "lat": 37.658,
            "lng": 126.772,
            "distance_km": 0.2
          },
          {
            "name_en": "La Festa Restaurants",
            "category": "restaurant",
            "spot_tag": "Dining Hub",
            "lat": 37.6575,
            "lng": 126.7705,
            "distance_km": 0.3
          },
          {
            "name_en": "La Festa Cafes",
            "category": "cafe",
            "spot_tag": "Trendy Cafe",
            "lat": 37.6572,
            "lng": 126.771,
            "distance_km": 0.3
          },
          {
            "name_en": "Western Dom Food Court",
            "category": "restaurant",
            "spot_tag": "Food Court",
            "lat": 37.663,
            "lng": 126.762,
            "distance_km": 1.0
          },
          {
            "name_en": "Ilsan Lake Park Cafe Street",
            "category": "cafe",
            "spot_tag": "Lake View",
            "lat": 37.659,
            "lng": 126.76,
            "distance_km": 1.1
          }
        ]
      },
      "platform": {
        "name": "Booking.com",
        "booking_url": "https://www.booking.comhttps://www.booking.com/hotel/kr/amazon-guesthouse.ko.html?aid=304142&label=mkt123sc-79896cbf-144b-4202-a3b3-91d0d8b371b7&ucfs=1&arphpl=1&checkin=2026-06-11&checkout=2026-06-13&dest_id=-716583&dest_type=city&group_adults=2&req_adults=2&no_rooms=1&group_children=0&req_children=0&hpos=12&hapos=12&sr_order=price&srpvid=861acfe8b7314bde7d196898baf9f8e1&srepoch=1770291121&all_sr_blocks=201417405_171843636_0_0_0%2C201417405_171843636_0_0_0&highlighted_blocks=201417405_171843636_0_0_0%2C201417405_171843636_0_0_0&matching_block_id=201417405_171843636_0_0_0&sr_pri_blocks=201417405_171843636_0_0_0__4636364%2C201417405_171843636_0_0_0__4636364&from=searchresults"
      },
      "booking_guide": {
        "steps_en": [
          "1. Search Goyang hotels",
          "2. Filter by 'Free Cancellation'",
          "3. Select room and enter info",
          "4. Pay online or at property",
          "5. Show confirmation at check-in"
        ],
        "tips_en": [
          "Genius membership for discounts",
          "Free cancellation options"
        ],
        "payment_methods": [
          "Credit Card",
          "Pay at Property"
        ],
        "foreigner_friendly": true
      },
      "last_update": "2026-02-05 11:32:13",
      "nearby": [
        {
          "id": "hotel_05829",
          "name_en": "Jinho's Guest House",
          "price_krw": 31,
          "distance_km": 0.3,
          "image_url": "https://cf.bstatic.com/xdata/images/hotel/square240/285506527.webp?k=46803f59d80253bb3ef81c4864e08e05f94de01d1e9a30625d48f06825eddc78&o="
        },
        {
          "id": "hotel_41884",
          "name_en": "NJ Affordable and cozy accommodation near Nakseongdae Station",
          "price_krw": 33,
          "distance_km": 0.3,
          "image_url": "https://cf.bstatic.com/xdata/images/hotel/square240/618384754.webp?k=ecfb59155c3c8dbda580cc3f6abc111997917ed07f6ec571aea2721795960f52&o="
        },
        {
          "id": "hotel_66776",
          "name_en": "영광 초현 펜션",
          "price_krw": 61,
          "distance_km": 0.4,
          "image_url": "https://cf.bstatic.com/xdata/images/hotel/square240/595635082.webp?k=4207cccff3454d1f4468ff2517dc9e008a887d4c1426327462d491a19f52b665&o="
        }
      ]
    },
    {
      "id": "hotel_32165",
      "name_en": "하우재 이태원",
      "price_krw": 33,
      "rating": 7.27,
      "image_url": "https://cf.bstatic.com/xdata/images/hotel/square240/186139806.webp?k=ecff2c5195af1f03a79ce7bb93f4a183a270700f0a995f19820d276a1d85cde2&o=",
      "rooms_left": -1,
      "is_available": true,
      "hotel_type": {
        "label_en": "Hotel",
        "color": "#4A90D9"
      },
      "cancellation": {
        "type": "free",
        "label_en": "Free Cancellation",
        "label_kr": "무료 취소",
        "is_refundable": true
      },
      "tags": {
        "list_en": [
          "#FreeCancellation",
          "#ARMYPopular",
          "#WalkToVenue"
        ],
        "list_kr": [
          "#취소가능",
          "#아미인기",
          "#도보가능"
        ],
        "display_en": "#FreeCancellation #ARMYPopular #WalkToVenue",
        "display_kr": "#취소가능 #아미인기 #도보가능"
      },
      "lat": 37.6508002207699,
      "lng": 126.77102759260804,
      "location": {
        "area_en": "Gwanghwamun",
        "area_kr": "광화문",
        "address_en": "Gwanghwamun, Seoul",
        "address_kr": "서울 광화문"
      },
      "city_key": "gwanghwamun",
      "army_density": {
        "value": 65,
        "level_en": "High",
        "level_kr": "높음",
        "label_en": "ARMY 65%",
        "label_kr": "아미 65%"
      },
      "distance": {
        "type": "walk",
        "display_en": "Walk 6min",
        "minutes": 6,
        "distance_km": 0.5
      },
      "transport": {
        "station_en": "Jeongbalsan",
        "line_en": "Line 3",
        "line_color": "#EF7C1C",
        "display_en": "Jeongbalsan (Line 3)"
      },
      "safe_return": {
        "venue_en": "Goyang Stadium",
        "route_en": "Walk from Goyang Stadium → Hotel",
        "transport": "walk",
        "time_min": 6,
        "last_train": "23:50",
        "taxi_krw": 0
      },
      "army_local_guide": {
        "bts": [
          {
            "name_en": "MBC Sangam",
            "spot_tag": "Music Show",
            "description_en": "Music show filming",
            "distance_km": 13.3,
            "lat": 37.5786,
            "lng": 126.8918
          },
          {
            "name_en": "Hongdae Busking Street",
            "spot_tag": "Trainee Memory",
            "description_en": "Pre-debut busking spot",
            "distance_km": 16.9,
            "lat": 37.5563,
            "lng": 126.922
          },
          {
            "name_en": "Gwangjang Market",
            "spot_tag": "Debut Memory",
            "description_en": "2013 debut location",
            "distance_km": 22.9,
            "lat": 37.57,
            "lng": 127.0098
          }
        ],
        "restaurant": [
          {
            "name_en": "La Festa Restaurants",
            "spot_tag": "Dining Hub",
            "description_en": "Restaurant complex",
            "distance_km": 0.7,
            "lat": 37.6575,
            "lng": 126.7705
          },
          {
            "name_en": "Ilsan Food Street",
            "spot_tag": "Local Eats",
            "description_en": "Local food street",
            "distance_km": 0.8,
            "lat": 37.658,
            "lng": 126.772
          },
          {
            "name_en": "Western Dom Food Court",
            "spot_tag": "Food Court",
            "description_en": "Food court",
            "distance_km": 1.6,
            "lat": 37.663,
            "lng": 126.762
          }
        ],
        "cafe": [
          {
            "name_en": "La Festa Cafes",
            "spot_tag": "Trendy Cafe",
            "description_en": "Trendy cafes",
            "distance_km": 0.7,
            "lat": 37.6572,
            "lng": 126.771
          },
          {
            "name_en": "Ilsan Lake Park Cafe Street",
            "spot_tag": "Lake View",
            "description_en": "Scenic cafes",
            "distance_km": 1.3,
            "lat": 37.659,
            "lng": 126.76
          }
        ],
        "hotspot": [
          {
            "name_en": "Ilsan Lake Park",
            "spot_tag": "Must Visit",
            "description_en": "Beautiful lake park",
            "distance_km": 1.3,
            "lat": 37.658,
            "lng": 126.759
          },
          {
            "name_en": "One Mount",
            "spot_tag": "Entertainment",
            "description_en": "Theme park",
            "distance_km": 2.4,
            "lat": 37.665,
            "lng": 126.751
          },
          {
            "name_en": "Starfield Goyang",
            "spot_tag": "Shopping",
            "description_en": "Shopping mall",
            "distance_km": 10.9,
            "lat": 37.645,
            "lng": 126.895
          }
        ]
      },
      "map_detail": {
        "hotel": {
          "name_en": "하우재 이태원",
          "lat": 37.6508002207699,
          "lng": 126.77102759260804
        },
        "venue": {
          "name_en": "Goyang Stadium",
          "lat": 37.6556,
          "lng": 126.7714
        },
        "nearby_spots": [
          {
            "name_en": "La Festa Restaurants",
            "category": "restaurant",
            "spot_tag": "Dining Hub",
            "lat": 37.6575,
            "lng": 126.7705,
            "distance_km": 0.7
          },
          {
            "name_en": "La Festa Cafes",
            "category": "cafe",
            "spot_tag": "Trendy Cafe",
            "lat": 37.6572,
            "lng": 126.771,
            "distance_km": 0.7
          },
          {
            "name_en": "Ilsan Food Street",
            "category": "restaurant",
            "spot_tag": "Local Eats",
            "lat": 37.658,
            "lng": 126.772,
            "distance_km": 0.8
          },
          {
            "name_en": "Ilsan Lake Park Cafe Street",
            "category": "cafe",
            "spot_tag": "Lake View",
            "lat": 37.659,
            "lng": 126.76,
            "distance_km": 1.3
          },
          {
            "name_en": "Ilsan Lake Park",
            "category": "hotspot",
            "spot_tag": "Must Visit",
            "lat": 37.658,
            "lng": 126.759,
            "distance_km": 1.3
          }
        ]
      },
      "platform": {
        "name": "Booking.com",
        "booking_url": "https://www.booking.comhttps://www.booking.com/hotel/kr/hause-itaewon.ko.html?aid=304142&label=mkt123sc-79896cbf-144b-4202-a3b3-91d0d8b371b7&ucfs=1&arphpl=1&checkin=2026-06-11&checkout=2026-06-13&dest_id=-716583&dest_type=city&group_adults=2&req_adults=2&no_rooms=1&group_children=0&req_children=0&hpos=14&hapos=14&sr_order=price&srpvid=861acfe8b7314bde7d196898baf9f8e1&srepoch=1770291121&all_sr_blocks=214023406_421584100_0_0_0%2C214023406_421584100_0_0_0&highlighted_blocks=214023406_421584100_0_0_0%2C214023406_421584100_0_0_0&matching_block_id=214023406_421584100_0_0_0&sr_pri_blocks=214023406_421584100_0_0_0__4727273%2C214023406_421584100_0_0_0__4727273&from=searchresults"
      },
      "booking_guide": {
        "steps_en": [
          "1. Search Goyang hotels",
          "2. Filter by 'Free Cancellation'",
          "3. Select room and enter info",
          "4. Pay online or at property",
          "5. Show confirmation at check-in"
        ],
        "tips_en": [
          "Genius membership for discounts",
          "Free cancellation options"
        ],
        "payment_methods": [
          "Credit Card",
          "Pay at Property"
        ],
        "foreigner_friendly": true
      },
      "last_update": "2026-02-05 11:32:13",
      "nearby": [
        {
          "id": "hotel_27361",
          "name_en": "스프링 라이트",
          "price_krw": 26,
          "distance_km": 0.2,
          "image_url": "https://cf.bstatic.com/xdata/images/hotel/square240/329454863.webp?k=4d32ccde73798b309ec136a826de0a7a8fd83d728750e5f93dc6984f338785a5&o="
        },
        {
          "id": "hotel_44197",
          "name_en": "나비 모텔",
          "price_krw": 30,
          "distance_km": 0.2,
          "image_url": "https://cf.bstatic.com/xdata/images/hotel/square240/742412160.webp?k=63250a68ba8b666002c2532891aebefe0b4bdab4114f6db63d5e0fb33129312e&o="
        },
        {
          "id": "hotel_01052",
          "name_en": "봄스테이",
          "price_krw": 33,
          "distance_km": 0.2,
          "image_url": "https://cf.bstatic.com/xdata/images/hotel/square240/817732561.webp?k=3e021798c98fd0fbff978d6c86f54cb77809984cfed5c8d636acc17a61c3dbde&o="
        }
      ]
    },
    {
      "id": "hotel_41884",
      "name_en": "NJ Affordable and cozy accommodation near Nakseongdae Station",
      "price_krw": 33,
      "rating": 6.36,
      "image_url": "https://cf.bstatic.com/xdata/images/hotel/square240/618384754.webp?k=ecfb59155c3c8dbda580cc3f6abc111997917ed07f6ec571aea2721795960f52&o=",
      "rooms_left": -1,
      "is_available": true,
      "hotel_type": {
        "label_en": "Hotel",
        "color": "#4A90D9"
      },
      "cancellation": {
        "type": "free",
        "label_en": "Free Cancellation",
        "label_kr": "무료 취소",
        "is_refundable": true
      },
      "tags": {
        "list_en": [
          "#FreeCancellation",
          "#ARMYPopular",
          "#WalkToVenue"
        ],
        "list_kr": [
          "#취소가능",
          "#아미인기",
          "#도보가능"
        ],
        "display_en": "#FreeCancellation #ARMYPopular #WalkToVenue",
        "display_kr": "#취소가능 #아미인기 #도보가능"
      },
      "lat": 37.65983248670948,
      "lng": 126.77008021636722,
      "location": {
        "area_en": "Gwanghwamun",
        "area_kr": "광화문",
        "address_en": "Gwanghwamun, Seoul",
        "address_kr": "서울 광화문"
      },
      "city_key": "gwanghwamun",
      "army_density": {
        "value": 65,
        "level_en": "High",
        "level_kr": "높음",
        "label_en": "ARMY 65%",
        "label_kr": "아미 65%"
      },
      "distance": {
        "type": "walk",
        "display_en": "Walk 5min",
        "minutes": 5,
        "distance_km": 0.5
      },
      "transport": {
        "station_en": "Jeongbalsan",
        "line_en": "Line 3",
        "line_color": "#EF7C1C",
        "display_en": "Jeongbalsan (Line 3)"
      },
      "safe_return": {
        "venue_en": "Goyang Stadium",
        "route_en": "Walk from Goyang Stadium → Hotel",
        "transport": "walk",
        "time_min": 5,
        "last_train": "23:50",
        "taxi_krw": 0
      },
      "army_local_guide": {
        "bts": [
          {
            "name_en": "MBC Sangam",
            "spot_tag": "Music Show",
            "description_en": "Music show filming",
            "distance_km": 14.0,
            "lat": 37.5786,
            "lng": 126.8918
          },
          {
            "name_en": "Hongdae Busking Street",
            "spot_tag": "Trainee Memory",
            "description_en": "Pre-debut busking spot",
            "distance_km": 17.7,
            "lat": 37.5563,
            "lng": 126.922
          },
          {
            "name_en": "Gwangjang Market",
            "spot_tag": "Debut Memory",
            "description_en": "2013 debut location",
            "distance_km": 23.4,
            "lat": 37.57,
            "lng": 127.0098
          }
        ],
        "restaurant": [
          {
            "name_en": "Ilsan Food Street",
            "spot_tag": "Local Eats",
            "description_en": "Local food street",
            "distance_km": 0.3,
            "lat": 37.658,
            "lng": 126.772
          },
          {
            "name_en": "La Festa Restaurants",
            "spot_tag": "Dining Hub",
            "description_en": "Restaurant complex",
            "distance_km": 0.3,
            "lat": 37.6575,
            "lng": 126.7705
          },
          {
            "name_en": "Western Dom Food Court",
            "spot_tag": "Food Court",
            "description_en": "Food court",
            "distance_km": 0.8,
            "lat": 37.663,
            "lng": 126.762
          }
        ],
        "cafe": [
          {
            "name_en": "La Festa Cafes",
            "spot_tag": "Trendy Cafe",
            "description_en": "Trendy cafes",
            "distance_km": 0.3,
            "lat": 37.6572,
            "lng": 126.771
          },
          {
            "name_en": "Ilsan Lake Park Cafe Street",
            "spot_tag": "Lake View",
            "description_en": "Scenic cafes",
            "distance_km": 0.9,
            "lat": 37.659,
            "lng": 126.76
          }
        ],
        "hotspot": [
          {
            "name_en": "Ilsan Lake Park",
            "spot_tag": "Must Visit",
            "description_en": "Beautiful lake park",
            "distance_km": 1.0,
            "lat": 37.658,
            "lng": 126.759
          },
          {
            "name_en": "One Mount",
            "spot_tag": "Entertainment",
            "description_en": "Theme park",
            "distance_km": 1.8,
            "lat": 37.665,
            "lng": 126.751
          },
          {
            "name_en": "Starfield Goyang",
            "spot_tag": "Shopping",
            "description_en": "Shopping mall",
            "distance_km": 11.1,
            "lat": 37.645,
            "lng": 126.895
          }
        ]
      },
      "map_detail": {
        "hotel": {
          "name_en": "NJ Affordable and cozy accommodation near Nakseongdae Station",
          "lat": 37.65983248670948,
          "lng": 126.77008021636722
        },
        "venue": {
          "name_en": "Goyang Stadium",
          "lat": 37.6556,
          "lng": 126.7714
        },
        "nearby_spots": [
          {
            "name_en": "Ilsan Food Street",
            "category": "restaurant",
            "spot_tag": "Local Eats",
            "lat": 37.658,
            "lng": 126.772,
            "distance_km": 0.3
          },
          {
            "name_en": "La Festa Restaurants",
            "category": "restaurant",
            "spot_tag": "Dining Hub",
            "lat": 37.6575,
            "lng": 126.7705,
            "distance_km": 0.3
          },
          {
            "name_en": "La Festa Cafes",
            "category": "cafe",
            "spot_tag": "Trendy Cafe",
            "lat": 37.6572,
            "lng": 126.771,
            "distance_km": 0.3
          },
          {
            "name_en": "Western Dom Food Court",
            "category": "restaurant",
            "spot_tag": "Food Court",
            "lat": 37.663,
            "lng": 126.762,
            "distance_km": 0.8
          },
          {
            "name_en": "Ilsan Lake Park Cafe Street",
            "category": "cafe",
            "spot_tag": "Lake View",
            "lat": 37.659,
            "lng": 126.76,
            "distance_km": 0.9
          }
        ]
      },
      "platform": {
        "name": "Booking.com",
        "booking_url": "https://www.booking.comhttps://www.booking.com/hotel/kr/nagseongdaeyeog-jeoryeomhago-ddaddeushan-sugso.ko.html?aid=304142&label=mkt123sc-79896cbf-144b-4202-a3b3-91d0d8b371b7&ucfs=1&arphpl=1&checkin=2026-06-11&checkout=2026-06-13&dest_id=-716583&dest_type=city&group_adults=2&req_adults=2&no_rooms=1&group_children=0&req_children=0&hpos=15&hapos=15&sr_order=price&srpvid=861acfe8b7314bde7d196898baf9f8e1&srepoch=1770291121&all_sr_blocks=1315781711_421998532_2_0_0&highlighted_blocks=1315781711_421998532_2_0_0&matching_block_id=1315781711_421998532_2_0_0&sr_pri_blocks=1315781711_421998532_2_0_0__9454545&from=searchresults"
      },
      "booking_guide": {
        "steps_en": [
          "1. Search Goyang hotels",
          "2. Filter by 'Free Cancellation'",
          "3. Select room and enter info",
          "4. Pay online or at property",
          "5. Show confirmation at check-in"
        ],
        "tips_en": [
          "Genius membership for discounts",
          "Free cancellation options"
        ],
        "payment_methods": [
          "Credit Card",
          "Pay at Property"
        ],
        "foreigner_friendly": true
      },
      "last_update": "2026-02-05 11:32:13",
      "nearby": [
        {
          "id": "hotel_66776",
          "name_en": "영광 초현 펜션",
          "price_krw": 61,
          "distance_km": 0.2,
          "image_url": "https://cf.bstatic.com/xdata/images/hotel/square240/595635082.webp?k=4207cccff3454d1f4468ff2517dc9e008a887d4c1426327462d491a19f52b665&o="
        },
        {
          "id": "hotel_07035",
          "name_en": "Only for Woman - Happy House",
          "price_krw": 33,
          "distance_km": 0.2,
          "image_url": "https://cf.bstatic.com/xdata/images/hotel/square240/611795245.webp?k=a287d513e5448d8b5122e3f6b39c126e26d0c2da29fdf8ef1d5e0285c6705085&o="
        },
        {
          "id": "hotel_62846",
          "name_en": "아마존 게스트하우스",
          "price_krw": 32,
          "distance_km": 0.3,
          "image_url": "https://cf.bstatic.com/xdata/images/hotel/square240/204809971.webp?k=2076895c90fbe62ff827488d80e3c0ed366c172052bce07cf491528f6f2577b3&o="
        }
      ]
    },
    {
      "id": "hotel_07035",
      "name_en": "Only for Woman - Happy House",
      "price_krw": 33,
      "rating": 7.97,
      "image_url": "https://cf.bstatic.com/xdata/images/hotel/square240/611795245.webp?k=a287d513e5448d8b5122e3f6b39c126e26d0c2da29fdf8ef1d5e0285c6705085&o=",
      "rooms_left": -1,
      "is_available": true,
      "hotel_type": {
        "label_en": "Hotel",
        "color": "#4A90D9"
      },
      "cancellation": {
        "type": "free",
        "label_en": "Free Cancellation",
        "label_kr": "무료 취소",
        "is_refundable": true
      },
      "tags": {
        "list_en": [
          "#FreeCancellation",
          "#ARMYPopular",
          "#WalkToVenue"
        ],
        "list_kr": [
          "#취소가능",
          "#아미인기",
          "#도보가능"
        ],
        "display_en": "#FreeCancellation #ARMYPopular #WalkToVenue",
        "display_kr": "#취소가능 #아미인기 #도보가능"
      },
      "lat": 37.66088724448781,
      "lng": 126.7686612306916,
      "location": {
        "area_en": "Gwanghwamun",
        "area_kr": "광화문",
        "address_en": "Gwanghwamun, Seoul",
        "address_kr": "서울 광화문"
      },
      "city_key": "gwanghwamun",
      "army_density": {
        "value": 65,
        "level_en": "High",
        "level_kr": "높음",
        "label_en": "ARMY 65%",
        "label_kr": "아미 65%"
      },
      "distance": {
        "type": "walk",
        "display_en": "Walk 7min",
        "minutes": 7,
        "distance_km": 0.6
      },
      "transport": {
        "station_en": "Jeongbalsan",
        "line_en": "Line 3",
        "line_color": "#EF7C1C",
        "display_en": "Jeongbalsan (Line 3)"
      },
      "safe_return": {
        "venue_en": "Goyang Stadium",
        "route_en": "Walk from Goyang Stadium → Hotel",
        "transport": "walk",
        "time_min": 7,
        "last_train": "23:50",
        "taxi_krw": 0
      },
      "army_local_guide": {
        "bts": [
          {
            "name_en": "MBC Sangam",
            "spot_tag": "Music Show",
            "description_en": "Music show filming",
            "distance_km": 14.2,
            "lat": 37.5786,
            "lng": 126.8918
          },
          {
            "name_en": "Hongdae Busking Street",
            "spot_tag": "Trainee Memory",
            "description_en": "Pre-debut busking spot",
            "distance_km": 17.8,
            "lat": 37.5563,
            "lng": 126.922
          },
          {
            "name_en": "Gwangjang Market",
            "spot_tag": "Debut Memory",
            "description_en": "2013 debut location",
            "distance_km": 23.5,
            "lat": 37.57,
            "lng": 127.0098
          }
        ],
        "restaurant": [
          {
            "name_en": "Ilsan Food Street",
            "spot_tag": "Local Eats",
            "description_en": "Local food street",
            "distance_km": 0.4,
            "lat": 37.658,
            "lng": 126.772
          },
          {
            "name_en": "La Festa Restaurants",
            "spot_tag": "Dining Hub",
            "description_en": "Restaurant complex",
            "distance_km": 0.4,
            "lat": 37.6575,
            "lng": 126.7705
          },
          {
            "name_en": "Western Dom Food Court",
            "spot_tag": "Food Court",
            "description_en": "Food court",
            "distance_km": 0.6,
            "lat": 37.663,
            "lng": 126.762
          }
        ],
        "cafe": [
          {
            "name_en": "La Festa Cafes",
            "spot_tag": "Trendy Cafe",
            "description_en": "Trendy cafes",
            "distance_km": 0.5,
            "lat": 37.6572,
            "lng": 126.771
          },
          {
            "name_en": "Ilsan Lake Park Cafe Street",
            "spot_tag": "Lake View",
            "description_en": "Scenic cafes",
            "distance_km": 0.8,
            "lat": 37.659,
            "lng": 126.76
          }
        ],
        "hotspot": [
          {
            "name_en": "Ilsan Lake Park",
            "spot_tag": "Must Visit",
            "description_en": "Beautiful lake park",
            "distance_km": 0.9,
            "lat": 37.658,
            "lng": 126.759
          },
          {
            "name_en": "One Mount",
            "spot_tag": "Entertainment",
            "description_en": "Theme park",
            "distance_km": 1.6,
            "lat": 37.665,
            "lng": 126.751
          },
          {
            "name_en": "Starfield Goyang",
            "spot_tag": "Shopping",
            "description_en": "Shopping mall",
            "distance_km": 11.3,
            "lat": 37.645,
            "lng": 126.895
          }
        ]
      },
      "map_detail": {
        "hotel": {
          "name_en": "Only for Woman - Happy House",
          "lat": 37.66088724448781,
          "lng": 126.7686612306916
        },
        "venue": {
          "name_en": "Goyang Stadium",
          "lat": 37.6556,
          "lng": 126.7714
        },
        "nearby_spots": [
          {
            "name_en": "Ilsan Food Street",
            "category": "restaurant",
            "spot_tag": "Local Eats",
            "lat": 37.658,
            "lng": 126.772,
            "distance_km": 0.4
          },
          {
            "name_en": "La Festa Restaurants",
            "category": "restaurant",
            "spot_tag": "Dining Hub",
            "lat": 37.6575,
            "lng": 126.7705,
            "distance_km": 0.4
          },
          {
            "name_en": "La Festa Cafes",
            "category": "cafe",
            "spot_tag": "Trendy Cafe",
            "lat": 37.6572,
            "lng": 126.771,
            "distance_km": 0.5
          },
          {
            "name_en": "Western Dom Food Court",
            "category": "restaurant",
            "spot_tag": "Food Court",
            "lat": 37.663,
            "lng": 126.762,
            "distance_km": 0.6
          },
          {
            "name_en": "Ilsan Lake Park Cafe Street",
            "category": "cafe",
            "spot_tag": "Lake View",
            "lat": 37.659,
            "lng": 126.76,
            "distance_km": 0.8
          }
        ]
      },
      "platform": {
        "name": "Booking.com",
        "booking_url": "https://www.booking.comhttps://www.booking.com/hotel/kr/only-for-female-sadang-house-4th-floor-seoul.ko.html?aid=304142&label=mkt123sc-79896cbf-144b-4202-a3b3-91d0d8b371b7&ucfs=1&arphpl=1&checkin=2026-06-11&checkout=2026-06-13&dest_id=-716583&dest_type=city&group_adults=2&req_adults=2&no_rooms=1&group_children=0&req_children=0&hpos=17&hapos=17&sr_order=price&srpvid=861acfe8b7314bde7d196898baf9f8e1&srepoch=1770291121&all_sr_blocks=1306477626_403471691_1_0_0%2C1306477628_403471691_1_0_0&highlighted_blocks=1306477626_403471691_1_0_0%2C1306477628_403471691_1_0_0&matching_block_id=1306477626_403471691_1_0_0&sr_pri_blocks=1306477626_403471691_1_0_0__4727273%2C1306477628_403471691_1_0_0__4727273&from=searchresults"
      },
      "booking_guide": {
        "steps_en": [
          "1. Search Goyang hotels",
          "2. Filter by 'Free Cancellation'",
          "3. Select room and enter info",
          "4. Pay online or at property",
          "5. Show confirmation at check-in"
        ],
        "tips_en": [
          "Genius membership for discounts",
          "Free cancellation options"
        ],
        "payment_methods": [
          "Credit Card",
          "Pay at Property"
        ],
        "foreigner_friendly": true
      },
      "last_update": "2026-02-05 11:32:13",
      "nearby": [
        {
          "id": "hotel_66776",
          "name_en": "영광 초현 펜션",
          "price_krw": 61,
          "distance_km": 0.1,
          "image_url": "https://cf.bstatic.com/xdata/images/hotel/square240/595635082.webp?k=4207cccff3454d1f4468ff2517dc9e008a887d4c1426327462d491a19f52b665&o="
        },
        {
          "id": "hotel_41884",
          "name_en": "NJ Affordable and cozy accommodation near Nakseongdae Station",
          "price_krw": 33,
          "distance_km": 0.2,
          "image_url": "https://cf.bstatic.com/xdata/images/hotel/square240/618384754.webp?k=ecfb59155c3c8dbda580cc3f6abc111997917ed07f6ec571aea2721795960f52&o="
        },
        {
          "id": "hotel_96637",
          "name_en": "웨이홈 가산",
          "price_krw": 33,
          "distance_km": 0.3,
          "image_url": "https://cf.bstatic.com/xdata/images/hotel/square240/788060120.webp?k=0ff9e9e9b4de13771ec4ae12a0f1cd0be4b4ac2282e266173d40c6b1b56c5b94&o="
        }
      ]
    },
    {
      "id": "hotel_01052",
      "name_en": "봄스테이",
      "price_krw": 33,
      "rating": 0,
      "image_url": "https://cf.bstatic.com/xdata/images/hotel/square240/817732561.webp?k=3e021798c98fd0fbff978d6c86f54cb77809984cfed5c8d636acc17a61c3dbde&o=",
      "rooms_left": -1,
      "is_available": true,
      "hotel_type": {
        "label_en": "Hotel",
        "color": "#4A90D9"
      },
      "cancellation": {
        "type": "free",
        "label_en": "Free Cancellation",
        "label_kr": "무료 취소",
        "is_refundable": true
      },
      "tags": {
        "list_en": [
          "#FreeCancellation",
          "#ARMYPopular",
          "#WalkToVenue"
        ],
        "list_kr": [
          "#취소가능",
          "#아미인기",
          "#도보가능"
        ],
        "display_en": "#FreeCancellation #ARMYPopular #WalkToVenue",
        "display_kr": "#취소가능 #아미인기 #도보가능"
      },
      "lat": 37.65037374682609,
      "lng": 126.77277606188524,
      "location": {
        "area_en": "Gwanghwamun",
        "area_kr": "광화문",
        "address_en": "Gwanghwamun, Seoul",
        "address_kr": "서울 광화문"
      },
      "city_key": "gwanghwamun",
      "army_density": {
        "value": 65,
        "level_en": "High",
        "level_kr": "높음",
        "label_en": "ARMY 65%",
        "label_kr": "아미 65%"
      },
      "distance": {
        "type": "walk",
        "display_en": "Walk 7min",
        "minutes": 7,
        "distance_km": 0.6
      },
      "transport": {
        "station_en": "Jeongbalsan",
        "line_en": "Line 3",
        "line_color": "#EF7C1C",
        "display_en": "Jeongbalsan (Line 3)"
      },
      "safe_return": {
        "venue_en": "Goyang Stadium",
        "route_en": "Walk from Goyang Stadium → Hotel",
        "transport": "walk",
        "time_min": 7,
        "last_train": "23:50",
        "taxi_krw": 0
      },
      "army_local_guide": {
        "bts": [
          {
            "name_en": "MBC Sangam",
            "spot_tag": "Music Show",
            "description_en": "Music show filming",
            "distance_km": 13.2,
            "lat": 37.5786,
            "lng": 126.8918
          },
          {
            "name_en": "Hongdae Busking Street",
            "spot_tag": "Trainee Memory",
            "description_en": "Pre-debut busking spot",
            "distance_km": 16.8,
            "lat": 37.5563,
            "lng": 126.922
          },
          {
            "name_en": "Gwangjang Market",
            "spot_tag": "Debut Memory",
            "description_en": "2013 debut location",
            "distance_km": 22.7,
            "lat": 37.57,
            "lng": 127.0098
          }
        ],
        "restaurant": [
          {
            "name_en": "La Festa Restaurants",
            "spot_tag": "Dining Hub",
            "description_en": "Restaurant complex",
            "distance_km": 0.8,
            "lat": 37.6575,
            "lng": 126.7705
          },
          {
            "name_en": "Ilsan Food Street",
            "spot_tag": "Local Eats",
            "description_en": "Local food street",
            "distance_km": 0.9,
            "lat": 37.658,
            "lng": 126.772
          },
          {
            "name_en": "Western Dom Food Court",
            "spot_tag": "Food Court",
            "description_en": "Food court",
            "distance_km": 1.7,
            "lat": 37.663,
            "lng": 126.762
          }
        ],
        "cafe": [
          {
            "name_en": "La Festa Cafes",
            "spot_tag": "Trendy Cafe",
            "description_en": "Trendy cafes",
            "distance_km": 0.8,
            "lat": 37.6572,
            "lng": 126.771
          },
          {
            "name_en": "Ilsan Lake Park Cafe Street",
            "spot_tag": "Lake View",
            "description_en": "Scenic cafes",
            "distance_km": 1.5,
            "lat": 37.659,
            "lng": 126.76
          }
        ],
        "hotspot": [
          {
            "name_en": "Ilsan Lake Park",
            "spot_tag": "Must Visit",
            "description_en": "Beautiful lake park",
            "distance_km": 1.5,
            "lat": 37.658,
            "lng": 126.759
          },
          {
            "name_en": "One Mount",
            "spot_tag": "Entertainment",
            "description_en": "Theme park",
            "distance_km": 2.5,
            "lat": 37.665,
            "lng": 126.751
          },
          {
            "name_en": "Starfield Goyang",
            "spot_tag": "Shopping",
            "description_en": "Shopping mall",
            "distance_km": 10.8,
            "lat": 37.645,
            "lng": 126.895
          }
        ]
      },
      "map_detail": {
        "hotel": {
          "name_en": "봄스테이",
          "lat": 37.65037374682609,
          "lng": 126.77277606188524
        },
        "venue": {
          "name_en": "Goyang Stadium",
          "lat": 37.6556,
          "lng": 126.7714
        },
        "nearby_spots": [
          {
            "name_en": "La Festa Restaurants",
            "category": "restaurant",
            "spot_tag": "Dining Hub",
            "lat": 37.6575,
            "lng": 126.7705,
            "distance_km": 0.8
          },
          {
            "name_en": "La Festa Cafes",
            "category": "cafe",
            "spot_tag": "Trendy Cafe",
            "lat": 37.6572,
            "lng": 126.771,
            "distance_km": 0.8
          },
          {
            "name_en": "Ilsan Food Street",
            "category": "restaurant",
            "spot_tag": "Local Eats",
            "lat": 37.658,
            "lng": 126.772,
            "distance_km": 0.9
          },
          {
            "name_en": "Ilsan Lake Park Cafe Street",
            "category": "cafe",
            "spot_tag": "Lake View",
            "lat": 37.659,
            "lng": 126.76,
            "distance_km": 1.5
          },
          {
            "name_en": "Ilsan Lake Park",
            "category": "hotspot",
            "spot_tag": "Must Visit",
            "lat": 37.658,
            "lng": 126.759,
            "distance_km": 1.5
          }
        ]
      },
      "platform": {
        "name": "Booking.com",
        "booking_url": "https://www.booking.comhttps://www.booking.com/hotel/kr/bomseutei.ko.html?aid=304142&label=mkt123sc-79896cbf-144b-4202-a3b3-91d0d8b371b7&ucfs=1&arphpl=1&checkin=2026-06-11&checkout=2026-06-13&dest_id=-716583&dest_type=city&group_adults=2&req_adults=2&no_rooms=1&group_children=0&req_children=0&hpos=18&hapos=18&sr_order=price&srpvid=861acfe8b7314bde7d196898baf9f8e1&srepoch=1770291121&all_sr_blocks=1575313402_428624564_2_0_0&highlighted_blocks=1575313402_428624564_2_0_0&matching_block_id=1575313402_428624564_2_0_0&sr_pri_blocks=1575313402_428624564_2_0_0__9530182&from=searchresults"
      },
      "booking_guide": {
        "steps_en": [
          "1. Search Goyang hotels",
          "2. Filter by 'Free Cancellation'",
          "3. Select room and enter info",
          "4. Pay online or at property",
          "5. Show confirmation at check-in"
        ],
        "tips_en": [
          "Genius membership for discounts",
          "Free cancellation options"
        ],
        "payment_methods": [
          "Credit Card",
          "Pay at Property"
        ],
        "foreigner_friendly": true
      },
      "last_update": "2026-02-05 11:32:13",
      "nearby": [
        {
          "id": "hotel_27361",
          "name_en": "스프링 라이트",
          "price_krw": 26,
          "distance_km": 0.2,
          "image_url": "https://cf.bstatic.com/xdata/images/hotel/square240/329454863.webp?k=4d32ccde73798b309ec136a826de0a7a8fd83d728750e5f93dc6984f338785a5&o="
        },
        {
          "id": "hotel_32165",
          "name_en": "하우재 이태원",
          "price_krw": 33,
          "distance_km": 0.2,
          "image_url": "https://cf.bstatic.com/xdata/images/hotel/square240/186139806.webp?k=ecff2c5195af1f03a79ce7bb93f4a183a270700f0a995f19820d276a1d85cde2&o="
        },
        {
          "id": "hotel_44197",
          "name_en": "나비 모텔",
          "price_krw": 30,
          "distance_km": 0.3,
          "image_url": "https://cf.bstatic.com/xdata/images/hotel/square240/742412160.webp?k=63250a68ba8b666002c2532891aebefe0b4bdab4114f6db63d5e0fb33129312e&o="
        }
      ]
    },
    {
      "id": "hotel_85976",
      "name_en": "서울앤호텔 동대문",
      "price_krw": 34,
      "rating": 7.27,
      "image_url": "https://cf.bstatic.com/xdata/images/hotel/square240/103588071.webp?k=70e14c2e8e5c64d9b13040cbf891d408d498ab54ab0f3e5e23596c3ae374c8f7&o=",
      "rooms_left": -1,
      "is_available": true,
      "hotel_type": {
        "label_en": "Hotel",
        "color": "#4A90D9"
      },
      "cancellation": {
        "type": "free",
        "label_en": "Free Cancellation",
        "label_kr": "무료 취소",
        "is_refundable": true
      },
      "tags": {
        "list_en": [
          "#FreeCancellation",
          "#ARMYPopular",
          "#WalkToVenue"
        ],
        "list_kr": [
          "#취소가능",
          "#아미인기",
          "#도보가능"
        ],
        "display_en": "#FreeCancellation #ARMYPopular #WalkToVenue",
        "display_kr": "#취소가능 #아미인기 #도보가능"
      },
      "lat": 37.656409944013475,
      "lng": 126.77785121465125,
      "location": {
        "area_en": "Gwanghwamun",
        "area_kr": "광화문",
        "address_en": "Gwanghwamun, Seoul",
        "address_kr": "서울 광화문"
      },
      "city_key": "gwanghwamun",
      "army_density": {
        "value": 65,
        "level_en": "High",
        "level_kr": "높음",
        "label_en": "ARMY 65%",
        "label_kr": "아미 65%"
      },
      "distance": {
        "type": "walk",
        "display_en": "Walk 6min",
        "minutes": 6,
        "distance_km": 0.6
      },
      "transport": {
        "station_en": "Jeongbalsan",
        "line_en": "Line 3",
        "line_color": "#EF7C1C",
        "display_en": "Jeongbalsan (Line 3)"
      },
      "safe_return": {
        "venue_en": "Goyang Stadium",
        "route_en": "Walk from Goyang Stadium → Hotel",
        "transport": "walk",
        "time_min": 6,
        "last_train": "23:50",
        "taxi_krw": 0
      },
      "army_local_guide": {
        "bts": [
          {
            "name_en": "MBC Sangam",
            "spot_tag": "Music Show",
            "description_en": "Music show filming",
            "distance_km": 13.3,
            "lat": 37.5786,
            "lng": 126.8918
          },
          {
            "name_en": "Hongdae Busking Street",
            "spot_tag": "Trainee Memory",
            "description_en": "Pre-debut busking spot",
            "distance_km": 16.9,
            "lat": 37.5563,
            "lng": 126.922
          },
          {
            "name_en": "Gwangjang Market",
            "spot_tag": "Debut Memory",
            "description_en": "2013 debut location",
            "distance_km": 22.6,
            "lat": 37.57,
            "lng": 127.0098
          }
        ],
        "restaurant": [
          {
            "name_en": "Ilsan Food Street",
            "spot_tag": "Local Eats",
            "description_en": "Local food street",
            "distance_km": 0.5,
            "lat": 37.658,
            "lng": 126.772
          },
          {
            "name_en": "La Festa Restaurants",
            "spot_tag": "Dining Hub",
            "description_en": "Restaurant complex",
            "distance_km": 0.7,
            "lat": 37.6575,
            "lng": 126.7705
          },
          {
            "name_en": "Western Dom Food Court",
            "spot_tag": "Food Court",
            "description_en": "Food court",
            "distance_km": 1.6,
            "lat": 37.663,
            "lng": 126.762
          }
        ],
        "cafe": [
          {
            "name_en": "La Festa Cafes",
            "spot_tag": "Trendy Cafe",
            "description_en": "Trendy cafes",
            "distance_km": 0.6,
            "lat": 37.6572,
            "lng": 126.771
          },
          {
            "name_en": "Ilsan Lake Park Cafe Street",
            "spot_tag": "Lake View",
            "description_en": "Scenic cafes",
            "distance_km": 1.6,
            "lat": 37.659,
            "lng": 126.76
          }
        ],
        "hotspot": [
          {
            "name_en": "Ilsan Lake Park",
            "spot_tag": "Must Visit",
            "description_en": "Beautiful lake park",
            "distance_km": 1.7,
            "lat": 37.658,
            "lng": 126.759
          },
          {
            "name_en": "One Mount",
            "spot_tag": "Entertainment",
            "description_en": "Theme park",
            "distance_km": 2.5,
            "lat": 37.665,
            "lng": 126.751
          },
          {
            "name_en": "Starfield Goyang",
            "spot_tag": "Shopping",
            "description_en": "Shopping mall",
            "distance_km": 10.4,
            "lat": 37.645,
            "lng": 126.895
          }
        ]
      },
      "map_detail": {
        "hotel": {
          "name_en": "서울앤호텔 동대문",
          "lat": 37.656409944013475,
          "lng": 126.77785121465125
        },
        "venue": {
          "name_en": "Goyang Stadium",
          "lat": 37.6556,
          "lng": 126.7714
        },
        "nearby_spots": [
          {
            "name_en": "Ilsan Food Street",
            "category": "restaurant",
            "spot_tag": "Local Eats",
            "lat": 37.658,
            "lng": 126.772,
            "distance_km": 0.5
          },
          {
            "name_en": "La Festa Cafes",
            "category": "cafe",
            "spot_tag": "Trendy Cafe",
            "lat": 37.6572,
            "lng": 126.771,
            "distance_km": 0.6
          },
          {
            "name_en": "La Festa Restaurants",
            "category": "restaurant",
            "spot_tag": "Dining Hub",
            "lat": 37.6575,
            "lng": 126.7705,
            "distance_km": 0.7
          },
          {
            "name_en": "Western Dom Food Court",
            "category": "restaurant",
            "spot_tag": "Food Court",
            "lat": 37.663,
            "lng": 126.762,
            "distance_km": 1.6
          },
          {
            "name_en": "Ilsan Lake Park Cafe Street",
            "category": "cafe",
            "spot_tag": "Lake View",
            "lat": 37.659,
            "lng": 126.76,
            "distance_km": 1.6
          }
        ]
      },
      "platform": {
        "name": "Booking.com",
        "booking_url": "https://www.booking.comhttps://www.booking.com/hotel/kr/seoulnhotel.ko.html?aid=304142&label=mkt123sc-79896cbf-144b-4202-a3b3-91d0d8b371b7&ucfs=1&arphpl=1&checkin=2026-06-11&checkout=2026-06-13&dest_id=-716583&dest_type=city&group_adults=2&req_adults=2&no_rooms=1&group_children=0&req_children=0&hpos=22&hapos=22&sr_order=price&srpvid=861acfe8b7314bde7d196898baf9f8e1&srepoch=1770291121&all_sr_blocks=198130212_379297430_0_2_0%2C198130212_379297430_0_2_0&highlighted_blocks=198130212_379297430_0_2_0%2C198130212_379297430_0_2_0&matching_block_id=198130212_379297430_0_2_0&sr_pri_blocks=198130212_379297430_0_2_0__4963636%2C198130212_379297430_0_2_0__4963636&from=searchresults"
      },
      "booking_guide": {
        "steps_en": [
          "1. Search Goyang hotels",
          "2. Filter by 'Free Cancellation'",
          "3. Select room and enter info",
          "4. Pay online or at property",
          "5. Show confirmation at check-in"
        ],
        "tips_en": [
          "Genius membership for discounts",
          "Free cancellation options"
        ],
        "payment_methods": [
          "Credit Card",
          "Pay at Property"
        ],
        "foreigner_friendly": true
      },
      "last_update": "2026-02-05 11:32:13",
      "nearby": [
        {
          "id": "hotel_03840",
          "name_en": "호스텔 코리아 - 오리지널",
          "price_krw": 31,
          "distance_km": 0.5,
          "image_url": "https://cf.bstatic.com/xdata/images/hotel/square240/136597371.webp?k=23108736ef367db8cb300bf857249eaa70b51fb8ce5efdc3d12f9541429f379d&o="
        },
        {
          "id": "hotel_45836",
          "name_en": "From H US Hotel with Anook Seoul Gangseo Hwagok",
          "price_krw": 31,
          "distance_km": 0.6,
          "image_url": "https://cf.bstatic.com/xdata/images/hotel/square240/693138885.webp?k=67dae519fe5cf81b48616ab53ed9f427c5e5829679d8b00a3a756c981f6fe4fb&o="
        },
        {
          "id": "hotel_62846",
          "name_en": "아마존 게스트하우스",
          "price_krw": 32,
          "distance_km": 0.6,
          "image_url": "https://cf.bstatic.com/xdata/images/hotel/square240/204809971.webp?k=2076895c90fbe62ff827488d80e3c0ed366c172052bce07cf491528f6f2577b3&o="
        }
      ]
    },
    {
      "id": "hotel_66776",
      "name_en": "영광 초현 펜션",
      "price_krw": 61,
      "rating": 0,
      "image_url": "https://cf.bstatic.com/xdata/images/hotel/square240/595635082.webp?k=4207cccff3454d1f4468ff2517dc9e008a887d4c1426327462d491a19f52b665&o=",
      "rooms_left": -1,
      "is_available": true,
      "hotel_type": {
        "label_en": "Hotel",
        "color": "#4A90D9"
      },
      "cancellation": {
        "type": "free",
        "label_en": "Free Cancellation",
        "label_kr": "무료 취소",
        "is_refundable": true
      },
      "tags": {
        "list_en": [
          "#FreeCancellation",
          "#ARMYPopular",
          "#WalkToVenue"
        ],
        "list_kr": [
          "#취소가능",
          "#아미인기",
          "#도보가능"
        ],
        "display_en": "#FreeCancellation #ARMYPopular #WalkToVenue",
        "display_kr": "#취소가능 #아미인기 #도보가능"
      },
      "lat": 37.661297368385284,
      "lng": 126.76902692416822,
      "location": {
        "area_en": "Goyang",
        "area_kr": "고양",
        "address_en": "Goyang, Gyeonggi-do",
        "address_kr": "경기도 고양"
      },
      "city_key": "goyang",
      "army_density": {
        "value": 65,
        "level_en": "High",
        "level_kr": "높음",
        "label_en": "ARMY 65%",
        "label_kr": "아미 65%"
      },
      "distance": {
        "type": "walk",
        "display_en": "Walk 8min",
        "minutes": 8,
        "distance_km": 0.7
      },
      "transport": {
        "station_en": "Jeongbalsan",
        "line_en": "Line 3",
        "line_color": "#EF7C1C",
        "display_en": "Jeongbalsan (Line 3)"
      },
      "safe_return": {
        "venue_en": "Goyang Stadium",
        "route_en": "Walk from Goyang Stadium → Hotel",
        "transport": "walk",
        "time_min": 8,
        "last_train": "23:50",
        "taxi_krw": 0
      },
      "army_local_guide": {
        "bts": [
          {
            "name_en": "MBC Sangam",
            "spot_tag": "Music Show",
            "description_en": "Music show filming",
            "distance_km": 14.2,
            "lat": 37.5786,
            "lng": 126.8918
          },
          {
            "name_en": "Hongdae Busking Street",
            "spot_tag": "Trainee Memory",
            "description_en": "Pre-debut busking spot",
            "distance_km": 17.8,
            "lat": 37.5563,
            "lng": 126.922
          },
          {
            "name_en": "Gwangjang Market",
            "spot_tag": "Debut Memory",
            "description_en": "2013 debut location",
            "distance_km": 23.5,
            "lat": 37.57,
            "lng": 127.0098
          }
        ],
        "restaurant": [
          {
            "name_en": "La Festa Restaurants",
            "spot_tag": "Dining Hub",
            "description_en": "Restaurant complex",
            "distance_km": 0.4,
            "lat": 37.6575,
            "lng": 126.7705
          },
          {
            "name_en": "Ilsan Food Street",
            "spot_tag": "Local Eats",
            "description_en": "Local food street",
            "distance_km": 0.5,
            "lat": 37.658,
            "lng": 126.772
          },
          {
            "name_en": "Western Dom Food Court",
            "spot_tag": "Food Court",
            "description_en": "Food court",
            "distance_km": 0.6,
            "lat": 37.663,
            "lng": 126.762
          }
        ],
        "cafe": [
          {
            "name_en": "La Festa Cafes",
            "spot_tag": "Trendy Cafe",
            "description_en": "Trendy cafes",
            "distance_km": 0.5,
            "lat": 37.6572,
            "lng": 126.771
          },
          {
            "name_en": "Ilsan Lake Park Cafe Street",
            "spot_tag": "Lake View",
            "description_en": "Scenic cafes",
            "distance_km": 0.8,
            "lat": 37.659,
            "lng": 126.76
          }
        ],
        "hotspot": [
          {
            "name_en": "Ilsan Lake Park",
            "spot_tag": "Must Visit",
            "description_en": "Beautiful lake park",
            "distance_km": 1.0,
            "lat": 37.658,
            "lng": 126.759
          },
          {
            "name_en": "One Mount",
            "spot_tag": "Entertainment",
            "description_en": "Theme park",
            "distance_km": 1.6,
            "lat": 37.665,
            "lng": 126.751
          },
          {
            "name_en": "Starfield Goyang",
            "spot_tag": "Shopping",
            "description_en": "Shopping mall",
            "distance_km": 11.2,
            "lat": 37.645,
            "lng": 126.895
          }
        ]
      },
      "map_detail": {
        "hotel": {
          "name_en": "영광 초현 펜션",
          "lat": 37.661297368385284,
          "lng": 126.76902692416822
        },
        "venue": {
          "name_en": "Goyang Stadium",
          "lat": 37.6556,
          "lng": 126.7714
        },
        "nearby_spots": [
          {
            "name_en": "La Festa Restaurants",
            "category": "restaurant",
            "spot_tag": "Dining Hub",
            "lat": 37.6575,
            "lng": 126.7705,
            "distance_km": 0.4
          },
          {
            "name_en": "Ilsan Food Street",
            "category": "restaurant",
            "spot_tag": "Local Eats",
            "lat": 37.658,
            "lng": 126.772,
            "distance_km": 0.5
          },
          {
            "name_en": "La Festa Cafes",
            "category": "cafe",
            "spot_tag": "Trendy Cafe",
            "lat": 37.6572,
            "lng": 126.771,
            "distance_km": 0.5
          },
          {
            "name_en": "Western Dom Food Court",
            "category": "restaurant",
            "spot_tag": "Food Court",
            "lat": 37.663,
            "lng": 126.762,
            "distance_km": 0.6
          },
          {
            "name_en": "Ilsan Lake Park Cafe Street",
            "category": "cafe",
            "spot_tag": "Lake View",
            "lat": 37.659,
            "lng": 126.76,
            "distance_km": 0.8
          }
        ]
      },
      "platform": {
        "name": "Booking.com",
        "booking_url": "https://www.booking.comhttps://www.booking.com/hotel/kr/yeonggwang-chohyeon-pension.ko.html?aid=304142&label=mkt123sc-92fe490c-d159-4c9a-b920-206068a28dbd&ucfs=1&arphpl=1&checkin=2026-06-11&checkout=2026-06-13&dest_id=-716101&dest_type=city&group_adults=2&req_adults=2&no_rooms=1&group_children=0&req_children=0&hpos=1&hapos=1&sr_order=price&srpvid=9ef9d0f41b1b8fca2100e34998133144&srepoch=1770291083&all_sr_blocks=1277395207_401147527_0_0_0&highlighted_blocks=1277395207_401147527_0_0_0&matching_block_id=1277395207_401147527_0_0_0&sr_pri_blocks=1277395207_401147527_0_0_0__17672727&from=searchresults"
      },
      "booking_guide": {
        "steps_en": [
          "1. Search Goyang hotels",
          "2. Filter by 'Free Cancellation'",
          "3. Select room and enter info",
          "4. Pay online or at property",
          "5. Show confirmation at check-in"
        ],
        "tips_en": [
          "Genius membership for discounts",
          "Free cancellation options"
        ],
        "payment_methods": [
          "Credit Card",
          "Pay at Property"
        ],
        "foreigner_friendly": true
      },
      "last_update": "2026-02-05 11:32:13",
      "nearby": [
        {
          "id": "hotel_07035",
          "name_en": "Only for Woman - Happy House",
          "price_krw": 33,
          "distance_km": 0.1,
          "image_url": "https://cf.bstatic.com/xdata/images/hotel/square240/611795245.webp?k=a287d513e5448d8b5122e3f6b39c126e26d0c2da29fdf8ef1d5e0285c6705085&o="
        },
        {
          "id": "hotel_41884",
          "name_en": "NJ Affordable and cozy accommodation near Nakseongdae Station",
          "price_krw": 33,
          "distance_km": 0.2,
          "image_url": "https://cf.bstatic.com/xdata/images/hotel/square240/618384754.webp?k=ecfb59155c3c8dbda580cc3f6abc111997917ed07f6ec571aea2721795960f52&o="
        },
        {
          "id": "hotel_96637",
          "name_en": "웨이홈 가산",
          "price_krw": 33,
          "distance_km": 0.3,
          "image_url": "https://cf.bstatic.com/xdata/images/hotel/square240/788060120.webp?k=0ff9e9e9b4de13771ec4ae12a0f1cd0be4b4ac2282e266173d40c6b1b56c5b94&o="
        }
      ]
    },
    {
      "id": "hotel_54134",
      "name_en": "Station Hostel In Namguro",
      "price_krw": 25,
      "rating": 5.75,
      "image_url": "https://cf.bstatic.com/xdata/images/hotel/square240/717301239.webp?k=f1e1c25285eb10e7da6e6ad0c8342c1ee07e2e950c4fee7b014955f5035f1d2c&o=",
      "rooms_left": -1,
      "is_available": true,
      "hotel_type": {
        "label_en": "Hotel",
        "color": "#4A90D9"
      },
      "cancellation": {
        "type": "free",
        "label_en": "Free Cancellation",
        "label_kr": "무료 취소",
        "is_refundable": true
      },
      "tags": {
        "list_en": [
          "#FreeCancellation",
          "#ARMYPopular",
          "#WalkToVenue"
        ],
        "list_kr": [
          "#취소가능",
          "#아미인기",
          "#도보가능"
        ],
        "display_en": "#FreeCancellation #ARMYPopular #WalkToVenue",
        "display_kr": "#취소가능 #아미인기 #도보가능"
      },
      "lat": 37.65364611164047,
      "lng": 126.76392263719536,
      "location": {
        "area_en": "Gwanghwamun",
        "area_kr": "광화문",
        "address_en": "Gwanghwamun, Seoul",
        "address_kr": "서울 광화문"
      },
      "city_key": "gwanghwamun",
      "army_density": {
        "value": 65,
        "level_en": "High",
        "level_kr": "높음",
        "label_en": "ARMY 65%",
        "label_kr": "아미 65%"
      },
      "distance": {
        "type": "walk",
        "display_en": "Walk 8min",
        "minutes": 8,
        "distance_km": 0.7
      },
      "transport": {
        "station_en": "Jeongbalsan",
        "line_en": "Line 3",
        "line_color": "#EF7C1C",
        "display_en": "Jeongbalsan (Line 3)"
      },
      "safe_return": {
        "venue_en": "Goyang Stadium",
        "route_en": "Walk from Goyang Stadium → Hotel",
        "transport": "walk",
        "time_min": 8,
        "last_train": "23:50",
        "taxi_krw": 0
      },
      "army_local_guide": {
        "bts": [
          {
            "name_en": "MBC Sangam",
            "spot_tag": "Music Show",
            "description_en": "Music show filming",
            "distance_km": 14.0,
            "lat": 37.5786,
            "lng": 126.8918
          },
          {
            "name_en": "Hongdae Busking Street",
            "spot_tag": "Trainee Memory",
            "description_en": "Pre-debut busking spot",
            "distance_km": 17.6,
            "lat": 37.5563,
            "lng": 126.922
          },
          {
            "name_en": "Gwangjang Market",
            "spot_tag": "Debut Memory",
            "description_en": "2013 debut location",
            "distance_km": 23.6,
            "lat": 37.57,
            "lng": 127.0098
          }
        ],
        "restaurant": [
          {
            "name_en": "La Festa Restaurants",
            "spot_tag": "Dining Hub",
            "description_en": "Restaurant complex",
            "distance_km": 0.7,
            "lat": 37.6575,
            "lng": 126.7705
          },
          {
            "name_en": "Ilsan Food Street",
            "spot_tag": "Local Eats",
            "description_en": "Local food street",
            "distance_km": 0.9,
            "lat": 37.658,
            "lng": 126.772
          },
          {
            "name_en": "Western Dom Food Court",
            "spot_tag": "Food Court",
            "description_en": "Food court",
            "distance_km": 1.1,
            "lat": 37.663,
            "lng": 126.762
          }
        ],
        "cafe": [
          {
            "name_en": "Ilsan Lake Park Cafe Street",
            "spot_tag": "Lake View",
            "description_en": "Scenic cafes",
            "distance_km": 0.7,
            "lat": 37.659,
            "lng": 126.76
          },
          {
            "name_en": "La Festa Cafes",
            "spot_tag": "Trendy Cafe",
            "description_en": "Trendy cafes",
            "distance_km": 0.7,
            "lat": 37.6572,
            "lng": 126.771
          }
        ],
        "hotspot": [
          {
            "name_en": "Ilsan Lake Park",
            "spot_tag": "Must Visit",
            "description_en": "Beautiful lake park",
            "distance_km": 0.6,
            "lat": 37.658,
            "lng": 126.759
          },
          {
            "name_en": "One Mount",
            "spot_tag": "Entertainment",
            "description_en": "Theme park",
            "distance_km": 1.7,
            "lat": 37.665,
            "lng": 126.751
          },
          {
            "name_en": "Starfield Goyang",
            "spot_tag": "Shopping",
            "description_en": "Shopping mall",
            "distance_km": 11.6,
            "lat": 37.645,
            "lng": 126.895
          }
        ]
      },
      "map_detail": {
        "hotel": {
          "name_en": "Station Hostel In Namguro",
          "lat": 37.65364611164047,
          "lng": 126.76392263719536
        },
        "venue": {
          "name_en": "Goyang Stadium",
          "lat": 37.6556,
          "lng": 126.7714
        },
        "nearby_spots": [
          {
            "name_en": "Ilsan Lake Park",
            "category": "hotspot",
            "spot_tag": "Must Visit",
            "lat": 37.658,
            "lng": 126.759,
            "distance_km": 0.6
          },
          {
            "name_en": "La Festa Restaurants",
            "category": "restaurant",
            "spot_tag": "Dining Hub",
            "lat": 37.6575,
            "lng": 126.7705,
            "distance_km": 0.7
          },
          {
            "name_en": "Ilsan Lake Park Cafe Street",
            "category": "cafe",
            "spot_tag": "Lake View",
            "lat": 37.659,
            "lng": 126.76,
            "distance_km": 0.7
          },
          {
            "name_en": "La Festa Cafes",
            "category": "cafe",
            "spot_tag": "Trendy Cafe",
            "lat": 37.6572,
            "lng": 126.771,
            "distance_km": 0.7
          },
          {
            "name_en": "Ilsan Food Street",
            "category": "restaurant",
            "spot_tag": "Local Eats",
            "lat": 37.658,
            "lng": 126.772,
            "distance_km": 0.9
          }
        ]
      },
      "platform": {
        "name": "Booking.com",
        "booking_url": "https://www.booking.comhttps://www.booking.com/hotel/kr/seoul-namguroyeog-1bun-paemilrirum-101ho.ko.html?aid=304142&label=mkt123sc-79896cbf-144b-4202-a3b3-91d0d8b371b7&ucfs=1&arphpl=1&checkin=2026-06-11&checkout=2026-06-13&dest_id=-716583&dest_type=city&group_adults=2&req_adults=2&no_rooms=1&group_children=0&req_children=0&hpos=4&hapos=4&sr_order=price&srpvid=861acfe8b7314bde7d196898baf9f8e1&srepoch=1770291121&all_sr_blocks=1461239001_417420081_2_0_0&highlighted_blocks=1461239001_417420081_2_0_0&matching_block_id=1461239001_417420081_2_0_0&sr_pri_blocks=1461239001_417420081_2_0_0__7363636&from=searchresults"
      },
      "booking_guide": {
        "steps_en": [
          "1. Search Goyang hotels",
          "2. Filter by 'Free Cancellation'",
          "3. Select room and enter info",
          "4. Pay online or at property",
          "5. Show confirmation at check-in"
        ],
        "tips_en": [
          "Genius membership for discounts",
          "Free cancellation options"
        ],
        "payment_methods": [
          "Credit Card",
          "Pay at Property"
        ],
        "foreigner_friendly": true
      },
      "last_update": "2026-02-05 11:32:13",
      "nearby": [
        {
          "id": "hotel_27282",
          "name_en": "해치 스테이 게스트하우스 - 외국인 전용",
          "price_krw": 34,
          "distance_km": 0.2,
          "image_url": "https://cf.bstatic.com/xdata/images/hotel/square240/512551907.webp?k=1272d3084b0e1cd4a83298432ac667e0aaf4ff63bd8a44bdb7e421e84eca484b&o="
        },
        {
          "id": "hotel_85447",
          "name_en": "수정장 여관",
          "price_krw": 31,
          "distance_km": 0.3,
          "image_url": "https://cf.bstatic.com/xdata/images/hotel/square240/576487838.webp?k=a67fcc63fed9e1c41ef7aa8644d2164321e9f7f6fd5683d18bc0f470c953537a&o="
        },
        {
          "id": "hotel_84577",
          "name_en": "루미에르h호텔",
          "price_krw": 34,
          "distance_km": 0.3,
          "image_url": "https://cf.bstatic.com/xdata/images/hotel/square240/798399499.webp?k=ba73f52e9ce3fabcb1ad60c40afdc85eb4981015a66496406e49eac3a66a23d6&o="
        }
      ]
    },
    {
      "id": "hotel_27361",
      "name_en": "스프링 라이트",
      "price_krw": 26,
      "rating": 6.76,
      "image_url": "https://cf.bstatic.com/xdata/images/hotel/square240/329454863.webp?k=4d32ccde73798b309ec136a826de0a7a8fd83d728750e5f93dc6984f338785a5&o=",
      "rooms_left": -1,
      "is_available": true,
      "hotel_type": {
        "label_en": "Hotel",
        "color": "#4A90D9"
      },
      "cancellation": {
        "type": "free",
        "label_en": "Free Cancellation",
        "label_kr": "무료 취소",
        "is_refundable": true
      },
      "tags": {
        "list_en": [
          "#FreeCancellation",
          "#ARMYPopular",
          "#WalkToVenue"
        ],
        "list_kr": [
          "#취소가능",
          "#아미인기",
          "#도보가능"
        ],
        "display_en": "#FreeCancellation #ARMYPopular #WalkToVenue",
        "display_kr": "#취소가능 #아미인기 #도보가능"
      },
      "lat": 37.64933915505703,
      "lng": 126.77157745027952,
      "location": {
        "area_en": "Gwanghwamun",
        "area_kr": "광화문",
        "address_en": "Gwanghwamun, Seoul",
        "address_kr": "서울 광화문"
      },
      "city_key": "gwanghwamun",
      "army_density": {
        "value": 65,
        "level_en": "High",
        "level_kr": "높음",
        "label_en": "ARMY 65%",
        "label_kr": "아미 65%"
      },
      "distance": {
        "type": "walk",
        "display_en": "Walk 8min",
        "minutes": 8,
        "distance_km": 0.7
      },
      "transport": {
        "station_en": "Jeongbalsan",
        "line_en": "Line 3",
        "line_color": "#EF7C1C",
        "display_en": "Jeongbalsan (Line 3)"
      },
      "safe_return": {
        "venue_en": "Goyang Stadium",
        "route_en": "Walk from Goyang Stadium → Hotel",
        "transport": "walk",
        "time_min": 8,
        "last_train": "23:50",
        "taxi_krw": 0
      },
      "army_local_guide": {
        "bts": [
          {
            "name_en": "MBC Sangam",
            "spot_tag": "Music Show",
            "description_en": "Music show filming",
            "distance_km": 13.2,
            "lat": 37.5786,
            "lng": 126.8918
          },
          {
            "name_en": "Hongdae Busking Street",
            "spot_tag": "Trainee Memory",
            "description_en": "Pre-debut busking spot",
            "distance_km": 16.8,
            "lat": 37.5563,
            "lng": 126.922
          },
          {
            "name_en": "Gwangjang Market",
            "spot_tag": "Debut Memory",
            "description_en": "2013 debut location",
            "distance_km": 22.8,
            "lat": 37.57,
            "lng": 127.0098
          }
        ],
        "restaurant": [
          {
            "name_en": "La Festa Restaurants",
            "spot_tag": "Dining Hub",
            "description_en": "Restaurant complex",
            "distance_km": 0.9,
            "lat": 37.6575,
            "lng": 126.7705
          },
          {
            "name_en": "Ilsan Food Street",
            "spot_tag": "Local Eats",
            "description_en": "Local food street",
            "distance_km": 1.0,
            "lat": 37.658,
            "lng": 126.772
          },
          {
            "name_en": "Western Dom Food Court",
            "spot_tag": "Food Court",
            "description_en": "Food court",
            "distance_km": 1.7,
            "lat": 37.663,
            "lng": 126.762
          }
        ],
        "cafe": [
          {
            "name_en": "La Festa Cafes",
            "spot_tag": "Trendy Cafe",
            "description_en": "Trendy cafes",
            "distance_km": 0.9,
            "lat": 37.6572,
            "lng": 126.771
          },
          {
            "name_en": "Ilsan Lake Park Cafe Street",
            "spot_tag": "Lake View",
            "description_en": "Scenic cafes",
            "distance_km": 1.5,
            "lat": 37.659,
            "lng": 126.76
          }
        ],
        "hotspot": [
          {
            "name_en": "Ilsan Lake Park",
            "spot_tag": "Must Visit",
            "description_en": "Beautiful lake park",
            "distance_km": 1.5,
            "lat": 37.658,
            "lng": 126.759
          },
          {
            "name_en": "One Mount",
            "spot_tag": "Entertainment",
            "description_en": "Theme park",
            "distance_km": 2.5,
            "lat": 37.665,
            "lng": 126.751
          },
          {
            "name_en": "Starfield Goyang",
            "spot_tag": "Shopping",
            "description_en": "Shopping mall",
            "distance_km": 10.9,
            "lat": 37.645,
            "lng": 126.895
          }
        ]
      },
      "map_detail": {
        "hotel": {
          "name_en": "스프링 라이트",
          "lat": 37.64933915505703,
          "lng": 126.77157745027952
        },
        "venue": {
          "name_en": "Goyang Stadium",
          "lat": 37.6556,
          "lng": 126.7714
        },
        "nearby_spots": [
          {
            "name_en": "La Festa Restaurants",
            "category": "restaurant",
            "spot_tag": "Dining Hub",
            "lat": 37.6575,
            "lng": 126.7705,
            "distance_km": 0.9
          },
          {
            "name_en": "La Festa Cafes",
            "category": "cafe",
            "spot_tag": "Trendy Cafe",
            "lat": 37.6572,
            "lng": 126.771,
            "distance_km": 0.9
          },
          {
            "name_en": "Ilsan Food Street",
            "category": "restaurant",
            "spot_tag": "Local Eats",
            "lat": 37.658,
            "lng": 126.772,
            "distance_km": 1.0
          },
          {
            "name_en": "Ilsan Lake Park Cafe Street",
            "category": "cafe",
            "spot_tag": "Lake View",
            "lat": 37.659,
            "lng": 126.76,
            "distance_km": 1.5
          },
          {
            "name_en": "Ilsan Lake Park",
            "category": "hotspot",
            "spot_tag": "Must Visit",
            "lat": 37.658,
            "lng": 126.759,
            "distance_km": 1.5
          }
        ]
      },
      "platform": {
        "name": "Booking.com",
        "booking_url": "https://www.booking.comhttps://www.booking.com/hotel/kr/spring-light.ko.html?aid=304142&label=mkt123sc-79896cbf-144b-4202-a3b3-91d0d8b371b7&ucfs=1&arphpl=1&checkin=2026-06-11&checkout=2026-06-13&dest_id=-716583&dest_type=city&group_adults=2&req_adults=2&no_rooms=1&group_children=0&req_children=0&hpos=5&hapos=5&sr_order=price&srpvid=861acfe8b7314bde7d196898baf9f8e1&srepoch=1770291121&all_sr_blocks=516637106_179288019_0_0_0&highlighted_blocks=516637106_179288019_0_0_0&matching_block_id=516637106_179288019_0_0_0&sr_pri_blocks=516637106_179288019_0_0_0__7450000&from=searchresults"
      },
      "booking_guide": {
        "steps_en": [
          "1. Search Goyang hotels",
          "2. Filter by 'Free Cancellation'",
          "3. Select room and enter info",
          "4. Pay online or at property",
          "5. Show confirmation at check-in"
        ],
        "tips_en": [
          "Genius membership for discounts",
          "Free cancellation options"
        ],
        "payment_methods": [
          "Credit Card",
          "Pay at Property"
        ],
        "foreigner_friendly": true
      },
      "last_update": "2026-02-05 11:32:13",
      "nearby": [
        {
          "id": "hotel_01436",
          "name_en": "J2 Us#1",
          "price_krw": 26,
          "distance_km": 0.2,
          "image_url": "https://cf.bstatic.com/xdata/images/hotel/square240/816706261.webp?k=7757757d41fa086e07cea3037beb0013f5f00d6af21059eff4a7323af0a1f3ed&o="
        },