{
  "home": {
    "venue": {
      "name_en": "Goyang Stadium",
      "name_kr": "고양종합운동장",
      "lat": 37.6556,
      "lng": 126.7714
    },
    "available_count": 25,
    "total_count": 25,
    "lowest_price_krw": 126,
    "last_update": "2026-02-01 18:27:09"
  },
  "map": {
    "venue": {
      "name_en": "Goyang Stadium",
      "lat": 37.6556,
      "lng": 126.7714,
      "type": "venue"
    },
    "local_spots": [
      {
        "name_en": "HYBE INSIGHT",
        "category": "bts",
        "spot_tag": "BTS Museum",
        "lat": 37.526,
        "lng": 127.0405
      },
      {
        "name_en": "HYBE Headquarters",
        "category": "bts",
        "spot_tag": "BTS Home",
        "lat": 37.528,
        "lng": 127.04
      },
      {
        "name_en": "Hongdae Busking Street",
        "category": "bts",
        "spot_tag": "Trainee Memory",
        "lat": 37.5563,
        "lng": 126.922
      },
      {
        "name_en": "MBC Sangam",
        "category": "bts",
        "spot_tag": "Music Show",
        "lat": 37.5786,
        "lng": 126.8918
      },
      {
        "name_en": "Gwangjang Market",
        "category": "bts",
        "spot_tag": "Debut Memory",
        "lat": 37.57,
        "lng": 127.0098
      },
      {
        "name_en": "Ilsan Food Street",
        "category": "restaurant",
        "spot_tag": "Local Eats",
        "lat": 37.658,
        "lng": 126.772
      },
      {
        "name_en": "La Festa Restaurants",
        "category": "restaurant",
        "spot_tag": "Dining Hub",
        "lat": 37.6575,
        "lng": 126.7705
      },
      {
        "name_en": "Western Dom Food Court",
        "category": "restaurant",
        "spot_tag": "Food Court",
        "lat": 37.663,
        "lng": 126.762
      },
      {
        "name_en": "Ilsan Lake Park Cafe Street",
        "category": "cafe",
        "spot_tag": "Lake View",
        "lat": 37.659,
        "lng": 126.76
      },
      {
        "name_en": "La Festa Cafes",
        "category": "cafe",
        "spot_tag": "Trendy Cafe",
        "lat": 37.6572,
        "lng": 126.771
      },
      {
        "name_en": "Ilsan Lake Park",
        "category": "hotspot",
        "spot_tag": "Must Visit",
        "lat": 37.658,
        "lng": 126.759
      },
      {
        "name_en": "One Mount",
        "category": "hotspot",
        "spot_tag": "Entertainment",
        "lat": 37.665,
        "lng": 126.751
      },
      {
        "name_en": "Starfield Goyang",
        "category": "hotspot",
        "spot_tag": "Shopping",
        "lat": 37.645,
        "lng": 126.895
      }
    ],
    "hotels": [
      {
        "id": "hotel_94441",
        "name_en": "Shire Hotel Heritage Busan Station",
        "lat": 37.65607339592781,
        "lng": 126.77134602171229,
        "price_krw": 181
      },
      {
        "id": "hotel_54306",
        "name_en": "블루모텔",
        "lat": 37.6563641517172,
        "lng": 126.77185596494289,
        "price_krw": 199
      },
      {
        "id": "hotel_86149",
        "name_en": "해운대비치레스트필드",
        "lat": 37.656003139517026,
        "lng": 126.77324018219166,
        "price_krw": 284
      },
      {
        "id": "hotel_75151",
        "name_en": "준 하우스 (외국인 전용)",
        "lat": 37.65392583419696,
        "lng": 126.77216156859522,
        "price_krw": 300
      },
      {
        "id": "hotel_54392",
        "name_en": "혀니네",
        "lat": 37.651631690323995,
        "lng": 126.77109356170317,
        "price_krw": 284
      },
      {
        "id": "hotel_68865",
        "name_en": "6번가 스테이",
        "lat": 37.65194961403747,
        "lng": 126.7700944456011,
        "price_krw": 284
      },
      {
        "id": "hotel_93550",
        "name_en": "동아대병원#부산역#남포동 SYJM Dong-A",
        "lat": 37.66006335044219,
        "lng": 126.77223567290187,
        "price_krw": 147
      },
      {
        "id": "hotel_28177",
        "name_en": "Shire Hotel Signature Seomyeon",
        "lat": 37.6511342971728,
        "lng": 126.76876779437009,
        "price_krw": 165
      },
      {
        "id": "hotel_85644",
        "name_en": "부산 송정 스테이",
        "lat": 37.65266998436424,
        "lng": 126.7663754468882,
        "price_krw": 253
      },
      {
        "id": "hotel_73285",
        "name_en": "브라운도트 사직야구장점",
        "lat": 37.65169725055951,
        "lng": 126.76637174464275,
        "price_krw": 316
      },
      {
        "id": "hotel_62072",
        "name_en": "큐브 호텔",
        "lat": 37.6495264858863,
        "lng": 126.7725196521248,
        "price_krw": 219
      },
      {
        "id": "hotel_97915",
        "name_en": "남포 MGM 호텔",
        "lat": 37.65533235143846,
        "lng": 126.76398281055788,
        "price_krw": 256
      },
      {
        "id": "hotel_83834",
        "name_en": "기장 하운드호텔 일광점",
        "lat": 37.65041773791898,
        "lng": 126.77530430232746,
        "price_krw": 300
      },
      {
        "id": "hotel_99876",
        "name_en": "호텔 모먼트 송정",
        "lat": 37.6591324363533,
        "lng": 126.76313598327273,
        "price_krw": 237
      },
      {
        "id": "hotel_17315",
        "name_en": "하이루프33 레지던스",
        "lat": 37.64918925743513,
        "lng": 126.77659706417457,
        "price_krw": 303
      },
      {
        "id": "hotel_34635",
        "name_en": "몰디브 호텔&호스텔",
        "lat": 37.64819578205822,
        "lng": 126.77058602636443,
        "price_krw": 316
      },
      {
        "id": "hotel_32986",
        "name_en": "명지 오션시티 호텔",
        "lat": 37.647294993745426,
        "lng": 126.7734729917716,
        "price_krw": 229
      },
      {
        "id": "hotel_83664",
        "name_en": "엘모멘토 송도",
        "lat": 37.66065377552836,
        "lng": 126.76365950320486,
        "price_krw": 272
      },
      {
        "id": "hotel_55431",
        "name_en": "Hotel ARA - Busan Haeundae",
        "lat": 37.66251053639699,
        "lng": 126.77580665031356,
        "price_krw": 289
      },
      {
        "id": "hotel_66749",
        "name_en": "호텔야자 사상터미널점",
        "lat": 37.646531394771145,
        "lng": 126.77116290386492,
        "price_krw": 306
      },
      {
        "id": "hotel_51046",
        "name_en": "Busan Gwangalli Nuri Hotel",
        "lat": 37.64732998327847,
        "lng": 126.77896932179303,
        "price_krw": 279
      },
      {
        "id": "hotel_11760",
        "name_en": "엘모멘토 오시리아",
        "lat": 37.64802120395123,
        "lng": 126.76342956036923,
        "price_krw": 318
      },
      {
        "id": "hotel_04822",
        "name_en": "하이루프33 Guest House",
        "lat": 37.64698638307631,
        "lng": 126.77920276204514,
        "price_krw": 126
      },
      {
        "id": "hotel_75903",
        "name_en": "BT호텔",
        "lat": 37.66488838008554,
        "lng": 126.7773748685683,
        "price_krw": 156
      },
      {
        "id": "hotel_82180",
        "name_en": "모닝광안리201호 바닷가30초 감성낭만숙소",
        "lat": 37.64590351640328,
        "lng": 126.76611391737843,
        "price_krw": 253
      }
    ]
  },
  "hotels": [
    {
      "id": "hotel_94441",
      "name_en": "Shire Hotel Heritage Busan Station",
      "price_krw": 181,
      "rating": 8.08,
      "image_url": "https://cf.bstatic.com/xdata/images/hotel/square240/794728611.webp?k=ee35082267610dfec1572d39c2286cad9a3925c74dac5eb09729023263ce7f72&o=",
      "rooms_left": -1,
      "is_available": true,
      "hotel_type": {
        "label_en": "Hotel",
        "color": "#4A90D9"
      },
      "cancellation": {
        "type": "free",
        "label_en": "Free Cancellation",
        "label_kr": "무료 취소",
        "is_refundable": true
      },
      "tags": {
        "list_en": [
          "#FreeCancellation",
          "#ARMYPopular",
          "#WalkToVenue"
        ],
        "list_kr": [
          "#취소가능",
          "#아미인기",
          "#도보가능"
        ],
        "display_en": "#FreeCancellation #ARMYPopular #WalkToVenue",
        "display_kr": "#취소가능 #아미인기 #도보가능"
      },
      "lat": 37.65607339592781,
      "lng": 126.77134602171229,
      "location": {
        "area_en": "Busan",
        "area_kr": "부산",
        "address_en": "Busan, Busan",
        "address_kr": "부산 부산"
      },
      "city_key": "busan",
      "army_density": {
        "value": 65,
        "level_en": "High",
        "level_kr": "높음",
        "label_en": "ARMY 65%",
        "label_kr": "아미 65%"
      },
      "distance": {
        "type": "walk",
        "display_en": "Walk 0min",
        "minutes": 0,
        "distance_km": 0.1
      },
      "transport": {
        "station_en": "Jeongbalsan",
        "line_en": "Line 3",
        "line_color": "#EF7C1C",
        "display_en": "Jeongbalsan (Line 3)"
      },
      "safe_return": {
        "venue_en": "Goyang Stadium",
        "route_en": "Walk from Goyang Stadium → Hotel",
        "transport": "walk",
        "time_min": 0,
        "last_train": "23:50",
        "taxi_krw": 0
      },
      "army_local_guide": {
        "bts": [
          {
            "name_en": "MBC Sangam",
            "spot_tag": "Music Show",
            "description_en": "Music show filming",
            "distance_km": 13.7,
            "lat": 37.5786,
            "lng": 126.8918
          },
          {
            "name_en": "Hongdae Busking Street",
            "spot_tag": "Trainee Memory",
            "description_en": "Pre-debut busking spot",
            "distance_km": 17.3,
            "lat": 37.5563,
            "lng": 126.922
          },
          {
            "name_en": "Gwangjang Market",
            "spot_tag": "Debut Memory",
            "description_en": "2013 debut location",
            "distance_km": 23.1,
            "lat": 37.57,
            "lng": 127.0098
          }
        ],
        "restaurant": [
          {
            "name_en": "Ilsan Food Street",
            "spot_tag": "Local Eats",
            "description_en": "Local food street",
            "distance_km": 0.2,
            "lat": 37.658,
            "lng": 126.772
          },
          {
            "name_en": "La Festa Restaurants",
            "spot_tag": "Dining Hub",
            "description_en": "Restaurant complex",
            "distance_km": 0.2,
            "lat": 37.6575,
            "lng": 126.7705
          },
          {
            "name_en": "Western Dom Food Court",
            "spot_tag": "Food Court",
            "description_en": "Food court",
            "distance_km": 1.1,
            "lat": 37.663,
            "lng": 126.762
          }
        ],
        "cafe": [
          {
            "name_en": "La Festa Cafes",
            "spot_tag": "Trendy Cafe",
            "description_en": "Trendy cafes",
            "distance_km": 0.1,
            "lat": 37.6572,
            "lng": 126.771
          },
          {
            "name_en": "Ilsan Lake Park Cafe Street",
            "spot_tag": "Lake View",
            "description_en": "Scenic cafes",
            "distance_km": 1.1,
            "lat": 37.659,
            "lng": 126.76
          }
        ],
        "hotspot": [
          {
            "name_en": "Ilsan Lake Park",
            "spot_tag": "Must Visit",
            "description_en": "Beautiful lake park",
            "distance_km": 1.1,
            "lat": 37.658,
            "lng": 126.759
          },
          {
            "name_en": "One Mount",
            "spot_tag": "Entertainment",
            "description_en": "Theme park",
            "distance_km": 2.0,
            "lat": 37.665,
            "lng": 126.751
          },
          {
            "name_en": "Starfield Goyang",
            "spot_tag": "Shopping",
            "description_en": "Shopping mall",
            "distance_km": 11.0,
            "lat": 37.645,
            "lng": 126.895
          }
        ]
      },
      "map_detail": {
        "hotel": {
          "name_en": "Shire Hotel Heritage Busan Station",
          "lat": 37.65607339592781,
          "lng": 126.77134602171229
        },
        "venue": {
          "name_en": "Goyang Stadium",
          "lat": 37.6556,
          "lng": 126.7714
        },
        "nearby_spots": [
          {
            "name_en": "La Festa Cafes",
            "category": "cafe",
            "spot_tag": "Trendy Cafe",
            "lat": 37.6572,
            "lng": 126.771,
            "distance_km": 0.1
          },
          {
            "name_en": "Ilsan Food Street",
            "category": "restaurant",
            "spot_tag": "Local Eats",
            "lat": 37.658,
            "lng": 126.772,
            "distance_km": 0.2
          },
          {
            "name_en": "La Festa Restaurants",
            "category": "restaurant",
            "spot_tag": "Dining Hub",
            "lat": 37.6575,
            "lng": 126.7705,
            "distance_km": 0.2
          },
          {
            "name_en": "Western Dom Food Court",
            "category": "restaurant",
            "spot_tag": "Food Court",
            "lat": 37.663,
            "lng": 126.762,
            "distance_km": 1.1
          },
          {
            "name_en": "Ilsan Lake Park Cafe Street",
            "category": "cafe",
            "spot_tag": "Lake View",
            "lat": 37.659,
            "lng": 126.76,
            "distance_km": 1.1
          }
        ]
      },
      "platform": {
        "name": "Booking.com",
        "booking_url": "https://www.booking.comhttps://www.booking.com/hotel/kr/syaieohotel-busanyeog-busan.ko.html?aid=304142&label=mkt123sc-d3d7030c-9faf-4f56-a1c1-af3bb1917fb7&ucfs=1&arphpl=1&checkin=2026-06-11&checkout=2026-06-13&dest_id=-713900&dest_type=city&group_adults=2&req_adults=2&no_rooms=1&group_children=0&req_children=0&hpos=5&hapos=5&sr_order=price&srpvid=43a8fc8d0c03708f691e244d7d233230&srepoch=1769970425&all_sr_blocks=0_0_2_0_0&highlighted_blocks=0_0_2_0_0&matching_block_id=0_0_2_0_0&sr_pri_blocks=0_0_2_0_0__56891018&from=searchresults"
      },
      "booking_guide": {
        "steps_en": [
          "1. Search Goyang hotels",
          "2. Filter by 'Free Cancellation'",
          "3. Select room and enter info",
          "4. Pay online or at property",
          "5. Show confirmation at check-in"
        ],
        "tips_en": [
          "Genius membership for discounts",
          "Free cancellation options"
        ],
        "payment_methods": [
          "Credit Card",
          "Pay at Property"
        ],
        "foreigner_friendly": true
      },
      "last_update": "2026-02-01 18:27:09",
      "nearby": [
        {
          "id": "hotel_54306",
          "name_en": "블루모텔",
          "price_krw": 199,
          "distance_km": 0.1,
          "image_url": "https://cf.bstatic.com/xdata/images/hotel/square240/516282052.webp?k=756cb08bd4ab301ae9e0013e0d5e35a917f0179a6d0c78879075e8922a0866a3&o="
        },
        {
          "id": "hotel_86149",
          "name_en": "해운대비치레스트필드",
          "price_krw": 284,
          "distance_km": 0.2,
          "image_url": "https://cf.bstatic.com/xdata/images/hotel/square240/714841697.webp?k=b45fc80acea227cdc50a82bdad2a1913b7f3f3418663e8a547fc8e7ff5294df2&o="
        },
        {
          "id": "hotel_75151",
          "name_en": "준 하우스 (외국인 전용)",
          "price_krw": 300,
          "distance_km": 0.2,
          "image_url": "https://cf.bstatic.com/xdata/images/hotel/square240/471795559.webp?k=9cf66739686fc32f2bb47216f673fe554a70fe044160055f3188d90ddd0aa8bd&o="
        }
      ]
    },
    {
      "id": "hotel_54306",
      "name_en": "블루모텔",
      "price_krw": 199,
      "rating": 7.57,
      "image_url": "https://cf.bstatic.com/xdata/images/hotel/square240/516282052.webp?k=756cb08bd4ab301ae9e0013e0d5e35a917f0179a6d0c78879075e8922a0866a3&o=",
      "rooms_left": -1,
      "is_available": true,
      "hotel_type": {
        "label_en": "Hotel",
        "color": "#4A90D9"
      },
      "cancellation": {
        "type": "free",
        "label_en": "Free Cancellation",
        "label_kr": "무료 취소",
        "is_refundable": true
      },
      "tags": {
        "list_en": [
          "#FreeCancellation",
          "#ARMYPopular",
          "#WalkToVenue"
        ],
        "list_kr": [
          "#취소가능",
          "#아미인기",
          "#도보가능"
        ],
        "display_en": "#FreeCancellation #ARMYPopular #WalkToVenue",
        "display_kr": "#취소가능 #아미인기 #도보가능"
      },
      "lat": 37.6563641517172,
      "lng": 126.77185596494289,
      "location": {
        "area_en": "Busan",
        "area_kr": "부산",
        "address_en": "Busan, Busan",
        "address_kr": "부산 부산"
      },
      "city_key": "busan",
      "army_density": {
        "value": 65,
        "level_en": "High",
        "level_kr": "높음",
        "label_en": "ARMY 65%",
        "label_kr": "아미 65%"
      },
      "distance": {
        "type": "walk",
        "display_en": "Walk 1min",
        "minutes": 1,
        "distance_km": 0.1
      },
      "transport": {
        "station_en": "Jeongbalsan",
        "line_en": "Line 3",
        "line_color": "#EF7C1C",
        "display_en": "Jeongbalsan (Line 3)"
      },
      "safe_return": {
        "venue_en": "Goyang Stadium",
        "route_en": "Walk from Goyang Stadium → Hotel",
        "transport": "walk",
        "time_min": 1,
        "last_train": "23:50",
        "taxi_krw": 0
      },
      "army_local_guide": {
        "bts": [
          {
            "name_en": "MBC Sangam",
            "spot_tag": "Music Show",
            "description_en": "Music show filming",
            "distance_km": 13.7,
            "lat": 37.5786,
            "lng": 126.8918
          },
          {
            "name_en": "Hongdae Busking Street",
            "spot_tag": "Trainee Memory",
            "description_en": "Pre-debut busking spot",
            "distance_km": 17.3,
            "lat": 37.5563,
            "lng": 126.922
          },
          {
            "name_en": "Gwangjang Market",
            "spot_tag": "Debut Memory",
            "description_en": "2013 debut location",
            "distance_km": 23.1,
            "lat": 37.57,
            "lng": 127.0098
          }
        ],
        "restaurant": [
          {
            "name_en": "Ilsan Food Street",
            "spot_tag": "Local Eats",
            "description_en": "Local food street",
            "distance_km": 0.2,
            "lat": 37.658,
            "lng": 126.772
          },
          {
            "name_en": "La Festa Restaurants",
            "spot_tag": "Dining Hub",
            "description_en": "Restaurant complex",
            "distance_km": 0.2,
            "lat": 37.6575,
            "lng": 126.7705
          },
          {
            "name_en": "Western Dom Food Court",
            "spot_tag": "Food Court",
            "description_en": "Food court",
            "distance_km": 1.1,
            "lat": 37.663,
            "lng": 126.762
          }
        ],
        "cafe": [
          {
            "name_en": "La Festa Cafes",
            "spot_tag": "Trendy Cafe",
            "description_en": "Trendy cafes",
            "distance_km": 0.1,
            "lat": 37.6572,
            "lng": 126.771
          },
          {
            "name_en": "Ilsan Lake Park Cafe Street",
            "spot_tag": "Lake View",
            "description_en": "Scenic cafes",
            "distance_km": 1.1,
            "lat": 37.659,
            "lng": 126.76
          }
        ],
        "hotspot": [
          {
            "name_en": "Ilsan Lake Park",
            "spot_tag": "Must Visit",
            "description_en": "Beautiful lake park",
            "distance_km": 1.1,
            "lat": 37.658,
            "lng": 126.759
          },
          {
            "name_en": "One Mount",
            "spot_tag": "Entertainment",
            "description_en": "Theme park",
            "distance_km": 2.1,
            "lat": 37.665,
            "lng": 126.751
          },
          {
            "name_en": "Starfield Goyang",
            "spot_tag": "Shopping",
            "description_en": "Shopping mall",
            "distance_km": 10.9,
            "lat": 37.645,
            "lng": 126.895
          }
        ]
      },
      "map_detail": {
        "hotel": {
          "name_en": "블루모텔",
          "lat": 37.6563641517172,
          "lng": 126.77185596494289
        },
        "venue": {
          "name_en": "Goyang Stadium",
          "lat": 37.6556,
          "lng": 126.7714
        },
        "nearby_spots": [
          {
            "name_en": "La Festa Cafes",
            "category": "cafe",
            "spot_tag": "Trendy Cafe",
            "lat": 37.6572,
            "lng": 126.771,
            "distance_km": 0.1
          },
          {
            "name_en": "Ilsan Food Street",
            "category": "restaurant",
            "spot_tag": "Local Eats",
            "lat": 37.658,
            "lng": 126.772,
            "distance_km": 0.2
          },
          {
            "name_en": "La Festa Restaurants",
            "category": "restaurant",
            "spot_tag": "Dining Hub",
            "lat": 37.6575,
            "lng": 126.7705,
            "distance_km": 0.2
          },
          {
            "name_en": "Western Dom Food Court",
            "category": "restaurant",
            "spot_tag": "Food Court",
            "lat": 37.663,
            "lng": 126.762,
            "distance_km": 1.1
          },
          {
            "name_en": "Ilsan Lake Park Cafe Street",
            "category": "cafe",
            "spot_tag": "Lake View",
            "lat": 37.659,
            "lng": 126.76,
            "distance_km": 1.1
          }
        ]
      },
      "platform": {
        "name": "Booking.com",
        "booking_url": "https://www.booking.comhttps://www.booking.com/hotel/kr/blue-motel-busangwangyeogsi.ko.html?aid=304142&label=mkt123sc-d3d7030c-9faf-4f56-a1c1-af3bb1917fb7&ucfs=1&arphpl=1&checkin=2026-06-11&checkout=2026-06-13&dest_id=-713900&dest_type=city&group_adults=2&req_adults=2&no_rooms=1&group_children=0&req_children=0&hpos=6&hapos=6&sr_order=price&srpvid=43a8fc8d0c03708f691e244d7d233230&srepoch=1769970425&all_sr_blocks=1129141003_385555154_0_0_0&highlighted_blocks=1129141003_385555154_0_0_0&matching_block_id=1129141003_385555154_0_0_0&sr_pri_blocks=1129141003_385555154_0_0_0__57272727&from=searchresults"
      },
      "booking_guide": {
        "steps_en": [
          "1. Search Goyang hotels",
          "2. Filter by 'Free Cancellation'",
          "3. Select room and enter info",
          "4. Pay online or at property",
          "5. Show confirmation at check-in"
        ],
        "tips_en": [
          "Genius membership for discounts",
          "Free cancellation options"
        ],
        "payment_methods": [
          "Credit Card",
          "Pay at Property"
        ],
        "foreigner_friendly": true
      },
      "last_update": "2026-02-01 18:27:09",
      "nearby": [
        {
          "id": "hotel_94441",
          "name_en": "Shire Hotel Heritage Busan Station",
          "price_krw": 181,
          "distance_km": 0.1,
          "image_url": "https://cf.bstatic.com/xdata/images/hotel/square240/794728611.webp?k=ee35082267610dfec1572d39c2286cad9a3925c74dac5eb09729023263ce7f72&o="
        },
        {
          "id": "hotel_86149",
          "name_en": "해운대비치레스트필드",
          "price_krw": 284,
          "distance_km": 0.1,
          "image_url": "https://cf.bstatic.com/xdata/images/hotel/square240/714841697.webp?k=b45fc80acea227cdc50a82bdad2a1913b7f3f3418663e8a547fc8e7ff5294df2&o="
        },
        {
          "id": "hotel_75151",
          "name_en": "준 하우스 (외국인 전용)",
          "price_krw": 300,
          "distance_km": 0.3,
          "image_url": "https://cf.bstatic.com/xdata/images/hotel/square240/471795559.webp?k=9cf66739686fc32f2bb47216f673fe554a70fe044160055f3188d90ddd0aa8bd&o="
        }
      ]
    },
    {
      "id": "hotel_86149",
      "name_en": "해운대비치레스트필드",
      "price_krw": 284,
      "rating": 1010.0,
      "image_url": "https://cf.bstatic.com/xdata/images/hotel/square240/714841697.webp?k=b45fc80acea227cdc50a82bdad2a1913b7f3f3418663e8a547fc8e7ff5294df2&o=",
      "rooms_left": -1,
      "is_available": true,
      "hotel_type": {
        "label_en": "Hotel",
        "color": "#4A90D9"
      },
      "cancellation": {
        "type": "free",
        "label_en": "Free Cancellation",
        "label_kr": "무료 취소",
        "is_refundable": true
      },
      "tags": {
        "list_en": [
          "#FreeCancellation",
          "#ARMYPopular",
          "#WalkToVenue"
        ],
        "list_kr": [
          "#취소가능",
          "#아미인기",
          "#도보가능"
        ],
        "display_en": "#FreeCancellation #ARMYPopular #WalkToVenue",
        "display_kr": "#취소가능 #아미인기 #도보가능"
      },
      "lat": 37.656003139517026,
      "lng": 126.77324018219166,
      "location": {
        "area_en": "Busan",
        "area_kr": "부산",
        "address_en": "Busan, Busan",
        "address_kr": "부산 부산"
      },
      "city_key": "busan",
      "army_density": {
        "value": 65,
        "level_en": "High",
        "level_kr": "높음",
        "label_en": "ARMY 65%",
        "label_kr": "아미 65%"
      },
      "distance": {
        "type": "walk",
        "display_en": "Walk 2min",
        "minutes": 2,
        "distance_km": 0.2
      },
      "transport": {
        "station_en": "Jeongbalsan",
        "line_en": "Line 3",
        "line_color": "#EF7C1C",
        "display_en": "Jeongbalsan (Line 3)"
      },
      "safe_return": {
        "venue_en": "Goyang Stadium",
        "route_en": "Walk from Goyang Stadium → Hotel",
        "transport": "walk",
        "time_min": 2,
        "last_train": "23:50",
        "taxi_krw": 0
      },
      "army_local_guide": {
        "bts": [
          {
            "name_en": "MBC Sangam",
            "spot_tag": "Music Show",
            "description_en": "Music show filming",
            "distance_km": 13.5,
            "lat": 37.5786,
            "lng": 126.8918
          },
          {
            "name_en": "Hongdae Busking Street",
            "spot_tag": "Trainee Memory",
            "description_en": "Pre-debut busking spot",
            "distance_km": 17.2,
            "lat": 37.5563,
            "lng": 126.922
          },
          {
            "name_en": "Gwangjang Market",
            "spot_tag": "Debut Memory",
            "description_en": "2013 debut location",
            "distance_km": 22.9,
            "lat": 37.57,
            "lng": 127.0098
          }
        ],
        "restaurant": [
          {
            "name_en": "Ilsan Food Street",
            "spot_tag": "Local Eats",
            "description_en": "Local food street",
            "distance_km": 0.2,
            "lat": 37.658,
            "lng": 126.772
          },
          {
            "name_en": "La Festa Restaurants",
            "spot_tag": "Dining Hub",
            "description_en": "Restaurant complex",
            "distance_km": 0.3,
            "lat": 37.6575,
            "lng": 126.7705
          },
          {
            "name_en": "Western Dom Food Court",
            "spot_tag": "Food Court",
            "description_en": "Food court",
            "distance_km": 1.3,
            "lat": 37.663,
            "lng": 126.762
          }
        ],
        "cafe": [
          {
            "name_en": "La Festa Cafes",
            "spot_tag": "Trendy Cafe",
            "description_en": "Trendy cafes",
            "distance_km": 0.2,
            "lat": 37.6572,
            "lng": 126.771
          },
          {
            "name_en": "Ilsan Lake Park Cafe Street",
            "spot_tag": "Lake View",
            "description_en": "Scenic cafes",
            "distance_km": 1.2,
            "lat": 37.659,
            "lng": 126.76
          }
        ],
        "hotspot": [
          {
            "name_en": "Ilsan Lake Park",
            "spot_tag": "Must Visit",
            "description_en": "Beautiful lake park",
            "distance_km": 1.3,
            "lat": 37.658,
            "lng": 126.759
          },
          {
            "name_en": "One Mount",
            "spot_tag": "Entertainment",
            "description_en": "Theme park",
            "distance_km": 2.2,
            "lat": 37.665,
            "lng": 126.751
          },
          {
            "name_en": "Starfield Goyang",
            "spot_tag": "Shopping",
            "description_en": "Shopping mall",
            "distance_km": 10.8,
            "lat": 37.645,
            "lng": 126.895
          }
        ]
      },
      "map_detail": {
        "hotel": {
          "name_en": "해운대비치레스트필드",
          "lat": 37.656003139517026,
          "lng": 126.77324018219166
        },
        "venue": {
          "name_en": "Goyang Stadium",
          "lat": 37.6556,
          "lng": 126.7714
        },
        "nearby_spots": [
          {
            "name_en": "Ilsan Food Street",
            "category": "restaurant",
            "spot_tag": "Local Eats",
            "lat": 37.658,
            "lng": 126.772,
            "distance_km": 0.2
          },
          {
            "name_en": "La Festa Cafes",
            "category": "cafe",
            "spot_tag": "Trendy Cafe",
            "lat": 37.6572,
            "lng": 126.771,
            "distance_km": 0.2
          },
          {
            "name_en": "La Festa Restaurants",
            "category": "restaurant",
            "spot_tag": "Dining Hub",
            "lat": 37.6575,
            "lng": 126.7705,
            "distance_km": 0.3
          },
          {
            "name_en": "Ilsan Lake Park Cafe Street",
            "category": "cafe",
            "spot_tag": "Lake View",
            "lat": 37.659,
            "lng": 126.76,
            "distance_km": 1.2
          },
          {
            "name_en": "Western Dom Food Court",
            "category": "restaurant",
            "spot_tag": "Food Court",
            "lat": 37.663,
            "lng": 126.762,
            "distance_km": 1.3
          }
        ]
      },
      "platform": {
        "name": "Booking.com",
        "booking_url": "https://www.booking.comhttps://www.booking.com/hotel/kr/haeundaebici-reseuteupildeu.ko.html?aid=304142&label=mkt123sc-d3d7030c-9faf-4f56-a1c1-af3bb1917fb7&ucfs=1&arphpl=1&checkin=2026-06-11&checkout=2026-06-13&dest_id=-713900&dest_type=city&group_adults=2&req_adults=2&no_rooms=1&group_children=0&req_children=0&hpos=15&hapos=15&sr_order=price&srpvid=43a8fc8d0c03708f691e244d7d233230&srepoch=1769970425&all_sr_blocks=1458252901_417147846_0_2_0&highlighted_blocks=1458252901_417147846_0_2_0&matching_block_id=1458252901_417147846_0_2_0&sr_pri_blocks=1458252901_417147846_0_2_0__81654545&from=searchresults"
      },
      "booking_guide": {
        "steps_en": [
          "1. Search Goyang hotels",
          "2. Filter by 'Free Cancellation'",
          "3. Select room and enter info",
          "4. Pay online or at property",
          "5. Show confirmation at check-in"
        ],
        "tips_en": [
          "Genius membership for discounts",
          "Free cancellation options"
        ],
        "payment_methods": [
          "Credit Card",
          "Pay at Property"
        ],
        "foreigner_friendly": true
      },
      "last_update": "2026-02-01 18:27:09",
      "nearby": [
        {
          "id": "hotel_54306",
          "name_en": "블루모텔",
          "price_krw": 199,
          "distance_km": 0.1,
          "image_url": "https://cf.bstatic.com/xdata/images/hotel/square240/516282052.webp?k=756cb08bd4ab301ae9e0013e0d5e35a917f0179a6d0c78879075e8922a0866a3&o="
        },
        {
          "id": "hotel_94441",
          "name_en": "Shire Hotel Heritage Busan Station",
          "price_krw": 181,
          "distance_km": 0.2,
          "image_url": "https://cf.bstatic.com/xdata/images/hotel/square240/794728611.webp?k=ee35082267610dfec1572d39c2286cad9a3925c74dac5eb09729023263ce7f72&o="
        },
        {
          "id": "hotel_75151",
          "name_en": "준 하우스 (외국인 전용)",
          "price_krw": 300,
          "distance_km": 0.2,
          "image_url": "https://cf.bstatic.com/xdata/images/hotel/square240/471795559.webp?k=9cf66739686fc32f2bb47216f673fe554a70fe044160055f3188d90ddd0aa8bd&o="
        }
      ]
    },
    {
      "id": "hotel_75151",
      "name_en": "준 하우스 (외국인 전용)",
      "price_krw": 300,
      "rating": 7.47,
      "image_url": "https://cf.bstatic.com/xdata/images/hotel/square240/471795559.webp?k=9cf66739686fc32f2bb47216f673fe554a70fe044160055f3188d90ddd0aa8bd&o=",
      "rooms_left": -1,
      "is_available": true,
      "hotel_type": {
        "label_en": "Hotel",
        "color": "#4A90D9"
      },
      "cancellation": {
        "type": "free",
        "label_en": "Free Cancellation",
        "label_kr": "무료 취소",
        "is_refundable": true
      },
      "tags": {
        "list_en": [
          "#FreeCancellation",
          "#ARMYPopular",
          "#WalkToVenue"
        ],
        "list_kr": [
          "#취소가능",
          "#아미인기",
          "#도보가능"
        ],
        "display_en": "#FreeCancellation #ARMYPopular #WalkToVenue",
        "display_kr": "#취소가능 #아미인기 #도보가능"
      },
      "lat": 37.65392583419696,
      "lng": 126.77216156859522,
      "location": {
        "area_en": "Busan",
        "area_kr": "부산",
        "address_en": "Busan, Busan",
        "address_kr": "부산 부산"
      },
      "city_key": "busan",
      "army_density": {
        "value": 65,
        "level_en": "High",
        "level_kr": "높음",
        "label_en": "ARMY 65%",
        "label_kr": "아미 65%"
      },
      "distance": {
        "type": "walk",
        "display_en": "Walk 2min",
        "minutes": 2,
        "distance_km": 0.2
      },
      "transport": {
        "station_en": "Jeongbalsan",
        "line_en": "Line 3",
        "line_color": "#EF7C1C",
        "display_en": "Jeongbalsan (Line 3)"
      },
      "safe_return": {
        "venue_en": "Goyang Stadium",
        "route_en": "Walk from Goyang Stadium → Hotel",
        "transport": "walk",
        "time_min": 2,
        "last_train": "23:50",
        "taxi_krw": 0
      },
      "army_local_guide": {
        "bts": [
          {
            "name_en": "MBC Sangam",
            "spot_tag": "Music Show",
            "description_en": "Music show filming",
            "distance_km": 13.5,
            "lat": 37.5786,
            "lng": 126.8918
          },
          {
            "name_en": "Hongdae Busking Street",
            "spot_tag": "Trainee Memory",
            "description_en": "Pre-debut busking spot",
            "distance_km": 17.1,
            "lat": 37.5563,
            "lng": 126.922
          },
          {
            "name_en": "Gwangjang Market",
            "spot_tag": "Debut Memory",
            "description_en": "2013 debut location",
            "distance_km": 22.9,
            "lat": 37.57,
            "lng": 127.0098
          }
        ],
        "restaurant": [
          {
            "name_en": "La Festa Restaurants",
            "spot_tag": "Dining Hub",
            "description_en": "Restaurant complex",
            "distance_km": 0.4,
            "lat": 37.6575,
            "lng": 126.7705
          },
          {
            "name_en": "Ilsan Food Street",
            "spot_tag": "Local Eats",
            "description_en": "Local food street",
            "distance_km": 0.5,
            "lat": 37.658,
            "lng": 126.772
          },
          {
            "name_en": "Western Dom Food Court",
            "spot_tag": "Food Court",
            "description_en": "Food court",
            "distance_km": 1.3,
            "lat": 37.663,
            "lng": 126.762
          }
        ],
        "cafe": [
          {
            "name_en": "La Festa Cafes",
            "spot_tag": "Trendy Cafe",
            "description_en": "Trendy cafes",
            "distance_km": 0.4,
            "lat": 37.6572,
            "lng": 126.771
          },
          {
            "name_en": "Ilsan Lake Park Cafe Street",
            "spot_tag": "Lake View",
            "description_en": "Scenic cafes",
            "distance_km": 1.2,
            "lat": 37.659,
            "lng": 126.76
          }
        ],
        "hotspot": [
          {
            "name_en": "Ilsan Lake Park",
            "spot_tag": "Must Visit",
            "description_en": "Beautiful lake park",
            "distance_km": 1.2,
            "lat": 37.658,
            "lng": 126.759
          },
          {
            "name_en": "One Mount",
            "spot_tag": "Entertainment",
            "description_en": "Theme park",
            "distance_km": 2.2,
            "lat": 37.665,
            "lng": 126.751
          },
          {
            "name_en": "Starfield Goyang",
            "spot_tag": "Shopping",
            "description_en": "Shopping mall",
            "distance_km": 10.9,
            "lat": 37.645,
            "lng": 126.895
          }
        ]
      },
      "map_detail": {
        "hotel": {
          "name_en": "준 하우스 (외국인 전용)",
          "lat": 37.65392583419696,
          "lng": 126.77216156859522
        },
        "venue": {
          "name_en": "Goyang Stadium",
          "lat": 37.6556,
          "lng": 126.7714
        },
        "nearby_spots": [
          {
            "name_en": "La Festa Restaurants",
            "category": "restaurant",
            "spot_tag": "Dining Hub",
            "lat": 37.6575,
            "lng": 126.7705,
            "distance_km": 0.4
          },
          {
            "name_en": "La Festa Cafes",
            "category": "cafe",
            "spot_tag": "Trendy Cafe",
            "lat": 37.6572,
            "lng": 126.771,
            "distance_km": 0.4
          },
          {
            "name_en": "Ilsan Food Street",
            "category": "restaurant",
            "spot_tag": "Local Eats",
            "lat": 37.658,
            "lng": 126.772,
            "distance_km": 0.5
          },
          {
            "name_en": "Ilsan Lake Park Cafe Street",
            "category": "cafe",
            "spot_tag": "Lake View",
            "lat": 37.659,
            "lng": 126.76,
            "distance_km": 1.2
          },
          {
            "name_en": "Ilsan Lake Park",
            "category": "hotspot",
            "spot_tag": "Must Visit",
            "lat": 37.658,
            "lng": 126.759,
            "distance_km": 1.2
          }
        ]
      },
      "platform": {
        "name": "Booking.com",
        "booking_url": "https://www.booking.comhttps://www.booking.com/hotel/kr/jun-house-busan.ko.html?aid=304142&label=mkt123sc-d3d7030c-9faf-4f56-a1c1-af3bb1917fb7&ucfs=1&arphpl=1&checkin=2026-06-11&checkout=2026-06-13&dest_id=-713900&dest_type=city&group_adults=2&req_adults=2&no_rooms=1&group_children=0&req_children=0&hpos=19&hapos=19&sr_order=price&srpvid=43a8fc8d0c03708f691e244d7d233230&srepoch=1769970425&all_sr_blocks=1022624001_374727880_2_2_0&highlighted_blocks=1022624001_374727880_2_2_0&matching_block_id=1022624001_374727880_2_2_0&sr_pri_blocks=1022624001_374727880_2_2_0__86363636&from=searchresults"
      },
      "booking_guide": {
        "steps_en": [
          "1. Search Goyang hotels",
          "2. Filter by 'Free Cancellation'",
          "3. Select room and enter info",
          "4. Pay online or at property",
          "5. Show confirmation at check-in"
        ],
        "tips_en": [
          "Genius membership for discounts",
          "Free cancellation options"
        ],
        "payment_methods": [
          "Credit Card",
          "Pay at Property"
        ],
        "foreigner_friendly": true
      },
      "last_update": "2026-02-01 18:27:09",
      "nearby": [
        {
          "id": "hotel_94441",
          "name_en": "Shire Hotel Heritage Busan Station",
          "price_krw": 181,
          "distance_km": 0.2,
          "image_url": "https://cf.bstatic.com/xdata/images/hotel/square240/794728611.webp?k=ee35082267610dfec1572d39c2286cad9a3925c74dac5eb09729023263ce7f72&o="
        },
        {
          "id": "hotel_86149",
          "name_en": "해운대비치레스트필드",
          "price_krw": 284,
          "distance_km": 0.2,
          "image_url": "https://cf.bstatic.com/xdata/images/hotel/square240/714841697.webp?k=b45fc80acea227cdc50a82bdad2a1913b7f3f3418663e8a547fc8e7ff5294df2&o="
        },
        {
          "id": "hotel_54306",
          "name_en": "블루모텔",
          "price_krw": 199,
          "distance_km": 0.3,
          "image_url": "https://cf.bstatic.com/xdata/images/hotel/square240/516282052.webp?k=756cb08bd4ab301ae9e0013e0d5e35a917f0179a6d0c78879075e8922a0866a3&o="
        }
      ]
    },
    {
      "id": "hotel_54392",
      "name_en": "혀니네",
      "price_krw": 284,
      "rating": 0,
      "image_url": "https://cf.bstatic.com/xdata/images/hotel/square240/790445736.webp?k=7e5b69183effbd63c5635e060588531f67d108f0ec52b8b9f44c014c46fe3c56&o=",
      "rooms_left": -1,
      "is_available": true,
      "hotel_type": {
        "label_en": "Hotel",
        "color": "#4A90D9"
      },
      "cancellation": {
        "type": "free",
        "label_en": "Free Cancellation",
        "label_kr": "무료 취소",
        "is_refundable": true
      },
      "tags": {
        "list_en": [
          "#FreeCancellation",
          "#ARMYPopular",
          "#WalkToVenue"
        ],
        "list_kr": [
          "#취소가능",
          "#아미인기",
          "#도보가능"
        ],
        "display_en": "#FreeCancellation #ARMYPopular #WalkToVenue",
        "display_kr": "#취소가능 #아미인기 #도보가능"
      },
      "lat": 37.651631690323995,
      "lng": 126.77109356170317,
      "location": {
        "area_en": "Busan",
        "area_kr": "부산",
        "address_en": "Busan, Busan",
        "address_kr": "부산 부산"
      },
      "city_key": "busan",
      "army_density": {
        "value": 65,
        "level_en": "High",
        "level_kr": "높음",
        "label_en": "ARMY 65%",
        "label_kr": "아미 65%"
      },
      "distance": {
        "type": "walk",
        "display_en": "Walk 5min",
        "minutes": 5,
        "distance_km": 0.4
      },
      "transport": {
        "station_en": "Jeongbalsan",
        "line_en": "Line 3",
        "line_color": "#EF7C1C",
        "display_en": "Jeongbalsan (Line 3)"
      },
      "safe_return": {
        "venue_en": "Goyang Stadium",
        "route_en": "Walk from Goyang Stadium → Hotel",
        "transport": "walk",
        "time_min": 5,
        "last_train": "23:50",
        "taxi_krw": 0
      },
      "army_local_guide": {
        "bts": [
          {
            "name_en": "MBC Sangam",
            "spot_tag": "Music Show",
            "description_en": "Music show filming",
            "distance_km": 13.4,
            "lat": 37.5786,
            "lng": 126.8918
          },
          {
            "name_en": "Hongdae Busking Street",
            "spot_tag": "Trainee Memory",
            "description_en": "Pre-debut busking spot",
            "distance_km": 17.0,
            "lat": 37.5563,
            "lng": 126.922
          },
          {
            "name_en": "Gwangjang Market",
            "spot_tag": "Debut Memory",
            "description_en": "2013 debut location",
            "distance_km": 22.9,
            "lat": 37.57,
            "lng": 127.0098
          }
        ],
        "restaurant": [
          {
            "name_en": "Ilsan Food Street",
            "spot_tag": "Local Eats",
            "description_en": "Local food street",
            "distance_km": 0.7,
            "lat": 37.658,
            "lng": 126.772
          },
          {
            "name_en": "La Festa Restaurants",
            "spot_tag": "Dining Hub",
            "description_en": "Restaurant complex",
            "distance_km": 0.7,
            "lat": 37.6575,
            "lng": 126.7705
          },
          {
            "name_en": "Western Dom Food Court",
            "spot_tag": "Food Court",
            "description_en": "Food court",
            "distance_km": 1.5,
            "lat": 37.663,
            "lng": 126.762
          }
        ],
        "cafe": [
          {
            "name_en": "La Festa Cafes",
            "spot_tag": "Trendy Cafe",
            "description_en": "Trendy cafes",
            "distance_km": 0.6,
            "lat": 37.6572,
            "lng": 126.771
          },
          {
            "name_en": "Ilsan Lake Park Cafe Street",
            "spot_tag": "Lake View",
            "description_en": "Scenic cafes",
            "distance_km": 1.3,
            "lat": 37.659,
            "lng": 126.76
          }
        ],
        "hotspot": [
          {
            "name_en": "Ilsan Lake Park",
            "spot_tag": "Must Visit",
            "description_en": "Beautiful lake park",
            "distance_km": 1.3,
            "lat": 37.658,
            "lng": 126.759
          },
          {
            "name_en": "One Mount",
            "spot_tag": "Entertainment",
            "description_en": "Theme park",
            "distance_km": 2.3,
            "lat": 37.665,
            "lng": 126.751
          },
          {
            "name_en": "Starfield Goyang",
            "spot_tag": "Shopping",
            "description_en": "Shopping mall",
            "distance_km": 10.9,
            "lat": 37.645,
            "lng": 126.895
          }
        ]
      },
      "map_detail": {
        "hotel": {
          "name_en": "혀니네",
          "lat": 37.651631690323995,
          "lng": 126.77109356170317
        },
        "venue": {
          "name_en": "Goyang Stadium",
          "lat": 37.6556,
          "lng": 126.7714
        },
        "nearby_spots": [
          {
            "name_en": "La Festa Cafes",
            "category": "cafe",
            "spot_tag": "Trendy Cafe",
            "lat": 37.6572,
            "lng": 126.771,
            "distance_km": 0.6
          },
          {
            "name_en": "Ilsan Food Street",
            "category": "restaurant",
            "spot_tag": "Local Eats",
            "lat": 37.658,
            "lng": 126.772,
            "distance_km": 0.7
          },
          {
            "name_en": "La Festa Restaurants",
            "category": "restaurant",
            "spot_tag": "Dining Hub",
            "lat": 37.6575,
            "lng": 126.7705,
            "distance_km": 0.7
          },
          {
            "name_en": "Ilsan Lake Park Cafe Street",
            "category": "cafe",
            "spot_tag": "Lake View",
            "lat": 37.659,
            "lng": 126.76,
            "distance_km": 1.3
          },
          {
            "name_en": "Ilsan Lake Park",
            "category": "hotspot",
            "spot_tag": "Must Visit",
            "lat": 37.658,
            "lng": 126.759,
            "distance_km": 1.3
          }
        ]
      },
      "platform": {
        "name": "Booking.com",
        "booking_url": "https://www.booking.comhttps://www.booking.com/hotel/kr/hyeonine.ko.html?aid=304142&label=mkt123sc-d3d7030c-9faf-4f56-a1c1-af3bb1917fb7&ucfs=1&arphpl=1&checkin=2026-06-11&checkout=2026-06-13&dest_id=-713900&dest_type=city&group_adults=2&req_adults=2&no_rooms=1&group_children=0&req_children=0&hpos=16&hapos=16&sr_order=price&srpvid=43a8fc8d0c03708f691e244d7d233230&srepoch=1769970425&all_sr_blocks=1513010801_423051437_3_0_0&highlighted_blocks=1513010801_423051437_3_0_0&matching_block_id=1513010801_423051437_3_0_0&sr_pri_blocks=1513010801_423051437_3_0_0__81818000&from=searchresults"
      },
      "booking_guide": {
        "steps_en": [
          "1. Search Goyang hotels",
          "2. Filter by 'Free Cancellation'",
          "3. Select room and enter info",
          "4. Pay online or at property",
          "5. Show confirmation at check-in"
        ],
        "tips_en": [
          "Genius membership for discounts",
          "Free cancellation options"
        ],
        "payment_methods": [
          "Credit Card",
          "Pay at Property"
        ],
        "foreigner_friendly": true
      },
      "last_update": "2026-02-01 18:27:09",
      "nearby": [
        {
          "id": "hotel_68865",
          "name_en": "6번가 스테이",
          "price_krw": 284,
          "distance_km": 0.1,
          "image_url": "https://cf.bstatic.com/xdata/images/hotel/square240/757438729.webp?k=d48acdbd99c7c017e82c0e9741ed45e4c8f205673d2d4a7cc8d0d15af02f2a92&o="
        },
        {
          "id": "hotel_28177",
          "name_en": "Shire Hotel Signature Seomyeon",
          "price_krw": 165,
          "distance_km": 0.2,
          "image_url": "https://cf.bstatic.com/xdata/images/hotel/square240/507241504.webp?k=e453411a45c9e28e83be19585d504d03570933f9393288ac756199d2d43f13d5&o="
        },
        {
          "id": "hotel_62072",
          "name_en": "큐브 호텔",
          "price_krw": 219,
          "distance_km": 0.3,
          "image_url": "https://cf.bstatic.com/xdata/images/hotel/square240/388675442.webp?k=7d78587e6c09b5cf1deaac75d1e3e24354e56ee7c10c352fa622c259dd9b8177&o="
        }
      ]
    },
    {
      "id": "hotel_68865",
      "name_en": "6번가 스테이",
      "price_krw": 284,
      "rating": 4.84,
      "image_url": "https://cf.bstatic.com/xdata/images/hotel/square240/757438729.webp?k=d48acdbd99c7c017e82c0e9741ed45e4c8f205673d2d4a7cc8d0d15af02f2a92&o=",
      "rooms_left": -1,
      "is_available": true,
      "hotel_type": {
        "label_en": "Hotel",
        "color": "#4A90D9"
      },
      "cancellation": {
        "type": "free",
        "label_en": "Free Cancellation",
        "label_kr": "무료 취소",
        "is_refundable": true
      },
      "tags": {
        "list_en": [
          "#FreeCancellation",
          "#ARMYPopular",
          "#WalkToVenue"
        ],
        "list_kr": [
          "#취소가능",
          "#아미인기",
          "#도보가능"
        ],
        "display_en": "#FreeCancellation #ARMYPopular #WalkToVenue",
        "display_kr": "#취소가능 #아미인기 #도보가능"
      },
      "lat": 37.65194961403747,
      "lng": 126.7700944456011,
      "location": {
        "area_en": "Busan",
        "area_kr": "부산",
        "address_en": "Busan, Busan",
        "address_kr": "부산 부산"
      },
      "city_key": "busan",
      "army_density": {
        "value": 65,
        "level_en": "High",
        "level_kr": "높음",
        "label_en": "ARMY 65%",
        "label_kr": "아미 65%"
      },
      "distance": {
        "type": "walk",
        "display_en": "Walk 5min",
        "minutes": 5,
        "distance_km": 0.4
      },
      "transport": {
        "station_en": "Jeongbalsan",
        "line_en": "Line 3",
        "line_color": "#EF7C1C",
        "display_en": "Jeongbalsan (Line 3)"
      },
      "safe_return": {
        "venue_en": "Goyang Stadium",
        "route_en": "Walk from Goyang Stadium → Hotel",
        "transport": "walk",
        "time_min": 5,
        "last_train": "23:50",
        "taxi_krw": 0
      },
      "army_local_guide": {
        "bts": [
          {
            "name_en": "MBC Sangam",
            "spot_tag": "Music Show",
            "description_en": "Music show filming",
            "distance_km": 13.5,
            "lat": 37.5786,
            "lng": 126.8918
          },
          {
            "name_en": "Hongdae Busking Street",
            "spot_tag": "Trainee Memory",
            "description_en": "Pre-debut busking spot",
            "distance_km": 17.1,
            "lat": 37.5563,
            "lng": 126.922
          },
          {
            "name_en": "Gwangjang Market",
            "spot_tag": "Debut Memory",
            "description_en": "2013 debut location",
            "distance_km": 23.0,
            "lat": 37.57,
            "lng": 127.0098
          }
        ],
        "restaurant": [
          {
            "name_en": "La Festa Restaurants",
            "spot_tag": "Dining Hub",
            "description_en": "Restaurant complex",
            "distance_km": 0.6,
            "lat": 37.6575,
            "lng": 126.7705
          },
          {
            "name_en": "Ilsan Food Street",
            "spot_tag": "Local Eats",
            "description_en": "Local food street",
            "distance_km": 0.7,
            "lat": 37.658,
            "lng": 126.772
          },
          {
            "name_en": "Western Dom Food Court",
            "spot_tag": "Food Court",
            "description_en": "Food court",
            "distance_km": 1.4,
            "lat": 37.663,
            "lng": 126.762
          }
        ],
        "cafe": [
          {
            "name_en": "La Festa Cafes",
            "spot_tag": "Trendy Cafe",
            "description_en": "Trendy cafes",
            "distance_km": 0.6,
            "lat": 37.6572,
            "lng": 126.771
          },
          {
            "name_en": "Ilsan Lake Park Cafe Street",
            "spot_tag": "Lake View",
            "description_en": "Scenic cafes",
            "distance_km": 1.2,
            "lat": 37.659,
            "lng": 126.76
          }
        ],
        "hotspot": [
          {
            "name_en": "Ilsan Lake Park",
            "spot_tag": "Must Visit",
            "description_en": "Beautiful lake park",
            "distance_km": 1.2,
            "lat": 37.658,
            "lng": 126.759
          },
          {
            "name_en": "One Mount",
            "spot_tag": "Entertainment",
            "description_en": "Theme park",
            "distance_km": 2.2,
            "lat": 37.665,
            "lng": 126.751
          },
          {
            "name_en": "Starfield Goyang",
            "spot_tag": "Shopping",
            "description_en": "Shopping mall",
            "distance_km": 11.0,
            "lat": 37.645,
            "lng": 126.895
          }
        ]
      },
      "map_detail": {
        "hotel": {
          "name_en": "6번가 스테이",
          "lat": 37.65194961403747,
          "lng": 126.7700944456011
        },
        "venue": {
          "name_en": "Goyang Stadium",
          "lat": 37.6556,
          "lng": 126.7714
        },
        "nearby_spots": [
          {
            "name_en": "La Festa Restaurants",
            "category": "restaurant",
            "spot_tag": "Dining Hub",
            "lat": 37.6575,
            "lng": 126.7705,
            "distance_km": 0.6
          },
          {
            "name_en": "La Festa Cafes",
            "category": "cafe",
            "spot_tag": "Trendy Cafe",
            "lat": 37.6572,
            "lng": 126.771,
            "distance_km": 0.6
          },
          {
            "name_en": "Ilsan Food Street",
            "category": "restaurant",
            "spot_tag": "Local Eats",
            "lat": 37.658,
            "lng": 126.772,
            "distance_km": 0.7
          },
          {
            "name_en": "Ilsan Lake Park Cafe Street",
            "category": "cafe",
            "spot_tag": "Lake View",
            "lat": 37.659,
            "lng": 126.76,
            "distance_km": 1.2
          },
          {
            "name_en": "Ilsan Lake Park",
            "category": "hotspot",
            "spot_tag": "Must Visit",
            "lat": 37.658,
            "lng": 126.759,
            "distance_km": 1.2
          }
        ]
      },
      "platform": {
        "name": "Booking.com",
        "booking_url": "https://www.booking.comhttps://www.booking.com/hotel/kr/6beonga-seutei.ko.html?aid=304142&label=mkt123sc-d3d7030c-9faf-4f56-a1c1-af3bb1917fb7&ucfs=1&arphpl=1&checkin=2026-06-11&checkout=2026-06-13&dest_id=-713900&dest_type=city&group_adults=2&req_adults=2&no_rooms=1&group_children=0&req_children=0&hpos=24&hapos=24&sr_order=price&srpvid=43a8fc8d0c03708f691e244d7d233230&srepoch=1769970425&all_sr_blocks=1503883101_422107495_2_0_0&highlighted_blocks=1503883101_422107495_2_0_0&matching_block_id=1503883101_422107495_2_0_0&sr_pri_blocks=1503883101_422107495_2_0_0__81818182&from=searchresults"
      },
      "booking_guide": {
        "steps_en": [
          "1. Search Goyang hotels",
          "2. Filter by 'Free Cancellation'",
          "3. Select room and enter info",
          "4. Pay online or at property",
          "5. Show confirmation at check-in"
        ],
        "tips_en": [
          "Genius membership for discounts",
          "Free cancellation options"
        ],
        "payment_methods": [
          "Credit Card",
          "Pay at Property"
        ],
        "foreigner_friendly": true
      },
      "last_update": "2026-02-01 18:27:09",
      "nearby": [
        {
          "id": "hotel_28177",
          "name_en": "Shire Hotel Signature Seomyeon",
          "price_krw": 165,
          "distance_km": 0.1,
          "image_url": "https://cf.bstatic.com/xdata/images/hotel/square240/507241504.webp?k=e453411a45c9e28e83be19585d504d03570933f9393288ac756199d2d43f13d5&o="
        },
        {
          "id": "hotel_54392",
          "name_en": "혀니네",
          "price_krw": 284,
          "distance_km": 0.1,
          "image_url": "https://cf.bstatic.com/xdata/images/hotel/square240/790445736.webp?k=7e5b69183effbd63c5635e060588531f67d108f0ec52b8b9f44c014c46fe3c56&o="
        },
        {
          "id": "hotel_62072",
          "name_en": "큐브 호텔",
          "price_krw": 219,
          "distance_km": 0.3,
          "image_url": "https://cf.bstatic.com/xdata/images/hotel/square240/388675442.webp?k=7d78587e6c09b5cf1deaac75d1e3e24354e56ee7c10c352fa622c259dd9b8177&o="
        }
      ]
    },
    {
      "id": "hotel_93550",
      "name_en": "동아대병원#부산역#남포동 SYJM Dong-A",
      "price_krw": 147,
      "rating": 0,
      "image_url": "https://cf.bstatic.com/xdata/images/hotel/square240/681767446.webp?k=ca99f144995914a4b92a32c3105c3e69f20630a80f324839f89ca109c2bc87e5&o=",
      "rooms_left": -1,
      "is_available": true,
      "hotel_type": {
        "label_en": "Hotel",
        "color": "#4A90D9"
      },
      "cancellation": {
        "type": "free",
        "label_en": "Free Cancellation",
        "label_kr": "무료 취소",
        "is_refundable": true
      },
      "tags": {
        "list_en": [
          "#FreeCancellation",
          "#ARMYPopular",
          "#WalkToVenue"
        ],
        "list_kr": [
          "#취소가능",
          "#아미인기",
          "#도보가능"
        ],
        "display_en": "#FreeCancellation #ARMYPopular #WalkToVenue",
        "display_kr": "#취소가능 #아미인기 #도보가능"
      },
      "lat": 37.66006335044219,
      "lng": 126.77223567290187,
      "location": {
        "area_en": "Busan",
        "area_kr": "부산",
        "address_en": "Busan, Busan",
        "address_kr": "부산 부산"
      },
      "city_key": "busan",
      "army_density": {
        "value": 65,
        "level_en": "High",
        "level_kr": "높음",
        "label_en": "ARMY 65%",
        "label_kr": "아미 65%"
      },
      "distance": {
        "type": "walk",
        "display_en": "Walk 6min",
        "minutes": 6,
        "distance_km": 0.5
      },
      "transport": {
        "station_en": "Jeongbalsan",
        "line_en": "Line 3",
        "line_color": "#EF7C1C",
        "display_en": "Jeongbalsan (Line 3)"
      },
      "safe_return": {
        "venue_en": "Goyang Stadium",
        "route_en": "Walk from Goyang Stadium → Hotel",
        "transport": "walk",
        "time_min": 6,
        "last_train": "23:50",
        "taxi_krw": 0
      },
      "army_local_guide": {
        "bts": [
          {
            "name_en": "MBC Sangam",
            "spot_tag": "Music Show",
            "description_en": "Music show filming",
            "distance_km": 13.9,
            "lat": 37.5786,
            "lng": 126.8918
          },
          {
            "name_en": "Hongdae Busking Street",
            "spot_tag": "Trainee Memory",
            "description_en": "Pre-debut busking spot",
            "distance_km": 17.5,
            "lat": 37.5563,
            "lng": 126.922
          },
          {
            "name_en": "Gwangjang Market",
            "spot_tag": "Debut Memory",
            "description_en": "2013 debut location",
            "distance_km": 23.2,
            "lat": 37.57,
            "lng": 127.0098
          }
        ],
        "restaurant": [
          {
            "name_en": "Ilsan Food Street",
            "spot_tag": "Local Eats",
            "description_en": "Local food street",
            "distance_km": 0.2,
            "lat": 37.658,
            "lng": 126.772
          },
          {
            "name_en": "La Festa Restaurants",
            "spot_tag": "Dining Hub",
            "description_en": "Restaurant complex",
            "distance_km": 0.3,
            "lat": 37.6575,
            "lng": 126.7705
          },
          {
            "name_en": "Western Dom Food Court",
            "spot_tag": "Food Court",
            "description_en": "Food court",
            "distance_km": 1.0,
            "lat": 37.663,
            "lng": 126.762
          }
        ],
        "cafe": [
          {
            "name_en": "La Festa Cafes",
            "spot_tag": "Trendy Cafe",
            "description_en": "Trendy cafes",
            "distance_km": 0.3,
            "lat": 37.6572,
            "lng": 126.771
          },
          {
            "name_en": "Ilsan Lake Park Cafe Street",
            "spot_tag": "Lake View",
            "description_en": "Scenic cafes",
            "distance_km": 1.1,
            "lat": 37.659,
            "lng": 126.76
          }
        ],
        "hotspot": [
          {
            "name_en": "Ilsan Lake Park",
            "spot_tag": "Must Visit",
            "description_en": "Beautiful lake park",
            "distance_km": 1.2,
            "lat": 37.658,
            "lng": 126.759
          },
          {
            "name_en": "One Mount",
            "spot_tag": "Entertainment",
            "description_en": "Theme park",
            "distance_km": 1.9,
            "lat": 37.665,
            "lng": 126.751
          },
          {
            "name_en": "Starfield Goyang",
            "spot_tag": "Shopping",
            "description_en": "Shopping mall",
            "distance_km": 10.9,
            "lat": 37.645,
            "lng": 126.895
          }
        ]
      },
      "map_detail": {
        "hotel": {
          "name_en": "동아대병원#부산역#남포동 SYJM Dong-A",
          "lat": 37.66006335044219,
          "lng": 126.77223567290187
        },
        "venue": {
          "name_en": "Goyang Stadium",
          "lat": 37.6556,
          "lng": 126.7714
        },
        "nearby_spots": [
          {
            "name_en": "Ilsan Food Street",
            "category": "restaurant",
            "spot_tag": "Local Eats",
            "lat": 37.658,
            "lng": 126.772,
            "distance_km": 0.2
          },
          {
            "name_en": "La Festa Restaurants",
            "category": "restaurant",
            "spot_tag": "Dining Hub",
            "lat": 37.6575,
            "lng": 126.7705,
            "distance_km": 0.3
          },
          {
            "name_en": "La Festa Cafes",
            "category": "cafe",
            "spot_tag": "Trendy Cafe",
            "lat": 37.6572,
            "lng": 126.771,
            "distance_km": 0.3
          },
          {
            "name_en": "Western Dom Food Court",
            "category": "restaurant",
            "spot_tag": "Food Court",
            "lat": 37.663,
            "lng": 126.762,
            "distance_km": 1.0
          },
          {
            "name_en": "Ilsan Lake Park Cafe Street",
            "category": "cafe",
            "spot_tag": "Lake View",
            "lat": 37.659,
            "lng": 126.76,
            "distance_km": 1.1
          }
        ]
      },
      "platform": {
        "name": "Booking.com",
        "booking_url": "https://www.booking.comhttps://www.booking.com/hotel/kr/syjm-donga-1st.ko.html?aid=304142&label=mkt123sc-d3d7030c-9faf-4f56-a1c1-af3bb1917fb7&ucfs=1&arphpl=1&checkin=2026-06-11&checkout=2026-06-13&dest_id=-713900&dest_type=city&group_adults=2&req_adults=2&no_rooms=1&group_children=0&req_children=0&hpos=2&hapos=2&sr_order=price&srpvid=43a8fc8d0c03708f691e244d7d233230&srepoch=1769970425&all_sr_blocks=1412910401_413033726_2_0_0&highlighted_blocks=1412910401_413033726_2_0_0&matching_block_id=1412910401_413033726_2_0_0&sr_pri_blocks=1412910401_413033726_2_0_0__42327273&from=searchresults"
      },
      "booking_guide": {
        "steps_en": [
          "1. Search Goyang hotels",
          "2. Filter by 'Free Cancellation'",
          "3. Select room and enter info",
          "4. Pay online or at property",
          "5. Show confirmation at check-in"
        ],
        "tips_en": [
          "Genius membership for discounts",
          "Free cancellation options"
        ],
        "payment_methods": [
          "Credit Card",
          "Pay at Property"
        ],
        "foreigner_friendly": true
      },
      "last_update": "2026-02-01 18:27:09",
      "nearby": [
        {
          "id": "hotel_54306",
          "name_en": "블루모텔",
          "price_krw": 199,
          "distance_km": 0.4,
          "image_url": "https://cf.bstatic.com/xdata/images/hotel/square240/516282052.webp?k=756cb08bd4ab301ae9e0013e0d5e35a917f0179a6d0c78879075e8922a0866a3&o="
        },
        {
          "id": "hotel_55431",
          "name_en": "Hotel ARA - Busan Haeundae",
          "price_krw": 289,
          "distance_km": 0.4,
          "image_url": "https://cf.bstatic.com/xdata/images/hotel/square240/804376168.webp?k=f890fab984240155e6eba215912a796567301922a960463f01db50711e594996&o="
        },
        {
          "id": "hotel_94441",
          "name_en": "Shire Hotel Heritage Busan Station",
          "price_krw": 181,
          "distance_km": 0.5,
          "image_url": "https://cf.bstatic.com/xdata/images/hotel/square240/794728611.webp?k=ee35082267610dfec1572d39c2286cad9a3925c74dac5eb09729023263ce7f72&o="
        }
      ]
    },
    {
      "id": "hotel_28177",
      "name_en": "Shire Hotel Signature Seomyeon",
      "price_krw": 165,
      "rating": 8.28,
      "image_url": "https://cf.bstatic.com/xdata/images/hotel/square240/507241504.webp?k=e453411a45c9e28e83be19585d504d03570933f9393288ac756199d2d43f13d5&o=",
      "rooms_left": -1,
      "is_available": true,
      "hotel_type": {
        "label_en": "Hotel",
        "color": "#4A90D9"
      },
      "cancellation": {
        "type": "free",
        "label_en": "Free Cancellation",
        "label_kr": "무료 취소",
        "is_refundable": true
      },
      "tags": {
        "list_en": [
          "#FreeCancellation",
          "#ARMYPopular",
          "#WalkToVenue"
        ],
        "list_kr": [
          "#취소가능",
          "#아미인기",
          "#도보가능"
        ],
        "display_en": "#FreeCancellation #ARMYPopular #WalkToVenue",
        "display_kr": "#취소가능 #아미인기 #도보가능"
      },
      "lat": 37.6511342971728,
      "lng": 126.76876779437009,
      "location": {
        "area_en": "Busan",
        "area_kr": "부산",
        "address_en": "Busan, Busan",
        "address_kr": "부산 부산"
      },
      "city_key": "busan",
      "army_density": {
        "value": 65,
        "level_en": "High",
        "level_kr": "높음",
        "label_en": "ARMY 65%",
        "label_kr": "아미 65%"
      },
      "distance": {
        "type": "walk",
        "display_en": "Walk 6min",
        "minutes": 6,
        "distance_km": 0.5
      },
      "transport": {
        "station_en": "Jeongbalsan",
        "line_en": "Line 3",
        "line_color": "#EF7C1C",
        "display_en": "Jeongbalsan (Line 3)"
      },
      "safe_return": {
        "venue_en": "Goyang Stadium",
        "route_en": "Walk from Goyang Stadium → Hotel",
        "transport": "walk",
        "time_min": 6,
        "last_train": "23:50",
        "taxi_krw": 0
      },
      "army_local_guide": {
        "bts": [
          {
            "name_en": "MBC Sangam",
            "spot_tag": "Music Show",
            "description_en": "Music show filming",
            "distance_km": 13.5,
            "lat": 37.5786,
            "lng": 126.8918
          },
          {
            "name_en": "Hongdae Busking Street",
            "spot_tag": "Trainee Memory",
            "description_en": "Pre-debut busking spot",
            "distance_km": 17.1,
            "lat": 37.5563,
            "lng": 126.922
          },
          {
            "name_en": "Gwangjang Market",
            "spot_tag": "Debut Memory",
            "description_en": "2013 debut location",
            "distance_km": 23.1,
            "lat": 37.57,
            "lng": 127.0098
          }
        ],
        "restaurant": [
          {
            "name_en": "La Festa Restaurants",
            "spot_tag": "Dining Hub",
            "description_en": "Restaurant complex",
            "distance_km": 0.7,
            "lat": 37.6575,
            "lng": 126.7705
          },
          {
            "name_en": "Ilsan Food Street",
            "spot_tag": "Local Eats",
            "description_en": "Local food street",
            "distance_km": 0.8,
            "lat": 37.658,
            "lng": 126.772
          },
          {
            "name_en": "Western Dom Food Court",
            "spot_tag": "Food Court",
            "description_en": "Food court",
            "distance_km": 1.4,
            "lat": 37.663,
            "lng": 126.762
          }
        ],
        "cafe": [
          {
            "name_en": "La Festa Cafes",
            "spot_tag": "Trendy Cafe",
            "description_en": "Trendy cafes",
            "distance_km": 0.7,
            "lat": 37.6572,
            "lng": 126.771
          },
          {
            "name_en": "Ilsan Lake Park Cafe Street",
            "spot_tag": "Lake View",
            "description_en": "Scenic cafes",
            "distance_km": 1.2,
            "lat": 37.659,
            "lng": 126.76
          }
        ],
        "hotspot": [
          {
            "name_en": "Ilsan Lake Park",
            "spot_tag": "Must Visit",
            "description_en": "Beautiful lake park",
            "distance_km": 1.1,
            "lat": 37.658,
            "lng": 126.759
          },
          {
            "name_en": "One Mount",
            "spot_tag": "Entertainment",
            "description_en": "Theme park",
            "distance_km": 2.2,
            "lat": 37.665,
            "lng": 126.751
          },
          {
            "name_en": "Starfield Goyang",
            "spot_tag": "Shopping",
            "description_en": "Shopping mall",
            "distance_km": 11.1,
            "lat": 37.645,
            "lng": 126.895
          }
        ]
      },
      "map_detail": {
        "hotel": {
          "name_en": "Shire Hotel Signature Seomyeon",
          "lat": 37.6511342971728,
          "lng": 126.76876779437009
        },
        "venue": {
          "name_en": "Goyang Stadium",
          "lat": 37.6556,
          "lng": 126.7714
        },
        "nearby_spots": [
          {
            "name_en": "La Festa Restaurants",
            "category": "restaurant",
            "spot_tag": "Dining Hub",
            "lat": 37.6575,
            "lng": 126.7705,
            "distance_km": 0.7
          },
          {
            "name_en": "La Festa Cafes",
            "category": "cafe",
            "spot_tag": "Trendy Cafe",
            "lat": 37.6572,
            "lng": 126.771,
            "distance_km": 0.7
          },
          {
            "name_en": "Ilsan Food Street",
            "category": "restaurant",
            "spot_tag": "Local Eats",
            "lat": 37.658,
            "lng": 126.772,
            "distance_km": 0.8
          },
          {
            "name_en": "Ilsan Lake Park",
            "category": "hotspot",
            "spot_tag": "Must Visit",
            "lat": 37.658,
            "lng": 126.759,
            "distance_km": 1.1
          },
          {
            "name_en": "Ilsan Lake Park Cafe Street",
            "category": "cafe",
            "spot_tag": "Lake View",
            "lat": 37.659,
            "lng": 126.76,
            "distance_km": 1.2
          }
        ]
      },
      "platform": {
        "name": "Booking.com",
        "booking_url": "https://www.booking.comhttps://www.booking.com/hotel/kr/syaieohotel-seomyeon-busan1.ko.html?aid=304142&label=mkt123sc-d3d7030c-9faf-4f56-a1c1-af3bb1917fb7&ucfs=1&arphpl=1&checkin=2026-06-11&checkout=2026-06-13&dest_id=-713900&dest_type=city&group_adults=2&req_adults=2&no_rooms=1&group_children=0&req_children=0&hpos=4&hapos=4&sr_order=price&srpvid=43a8fc8d0c03708f691e244d7d233230&srepoch=1769970425&all_sr_blocks=0_0_2_0_0&highlighted_blocks=0_0_2_0_0&matching_block_id=0_0_2_0_0&sr_pri_blocks=0_0_2_0_0__51775375&from=searchresults"
      },
      "booking_guide": {
        "steps_en": [
          "1. Search Goyang hotels",
          "2. Filter by 'Free Cancellation'",
          "3. Select room and enter info",
          "4. Pay online or at property",
          "5. Show confirmation at check-in"
        ],
        "tips_en": [
          "Genius membership for discounts",
          "Free cancellation options"
        ],
        "payment_methods": [
          "Credit Card",
          "Pay at Property"
        ],
        "foreigner_friendly": true
      },
      "last_update": "2026-02-01 18:27:09",
      "nearby": [
        {
          "id": "hotel_68865",
          "name_en": "6번가 스테이",
          "price_krw": 284,
          "distance_km": 0.1,
          "image_url": "https://cf.bstatic.com/xdata/images/hotel/square240/757438729.webp?k=d48acdbd99c7c017e82c0e9741ed45e4c8f205673d2d4a7cc8d0d15af02f2a92&o="
        },
        {
          "id": "hotel_54392",
          "name_en": "혀니네",
          "price_krw": 284,
          "distance_km": 0.2,
          "image_url": "https://cf.bstatic.com/xdata/images/hotel/square240/790445736.webp?k=7e5b69183effbd63c5635e060588531f67d108f0ec52b8b9f44c014c46fe3c56&o="
        },
        {
          "id": "hotel_73285",
          "name_en": "브라운도트 사직야구장점",
          "price_krw": 316,
          "distance_km": 0.2,
          "image_url": "https://cf.bstatic.com/xdata/images/hotel/square240/492464654.webp?k=e359fb011886d823e0b4d030f29020deb12a77c186c54d7dc0d26b930caf7f7d&o="
        }
      ]
    },
    {
      "id": "hotel_85644",
      "name_en": "부산 송정 스테이",
      "price_krw": 253,
      "rating": 4.04,
      "image_url": "https://cf.bstatic.com/xdata/images/hotel/square240/738687419.webp?k=e8003c974a6757eb70b30d97c0ee2c6742f050d80ee75489d38db3c0ef4f31a7&o=",
      "rooms_left": -1,
      "is_available": true,
      "hotel_type": {
        "label_en": "Hotel",
        "color": "#4A90D9"
      },
      "cancellation": {
        "type": "free",
        "label_en": "Free Cancellation",
        "label_kr": "무료 취소",
        "is_refundable": true
      },
      "tags": {
        "list_en": [
          "#FreeCancellation",
          "#ARMYPopular",
          "#WalkToVenue"
        ],
        "list_kr": [
          "#취소가능",
          "#아미인기",
          "#도보가능"
        ],
        "display_en": "#FreeCancellation #ARMYPopular #WalkToVenue",
        "display_kr": "#취소가능 #아미인기 #도보가능"
      },
      "lat": 37.65266998436424,
      "lng": 126.7663754468882,
      "location": {
        "area_en": "Busan",
        "area_kr": "부산",
        "address_en": "Busan, Busan",
        "address_kr": "부산 부산"
      },
      "city_key": "busan",
      "army_density": {
        "value": 65,
        "level_en": "High",
        "level_kr": "높음",
        "label_en": "ARMY 65%",
        "label_kr": "아미 65%"
      },
      "distance": {
        "type": "walk",
        "display_en": "Walk 6min",
        "minutes": 6,
        "distance_km": 0.5
      },
      "transport": {
        "station_en": "Jeongbalsan",
        "line_en": "Line 3",
        "line_color": "#EF7C1C",
        "display_en": "Jeongbalsan (Line 3)"
      },
      "safe_return": {
        "venue_en": "Goyang Stadium",
        "route_en": "Walk from Goyang Stadium → Hotel",
        "transport": "walk",
        "time_min": 6,
        "last_train": "23:50",
        "taxi_krw": 0
      },
      "army_local_guide": {
        "bts": [
          {
            "name_en": "MBC Sangam",
            "spot_tag": "Music Show",
            "description_en": "Music show filming",
            "distance_km": 13.8,
            "lat": 37.5786,
            "lng": 126.8918
          },
          {
            "name_en": "Hongdae Busking Street",
            "spot_tag": "Trainee Memory",
            "description_en": "Pre-debut busking spot",
            "distance_km": 17.4,
            "lat": 37.5563,
            "lng": 126.922
          },
          {
            "name_en": "Gwangjang Market",
            "spot_tag": "Debut Memory",
            "description_en": "2013 debut location",
            "distance_km": 23.3,
            "lat": 37.57,
            "lng": 127.0098
          }
        ],
        "restaurant": [
          {
            "name_en": "La Festa Restaurants",
            "spot_tag": "Dining Hub",
            "description_en": "Restaurant complex",
            "distance_km": 0.6,
            "lat": 37.6575,
            "lng": 126.7705
          },
          {
            "name_en": "Ilsan Food Street",
            "spot_tag": "Local Eats",
            "description_en": "Local food street",
            "distance_km": 0.8,
            "lat": 37.658,
            "lng": 126.772
          },
          {
            "name_en": "Western Dom Food Court",
            "spot_tag": "Food Court",
            "description_en": "Food court",
            "distance_km": 1.2,
            "lat": 37.663,
            "lng": 126.762
          }
        ],
        "cafe": [
          {
            "name_en": "La Festa Cafes",
            "spot_tag": "Trendy Cafe",
            "description_en": "Trendy cafes",
            "distance_km": 0.6,
            "lat": 37.6572,
            "lng": 126.771
          },
          {
            "name_en": "Ilsan Lake Park Cafe Street",
            "spot_tag": "Lake View",
            "description_en": "Scenic cafes",
            "distance_km": 0.9,
            "lat": 37.659,
            "lng": 126.76
          }
        ],
        "hotspot": [
          {
            "name_en": "Ilsan Lake Park",
            "spot_tag": "Must Visit",
            "description_en": "Beautiful lake park",
            "distance_km": 0.9,
            "lat": 37.658,
            "lng": 126.759
          },
          {
            "name_en": "One Mount",
            "spot_tag": "Entertainment",
            "description_en": "Theme park",
            "distance_km": 1.9,
            "lat": 37.665,
            "lng": 126.751
          },
          {
            "name_en": "Starfield Goyang",
            "spot_tag": "Shopping",
            "description_en": "Shopping mall",
            "distance_km": 11.4,
            "lat": 37.645,
            "lng": 126.895
          }
        ]
      },
      "map_detail": {
        "hotel": {
          "name_en": "부산 송정 스테이",
          "lat": 37.65266998436424,
          "lng": 126.7663754468882
        },
        "venue": {
          "name_en": "Goyang Stadium",
          "lat": 37.6556,
          "lng": 126.7714
        },
        "nearby_spots": [
          {
            "name_en": "La Festa Restaurants",
            "category": "restaurant",
            "spot_tag": "Dining Hub",
            "lat": 37.6575,
            "lng": 126.7705,
            "distance_km": 0.6
          },
          {
            "name_en": "La Festa Cafes",
            "category": "cafe",
            "spot_tag": "Trendy Cafe",
            "lat": 37.6572,
            "lng": 126.771,
            "distance_km": 0.6
          },
          {
            "name_en": "Ilsan Food Street",
            "category": "restaurant",
            "spot_tag": "Local Eats",
            "lat": 37.658,
            "lng": 126.772,
            "distance_km": 0.8
          },
          {
            "name_en": "Ilsan Lake Park Cafe Street",
            "category": "cafe",
            "spot_tag": "Lake View",
            "lat": 37.659,
            "lng": 126.76,
            "distance_km": 0.9
          },
          {
            "name_en": "Ilsan Lake Park",
            "category": "hotspot",
            "spot_tag": "Must Visit",
            "lat": 37.658,
            "lng": 126.759,
            "distance_km": 0.9
          }
        ]
      },
      "platform": {
        "name": "Booking.com",
        "booking_url": "https://www.booking.comhttps://www.booking.com/hotel/kr/busan-songjeongseutei.ko.html?aid=304142&label=mkt123sc-d3d7030c-9faf-4f56-a1c1-af3bb1917fb7&ucfs=1&arphpl=1&checkin=2026-06-11&checkout=2026-06-13&dest_id=-713900&dest_type=city&group_adults=2&req_adults=2&no_rooms=1&group_children=0&req_children=0&hpos=10&hapos=10&sr_order=price&srpvid=43a8fc8d0c03708f691e244d7d233230&srepoch=1769970425&all_sr_blocks=1484237301_420018216_2_0_0&highlighted_blocks=1484237301_420018216_2_0_0&matching_block_id=1484237301_420018216_2_0_0&sr_pri_blocks=1484237301_420018216_2_0_0__72727273&from=searchresults"
      },
      "booking_guide": {
        "steps_en": [
          "1. Search Goyang hotels",
          "2. Filter by 'Free Cancellation'",
          "3. Select room and enter info",
          "4. Pay online or at property",
          "5. Show confirmation at check-in"
        ],
        "tips_en": [
          "Genius membership for discounts",
          "Free cancellation options"
        ],
        "payment_methods": [
          "Credit Card",
          "Pay at Property"
        ],
        "foreigner_friendly": true
      },
      "last_update": "2026-02-01 18:27:09",
      "nearby": [
        {
          "id": "hotel_73285",
          "name_en": "브라운도트 사직야구장점",
          "price_krw": 316,
          "distance_km": 0.1,
          "image_url": "https://cf.bstatic.com/xdata/images/hotel/square240/492464654.webp?k=e359fb011886d823e0b4d030f29020deb12a77c186c54d7dc0d26b930caf7f7d&o="
        },
        {
          "id": "hotel_28177",
          "name_en": "Shire Hotel Signature Seomyeon",
          "price_krw": 165,
          "distance_km": 0.3,
          "image_url": "https://cf.bstatic.com/xdata/images/hotel/square240/507241504.webp?k=e453411a45c9e28e83be19585d504d03570933f9393288ac756199d2d43f13d5&o="
        },
        {
          "id": "hotel_68865",
          "name_en": "6번가 스테이",
          "price_krw": 284,
          "distance_km": 0.3,
          "image_url": "https://cf.bstatic.com/xdata/images/hotel/square240/757438729.webp?k=d48acdbd99c7c017e82c0e9741ed45e4c8f205673d2d4a7cc8d0d15af02f2a92&o="
        }
      ]
    },
    {
      "id": "hotel_73285",
      "name_en": "브라운도트 사직야구장점",
      "price_krw": 316,
      "rating": 8.38,
      "image_url": "https://cf.bstatic.com/xdata/images/hotel/square240/492464654.webp?k=e359fb011886d823e0b4d030f29020deb12a77c186c54d7dc0d26b930caf7f7d&o=",
      "rooms_left": -1,
      "is_available": true,
      "hotel_type": {
        "label_en": "Hotel",
        "color": "#4A90D9"
      },
      "cancellation": {
        "type": "free",
        "label_en": "Free Cancellation",
        "label_kr": "무료 취소",
        "is_refundable": true
      },
      "tags": {
        "list_en": [
          "#FreeCancellation",
          "#ARMYPopular",
          "#WalkToVenue"
        ],
        "list_kr": [
          "#취소가능",
          "#아미인기",
          "#도보가능"
        ],
        "display_en": "#FreeCancellation #ARMYPopular #WalkToVenue",
        "display_kr": "#취소가능 #아미인기 #도보가능"
      },
      "lat": 37.65169725055951,
      "lng": 126.76637174464275,
      "location": {
        "area_en": "Busan",
        "area_kr": "부산",
        "address_en": "Busan, Busan",
        "address_kr": "부산 부산"
      },
      "city_key": "busan",
      "army_density": {
        "value": 65,
        "level_en": "High",
        "level_kr": "높음",
        "label_en": "ARMY 65%",
        "label_kr": "아미 65%"
      },
      "distance": {
        "type": "walk",
        "display_en": "Walk 7min",
        "minutes": 7,
        "distance_km": 0.6
      },
      "transport": {
        "station_en": "Jeongbalsan",
        "line_en": "Line 3",
        "line_color": "#EF7C1C",
        "display_en": "Jeongbalsan (Line 3)"
      },
      "safe_return": {
        "venue_en": "Goyang Stadium",
        "route_en": "Walk from Goyang Stadium → Hotel",
        "transport": "walk",
        "time_min": 7,
        "last_train": "23:50",
        "taxi_krw": 0
      },
      "army_local_guide": {
        "bts": [
          {
            "name_en": "MBC Sangam",
            "spot_tag": "Music Show",
            "description_en": "Music show filming",
            "distance_km": 13.7,
            "lat": 37.5786,
            "lng": 126.8918
          },
          {
            "name_en": "Hongdae Busking Street",
            "spot_tag": "Trainee Memory",
            "description_en": "Pre-debut busking spot",
            "distance_km": 17.3,
            "lat": 37.5563,
            "lng": 126.922
          },
          {
            "name_en": "Gwangjang Market",
            "spot_tag": "Debut Memory",
            "description_en": "2013 debut location",
            "distance_km": 23.3,
            "lat": 37.57,
            "lng": 127.0098
          }
        ],
        "restaurant": [
          {
            "name_en": "La Festa Restaurants",
            "spot_tag": "Dining Hub",
            "description_en": "Restaurant complex",
            "distance_km": 0.7,
            "lat": 37.6575,
            "lng": 126.7705
          },
          {
            "name_en": "Ilsan Food Street",
            "spot_tag": "Local Eats",
            "description_en": "Local food street",
            "distance_km": 0.9,
            "lat": 37.658,
            "lng": 126.772
          },
          {
            "name_en": "Western Dom Food Court",
            "spot_tag": "Food Court",
            "description_en": "Food court",
            "distance_km": 1.3,
            "lat": 37.663,
            "lng": 126.762
          }
        ],
        "cafe": [
          {
            "name_en": "La Festa Cafes",
            "spot_tag": "Trendy Cafe",
            "description_en": "Trendy cafes",
            "distance_km": 0.7,
            "lat": 37.6572,
            "lng": 126.771
          },
          {
            "name_en": "Ilsan Lake Park Cafe Street",
            "spot_tag": "Lake View",
            "description_en": "Scenic cafes",
            "distance_km": 1.0,
            "lat": 37.659,
            "lng": 126.76
          }
        ],
        "hotspot": [
          {
            "name_en": "Ilsan Lake Park",
            "spot_tag": "Must Visit",
            "description_en": "Beautiful lake park",
            "distance_km": 1.0,
            "lat": 37.658,
            "lng": 126.759
          },
          {
            "name_en": "One Mount",
            "spot_tag": "Entertainment",
            "description_en": "Theme park",
            "distance_km": 2.0,
            "lat": 37.665,
            "lng": 126.751
          },
          {
            "name_en": "Starfield Goyang",
            "spot_tag": "Shopping",
            "description_en": "Shopping mall",
            "distance_km": 11.3,
            "lat": 37.645,
            "lng": 126.895
          }
        ]
      },
      "map_detail": {
        "hotel": {
          "name_en": "브라운도트 사직야구장점",
          "lat": 37.65169725055951,
          "lng": 126.76637174464275
        },
        "venue": {
          "name_en": "Goyang Stadium",
          "lat": 37.6556,
          "lng": 126.7714
        },
        "nearby_spots": [
          {
            "name_en": "La Festa Restaurants",
            "category": "restaurant",
            "spot_tag": "Dining Hub",
            "lat": 37.6575,
            "lng": 126.7705,
            "distance_km": 0.7
          },
          {
            "name_en": "La Festa Cafes",
            "category": "cafe",
            "spot_tag": "Trendy Cafe",
            "lat": 37.6572,
            "lng": 126.771,
            "distance_km": 0.7
          },
          {
            "name_en": "Ilsan Food Street",
            "category": "restaurant",
            "spot_tag": "Local Eats",
            "lat": 37.658,
            "lng": 126.772,
            "distance_km": 0.9
          },
          {
            "name_en": "Ilsan Lake Park Cafe Street",
            "category": "cafe",
            "spot_tag": "Lake View",
            "lat": 37.659,
            "lng": 126.76,
            "distance_km": 1.0
          },
          {
            "name_en": "Ilsan Lake Park",
            "category": "hotspot",
            "spot_tag": "Must Visit",
            "lat": 37.658,
            "lng": 126.759,
            "distance_km": 1.0
          }
        ]
      },
      "platform": {
        "name": "Booking.com",
        "booking_url": "https://www.booking.comhttps://www.booking.com/hotel/kr/beuraundoteu-sajigyagujangjeom-busan.ko.html?aid=304142&label=mkt123sc-d3d7030c-9faf-4f56-a1c1-af3bb1917fb7&ucfs=1&arphpl=1&checkin=2026-06-11&checkout=2026-06-13&dest_id=-713900&dest_type=city&group_adults=2&req_adults=2&no_rooms=1&group_children=0&req_children=0&hpos=23&hapos=23&sr_order=price&srpvid=43a8fc8d0c03708f691e244d7d233230&srepoch=1769970425&all_sr_blocks=1077140002_380302109_2_1_0&highlighted_blocks=1077140002_380302109_2_1_0&matching_block_id=1077140002_380302109_2_1_0&sr_pri_blocks=1077140002_380302109_2_1_0__90909091&from=searchresults"
      },
      "booking_guide": {
        "steps_en": [
          "1. Search Goyang hotels",
          "2. Filter by 'Free Cancellation'",
          "3. Select room and enter info",
          "4. Pay online or at property",
          "5. Show confirmation at check-in"
        ],
        "tips_en": [
          "Genius membership for discounts",
          "Free cancellation options"
        ],
        "payment_methods": [
          "Credit Card",
          "Pay at Property"
        ],
        "foreigner_friendly": true
      },
      "last_update": "2026-02-01 18:27:09",
      "nearby": [
        {
          "id": "hotel_85644",
          "name_en": "부산 송정 스테이",
          "price_krw": 253,
          "distance_km": 0.1,
          "image_url": "https://cf.bstatic.com/xdata/images/hotel/square240/738687419.webp?k=e8003c974a6757eb70b30d97c0ee2c6742f050d80ee75489d38db3c0ef4f31a7&o="
        },
        {
          "id": "hotel_28177",
          "name_en": "Shire Hotel Signature Seomyeon",
          "price_krw": 165,
          "distance_km": 0.2,
          "image_url": "https://cf.bstatic.com/xdata/images/hotel/square240/507241504.webp?k=e453411a45c9e28e83be19585d504d03570933f9393288ac756199d2d43f13d5&o="
        },
        {
          "id": "hotel_68865",
          "name_en": "6번가 스테이",
          "price_krw": 284,
          "distance_km": 0.3,
          "image_url": "https://cf.bstatic.com/xdata/images/hotel/square240/757438729.webp?k=d48acdbd99c7c017e82c0e9741ed45e4c8f205673d2d4a7cc8d0d15af02f2a92&o="
        }
      ]
    },
    {
      "id": "hotel_62072",
      "name_en": "큐브 호텔",
      "price_krw": 219,
      "rating": 0,
      "image_url": "https://cf.bstatic.com/xdata/images/hotel/square240/388675442.webp?k=7d78587e6c09b5cf1deaac75d1e3e24354e56ee7c10c352fa622c259dd9b8177&o=",
      "rooms_left": -1,
      "is_available": true,
      "hotel_type": {
        "label_en": "Hotel",
        "color": "#4A90D9"
      },
      "cancellation": {
        "type": "free",
        "label_en": "Free Cancellation",
        "label_kr": "무료 취소",
        "is_refundable": true
      },
      "tags": {
        "list_en": [
          "#FreeCancellation",
          "#ARMYPopular",
          "#WalkToVenue"
        ],
        "list_kr": [
          "#취소가능",
          "#아미인기",
          "#도보가능"
        ],
        "display_en": "#FreeCancellation #ARMYPopular #WalkToVenue",
        "display_kr": "#취소가능 #아미인기 #도보가능"
      },
      "lat": 37.6495264858863,
      "lng": 126.7725196521248,
      "location": {
        "area_en": "Busan",
        "area_kr": "부산",
        "address_en": "Busan, Busan",
        "address_kr": "부산 부산"
      },
      "city_key": "busan",
      "army_density": {
        "value": 65,
        "level_en": "High",
        "level_kr": "높음",
        "label_en": "ARMY 65%",
        "label_kr": "아미 65%"
      },
      "distance": {
        "type": "walk",
        "display_en": "Walk 8min",
        "minutes": 8,
        "distance_km": 0.7
      },
      "transport": {
        "station_en": "Jeongbalsan",
        "line_en": "Line 3",
        "line_color": "#EF7C1C",
        "display_en": "Jeongbalsan (Line 3)"
      },
      "safe_return": {
        "venue_en": "Goyang Stadium",
        "route_en": "Walk from Goyang Stadium → Hotel",
        "transport": "walk",
        "time_min": 8,
        "last_train": "23:50",
        "taxi_krw": 0
      },
      "army_local_guide": {
        "bts": [
          {
            "name_en": "MBC Sangam",
            "spot_tag": "Music Show",
            "description_en": "Music show filming",
            "distance_km": 13.1,
            "lat": 37.5786,
            "lng": 126.8918
          },
          {
            "name_en": "Hongdae Busking Street",
            "spot_tag": "Trainee Memory",
            "description_en": "Pre-debut busking spot",
            "distance_km": 16.8,
            "lat": 37.5563,
            "lng": 126.922
          },
          {
            "name_en": "Gwangjang Market",
            "spot_tag": "Debut Memory",
            "description_en": "2013 debut location",
            "distance_km": 22.7,
            "lat": 37.57,
            "lng": 127.0098
          }
        ],
        "restaurant": [
          {
            "name_en": "Ilsan Food Street",
            "spot_tag": "Local Eats",
            "description_en": "Local food street",
            "distance_km": 0.9,
            "lat": 37.658,
            "lng": 126.772
          },
          {
            "name_en": "La Festa Restaurants",
            "spot_tag": "Dining Hub",
            "description_en": "Restaurant complex",
            "distance_km": 0.9,
            "lat": 37.6575,
            "lng": 126.7705
          },
          {
            "name_en": "Western Dom Food Court",
            "spot_tag": "Food Court",
            "description_en": "Food court",
            "distance_km": 1.8,
            "lat": 37.663,
            "lng": 126.762
          }
        ],
        "cafe": [
          {
            "name_en": "La Festa Cafes",
            "spot_tag": "Trendy Cafe",
            "description_en": "Trendy cafes",
            "distance_km": 0.9,
            "lat": 37.6572,
            "lng": 126.771
          },
          {
            "name_en": "Ilsan Lake Park Cafe Street",
            "spot_tag": "Lake View",
            "description_en": "Scenic cafes",
            "distance_km": 1.5,
            "lat": 37.659,
            "lng": 126.76
          }
        ],
        "hotspot": [
          {
            "name_en": "Ilsan Lake Park",
            "spot_tag": "Must Visit",
            "description_en": "Beautiful lake park",
            "distance_km": 1.5,
            "lat": 37.658,
            "lng": 126.759
          },
          {
            "name_en": "One Mount",
            "spot_tag": "Entertainment",
            "description_en": "Theme park",
            "distance_km": 2.6,
            "lat": 37.665,
            "lng": 126.751
          },
          {
            "name_en": "Starfield Goyang",
            "spot_tag": "Shopping",
            "description_en": "Shopping mall",
            "distance_km": 10.8,
            "lat": 37.645,
            "lng": 126.895
          }
        ]
      },
      "map_detail": {
        "hotel": {
          "name_en": "큐브 호텔",
          "lat": 37.6495264858863,
          "lng": 126.7725196521248
        },
        "venue": {
          "name_en": "Goyang Stadium",
          "lat": 37.6556,
          "lng": 126.7714
        },
        "nearby_spots": [
          {
            "name_en": "Ilsan Food Street",
            "category": "restaurant",
            "spot_tag": "Local Eats",
            "lat": 37.658,
            "lng": 126.772,
            "distance_km": 0.9
          },
          {
            "name_en": "La Festa Restaurants",
            "category": "restaurant",
            "spot_tag": "Dining Hub",
            "lat": 37.6575,
            "lng": 126.7705,
            "distance_km": 0.9
          },
          {
            "name_en": "La Festa Cafes",
            "category": "cafe",
            "spot_tag": "Trendy Cafe",
            "lat": 37.6572,
            "lng": 126.771,
            "distance_km": 0.9
          },
          {
            "name_en": "Ilsan Lake Park Cafe Street",
            "category": "cafe",
            "spot_tag": "Lake View",
            "lat": 37.659,
            "lng": 126.76,
            "distance_km": 1.5
          },
          {
            "name_en": "Ilsan Lake Park",
            "category": "hotspot",
            "spot_tag": "Must Visit",
            "lat": 37.658,
            "lng": 126.759,
            "distance_km": 1.5
          }
        ]
      },
      "platform": {
        "name": "Booking.com",
        "booking_url": "https://www.booking.comhttps://www.booking.com/hotel/kr/cube-busan-gwangyeogsi.ko.html?aid=304142&label=mkt123sc-d3d7030c-9faf-4f56-a1c1-af3bb1917fb7&ucfs=1&arphpl=1&checkin=2026-06-11&checkout=2026-06-13&dest_id=-713900&dest_type=city&group_adults=2&req_adults=2&no_rooms=1&group_children=0&req_children=0&hpos=7&hapos=7&sr_order=price&srpvid=43a8fc8d0c03708f691e244d7d233230&srepoch=1769970425&all_sr_blocks=900057002_0_2_0_0&highlighted_blocks=900057002_0_2_0_0&matching_block_id=900057002_0_2_0_0&sr_pri_blocks=900057002_0_2_0_0__63086214&from=searchresults"
      },
      "booking_guide": {
        "steps_en": [
          "1. Search Goyang hotels",
          "2. Filter by 'Free Cancellation'",
          "3. Select room and enter info",
          "4. Pay online or at property",
          "5. Show confirmation at check-in"
        ],
        "tips_en": [
          "Genius membership for discounts",
          "Free cancellation options"
        ],
        "payment_methods": [
          "Credit Card",
          "Pay at Property"
        ],
        "foreigner_friendly": true
      },
      "last_update": "2026-02-01 18:27:09",
      "nearby": [
        {
          "id": "hotel_34635",
          "name_en": "몰디브 호텔&호스텔",
          "price_krw": 316,
          "distance_km": 0.2,
          "image_url": "https://cf.bstatic.com/xdata/images/hotel/square240/487528930.webp?k=011892e317cd15f15d3ac5c72457f8b48e01c696ed01b3a20e1db23406bf21a7&o="
        },
        {
          "id": "hotel_32986",
          "name_en": "명지 오션시티 호텔",
          "price_krw": 229,
          "distance_km": 0.3,
          "image_url": "https://cf.bstatic.com/xdata/images/hotel/square240/399973827.webp?k=8cfc39e578ac1a13a22c7a82ea5b7f045baa7b4e740e6ca7aec390b2495e5573&o="
        },
        {
          "id": "hotel_54392",
          "name_en": "혀니네",
          "price_krw": 284,
          "distance_km": 0.3,
          "image_url": "https://cf.bstatic.com/xdata/images/hotel/square240/790445736.webp?k=7e5b69183effbd63c5635e060588531f67d108f0ec52b8b9f44c014c46fe3c56&o="
        }
      ]
    },
    {
      "id": "hotel_97915",
      "name_en": "남포 MGM 호텔",
      "price_krw": 256,
      "rating": 5.05,
      "image_url": "https://cf.bstatic.com/xdata/images/hotel/square240/794884669.webp?k=55aa4c37b6e099504c02a7adfd27f13bfedc314fdabe89210e23da5fde79b798&o=",
      "rooms_left": -1,
      "is_available": true,
      "hotel_type": {
        "label_en": "Hotel",
        "color": "#4A90D9"
      },
      "cancellation": {
        "type": "free",
        "label_en": "Free Cancellation",
        "label_kr": "무료 취소",
        "is_refundable": true
      },