{
  "home": {
    "venue": {
      "name_en": "Goyang Stadium",
      "name_kr": "고양종합운동장",
      "lat": 37.6556,
      "lng": 126.7714
    },
    "available_count": 25,
    "total_count": 25,
    "lowest_price_krw": 126,
    "last_update": "2026-02-01 19:20:48"
  },
  "map": {
    "venue": {
      "name_en": "Goyang Stadium",
      "lat": 37.6556,
      "lng": 126.7714,
      "type": "venue"
    },
    "local_spots": [
      {
        "name_en": "HYBE INSIGHT",
        "category": "bts",
        "spot_tag": "BTS Museum",
        "lat": 37.526,
        "lng": 127.0405
      },
      {
        "name_en": "HYBE Headquarters",
        "category": "bts",
        "spot_tag": "BTS Home",
        "lat": 37.528,
        "lng": 127.04
      },
      {
        "name_en": "Hongdae Busking Street",
        "category": "bts",
        "spot_tag": "Trainee Memory",
        "lat": 37.5563,
        "lng": 126.922
      },
      {
        "name_en": "MBC Sangam",
        "category": "bts",
        "spot_tag": "Music Show",
        "lat": 37.5786,
        "lng": 126.8918
      },
      {
        "name_en": "Gwangjang Market",
        "category": "bts",
        "spot_tag": "Debut Memory",
        "lat": 37.57,
        "lng": 127.0098
      },
      {
        "name_en": "Ilsan Food Street",
        "category": "restaurant",
        "spot_tag": "Local Eats",
        "lat": 37.658,
        "lng": 126.772
      },
      {
        "name_en": "La Festa Restaurants",
        "category": "restaurant",
        "spot_tag": "Dining Hub",
        "lat": 37.6575,
        "lng": 126.7705
      },
      {
        "name_en": "Western Dom Food Court",
        "category": "restaurant",
        "spot_tag": "Food Court",
        "lat": 37.663,
        "lng": 126.762
      },
      {
        "name_en": "Ilsan Lake Park Cafe Street",
        "category": "cafe",
        "spot_tag": "Lake View",
        "lat": 37.659,
        "lng": 126.76
      },
      {
        "name_en": "La Festa Cafes",
        "category": "cafe",
        "spot_tag": "Trendy Cafe",
        "lat": 37.6572,
        "lng": 126.771
      },
      {
        "name_en": "Ilsan Lake Park",
        "category": "hotspot",
        "spot_tag": "Must Visit",
        "lat": 37.658,
        "lng": 126.759
      },
      {
        "name_en": "One Mount",
        "category": "hotspot",
        "spot_tag": "Entertainment",
        "lat": 37.665,
        "lng": 126.751
      },
      {
        "name_en": "Starfield Goyang",
        "category": "hotspot",
        "spot_tag": "Shopping",
        "lat": 37.645,
        "lng": 126.895
      }
    ],
    "hotels": [
      {
        "id": "hotel_37404",
        "name_en": "동아대병원#부산역#남포동 SYJM Dong-A",
        "lat": 37.65663076095539,
        "lng": 126.7718650943732,
        "price_krw": 147
      },
      {
        "id": "hotel_62348",
        "name_en": "Busan Gwangalli Nuri Hotel",
        "lat": 37.65370970953464,
        "lng": 126.77062750661402,
        "price_krw": 279
      },
      {
        "id": "hotel_80780",
        "name_en": "BT호텔",
        "lat": 37.656319334625096,
        "lng": 126.76864861657901,
        "price_krw": 156
      },
      {
        "id": "hotel_59291",
        "name_en": "부산 송정 스테이",
        "lat": 37.65346546599435,
        "lng": 126.77405876817136,
        "price_krw": 253
      },
      {
        "id": "hotel_76474",
        "name_en": "준 하우스 (외국인 전용)",
        "lat": 37.65320193561588,
        "lng": 126.77404418165337,
        "price_krw": 300
      },
      {
        "id": "hotel_83094",
        "name_en": "엘모멘토 오시리아",
        "lat": 37.65727286387567,
        "lng": 126.76746968647842,
        "price_krw": 318
      },
      {
        "id": "hotel_01962",
        "name_en": "Shire Hotel Signature Seomyeon",
        "lat": 37.65398801886381,
        "lng": 126.76641406672383,
        "price_krw": 196
      },
      {
        "id": "hotel_92639",
        "name_en": "큐브 호텔",
        "lat": 37.659598612407606,
        "lng": 126.77510466632133,
        "price_krw": 237
      },
      {
        "id": "hotel_05671",
        "name_en": "혀니네",
        "lat": 37.65811441312211,
        "lng": 126.77717655180012,
        "price_krw": 270
      },
      {
        "id": "hotel_86089",
        "name_en": "엘모멘토 송도",
        "lat": 37.6598169033397,
        "lng": 126.77537984587732,
        "price_krw": 272
      },
      {
        "id": "hotel_84317",
        "name_en": "몰디브 호텔&호스텔",
        "lat": 37.65963034162232,
        "lng": 126.77570617619365,
        "price_krw": 316
      },
      {
        "id": "hotel_53644",
        "name_en": "블루모텔",
        "lat": 37.65574101365056,
        "lng": 126.77958505526419,
        "price_krw": 199
      },
      {
        "id": "hotel_07300",
        "name_en": "모닝광안리201호 바닷가30초 감성낭만숙소",
        "lat": 37.6491189976722,
        "lng": 126.77374119925949,
        "price_krw": 253
      },
      {
        "id": "hotel_82634",
        "name_en": "기장 하운드호텔 일광점",
        "lat": 37.662138206576046,
        "lng": 126.77211782211991,
        "price_krw": 300
      },
      {
        "id": "hotel_28121",
        "name_en": "하이루프33 레지던스",
        "lat": 37.659219920037195,
        "lng": 126.77771937749007,
        "price_krw": 303
      },
      {
        "id": "hotel_21785",
        "name_en": "Hotel ARA - Busan Haeundae",
        "lat": 37.655050481738606,
        "lng": 126.77998828212024,
        "price_krw": 316
      },
      {
        "id": "hotel_75226",
        "name_en": "하이루프33 Guest House",
        "lat": 37.64775591898042,
        "lng": 126.77125773625365,
        "price_krw": 126
      },
      {
        "id": "hotel_40449",
        "name_en": "남포 MGM 호텔",
        "lat": 37.65493461902029,
        "lng": 126.78132218760584,
        "price_krw": 256
      },
      {
        "id": "hotel_42287",
        "name_en": "6번가 스테이",
        "lat": 37.663206901195366,
        "lng": 126.77282867327175,
        "price_krw": 284
      },
      {
        "id": "hotel_70513",
        "name_en": "Shire Hotel Heritage Busan Station",
        "lat": 37.64822037719967,
        "lng": 126.77749217863163,
        "price_krw": 224
      },
      {
        "id": "hotel_57090",
        "name_en": "명지 오션시티 호텔",
        "lat": 37.6489108314929,
        "lng": 126.76305518436875,
        "price_krw": 229
      },
      {
        "id": "hotel_75421",
        "name_en": "해운대비치레스트필드",
        "lat": 37.646325765138116,
        "lng": 126.77525706409,
        "price_krw": 255
      },
      {
        "id": "hotel_02984",
        "name_en": "호텔야자 사상터미널점",
        "lat": 37.646359366715,
        "lng": 126.77892658521961,
        "price_krw": 306
      },
      {
        "id": "hotel_02046",
        "name_en": "호텔 모먼트 송정",
        "lat": 37.646809685434754,
        "lng": 126.78075730877924,
        "price_krw": 237
      },
      {
        "id": "hotel_22430",
        "name_en": "브라운도트 사직야구장점",
        "lat": 37.64578721423327,
        "lng": 126.77986156907939,
        "price_krw": 316
      }
    ]
  },
  "hotels": [
    {
  "id": "hotel_gw_0005",
  "name_en": "Shilla Stay Gwanghwamun",
  "city_key": "seoul",
  "location": { "area_en": "Gwanghwamun", "area_kr": "광화문" },
  "hotel_type": { "label_en": "Hotel", "color": "#CD7F32" },
  "notes": "광화문 중심 비즈니스 호텔",
  "tags": { "list_en": ["#Gwanghwamun"], "list_kr": ["#광화문"], "display_en": "#Gwanghwamun", "display_kr": "#광화문" },
  "price_krw": null,
  "rating": null,
  "image_url": "",
  "rooms_left": -1,
  "is_available": true,
  "lat": null,
  "lng": null,
  "coords": { "lat": null, "lng": null }
},
{
  "id": "hotel_gw_0006",
  "name_en": "Four Seasons Hotel Seoul",
  "city_key": "seoul",
  "location": { "area_en": "Gwanghwamun", "area_kr": "광화문" },
  "hotel_type": { "label_en": "Hotel", "color": "#CD7F32" },
  "notes": "광화문 최고급 럭셔리 호텔",
  "tags": { "list_en": ["#Gwanghwamun"], "list_kr": ["#광화문"], "display_en": "#Gwanghwamun", "display_kr": "#광화문" },
  "price_krw": null,
  "rating": null,
  "image_url": "",
  "rooms_left": -1,
  "is_available": true,
  "lat": null,
  "lng": null,
  "coords": { "lat": null, "lng": null }
},
{
  "id": "hotel_gw_0007",
  "name_en": "Somerset Palace Seoul",
  "city_key": "seoul",
  "location": { "area_en": "Jongno", "area_kr": "종로" },
  "hotel_type": { "label_en": "Serviced Residence", "color": "#6B7280" },
  "notes": "가족/장기체류 적합",
  "tags": { "list_en": ["#Jongno"], "list_kr": ["#종로"], "display_en": "#Jongno", "display_kr": "#종로" },
  "price_krw": null,
  "rating": null,
  "image_url": "",
  "rooms_left": -1,
  "is_available": true,
  "lat": null,
  "lng": null,
  "coords": { "lat": null, "lng": null }
},
{
  "id": "hotel_gw_0008",
  "name_en": "Nine Tree by Parnas Seoul Insadong",
  "city_key": "seoul",
  "location": { "area_en": "Insadong", "area_kr": "인사동" },
  "hotel_type": { "label_en": "Hotel", "color": "#CD7F32" },
  "notes": "인사동 도보권",
  "tags": { "list_en": ["#Insadong"], "list_kr": ["#인사동"], "display_en": "#Insadong", "display_kr": "#인사동" },
  "price_krw": null,
  "rating": null,
  "image_url": "",
  "rooms_left": -1,
  "is_available": true,
  "lat": null,
  "lng": null,
  "coords": { "lat": null, "lng": null }
},
{
  "id": "hotel_gw_0009",
  "name_en": "Hotel Sunbee Insadong",
  "city_key": "seoul",
  "location": { "area_en": "Insadong", "area_kr": "인사동" },
  "hotel_type": { "label_en": "Hotel", "color": "#CD7F32" },
  "notes": "인사동 가성비 호텔",
  "tags": { "list_en": ["#Insadong"], "list_kr": ["#인사동"], "display_en": "#Insadong", "display_kr": "#인사동" },
  "price_krw": null,
  "rating": null,
  "image_url": "",
  "rooms_left": -1,
  "is_available": true,
  "lat": null,
  "lng": null,
  "coords": { "lat": null, "lng": null }
},
{
  "id": "hotel_gw_0010",
  "name_en": "AMID Hotel Seoul",
  "city_key": "seoul",
  "location": { "area_en": "Jongno", "area_kr": "종로" },
  "hotel_type": { "label_en": "Hotel", "color": "#CD7F32" },
  "notes": "종로 중심",
  "tags": { "list_en": ["#Jongno"], "list_kr": ["#종로"], "display_en": "#Jongno", "display_kr": "#종로" },
  "price_krw": null,
  "rating": null,
  "image_url": "",
  "rooms_left": -1,
  "is_available": true,
  "lat": null,
  "lng": null,
  "coords": { "lat": null, "lng": null }
},
{
  "id": "hotel_gw_0011",
  "name_en": "Dormy Inn EXPRESS Seoul Insadong",
  "city_key": "seoul",
  "location": { "area_en": "Insadong", "area_kr": "인사동" },
  "hotel_type": { "label_en": "Hotel", "color": "#CD7F32" },
  "notes": "대욕장 보유",
  "tags": { "list_en": ["#Insadong"], "list_kr": ["#인사동"], "display_en": "#Insadong", "display_kr": "#인사동" },
  "price_krw": null,
  "rating": null,
  "image_url": "",
  "rooms_left": -1,
  "is_available": true,
  "lat": null,
  "lng": null,
  "coords": { "lat": null, "lng": null }
},
{
  "id": "hotel_gw_0012",
  "name_en": "Koreana Hotel",
  "city_key": "seoul",
  "location": { "area_en": "Gwanghwamun", "area_kr": "광화문" },
  "hotel_type": { "label_en": "Hotel", "color": "#CD7F32" },
  "notes": "광화문 비즈니스 호텔",
  "tags": { "list_en": ["#Gwanghwamun"], "list_kr": ["#광화문"], "display_en": "#Gwanghwamun", "display_kr": "#광화문" },
  "price_krw": null,
  "rating": null,
  "image_url": "",
  "rooms_left": -1,
  "is_available": true,
  "lat": null,
  "lng": null,
  "coords": { "lat": null, "lng": null }
},
{
  "id": "hotel_gw_0013",
  "name_en": "Hotel President",
  "city_key": "seoul",
  "location": { "area_en": "Gwanghwamun", "area_kr": "광화문" },
  "hotel_type": { "label_en": "Hotel", "color": "#CD7F32" },
  "notes": "광화문/시청 인접",
  "tags": { "list_en": ["#Gwanghwamun"], "list_kr": ["#광화문"], "display_en": "#Gwanghwamun", "display_kr": "#광화문" },
  "price_krw": null,
  "rating": null,
  "image_url": "",
  "rooms_left": -1,
  "is_available": true,
  "lat": null,
  "lng": null,
  "coords": { "lat": null, "lng": null }
},
{
  "id": "hotel_gw_0014",
  "name_en": "The Prima Hotel Jongno",
  "city_key": "seoul",
  "location": { "area_en": "Jongno", "area_kr": "종로" },
  "hotel_type": { "label_en": "Hotel", "color": "#CD7F32" },
  "notes": "종로 메인 호텔",
  "tags": { "list_en": ["#Jongno"], "list_kr": ["#종로"], "display_en": "#Jongno", "display_kr": "#종로" },
  "price_krw": null,
  "rating": null,
  "image_url": "",
  "rooms_left": -1,
  "is_available": true,
  "lat": null,
  "lng": null,
  "coords": { "lat": null, "lng": null }
},
{
  "id": "hotel_gw_0015",
  "name_en": "Orakai Insadong Suites",
  "city_key": "seoul",
  "location": { "area_en": "Insadong", "area_kr": "인사동" },
  "hotel_type": { "label_en": "Serviced Residence", "color": "#6B7280" },
  "notes": "레지던스형",
  "tags": { "list_en": ["#Insadong"], "list_kr": ["#인사동"], "display_en": "#Insadong", "display_kr": "#인사동" },
  "price_krw": null,
  "rating": null,
  "image_url": "",
  "rooms_left": -1,
  "is_available": true,
  "lat": null,
  "lng": null,
  "coords": { "lat": null, "lng": null }
},
{
  "id": "hotel_gw_0016",
  "name_en": "Grid Inn Hotel",
  "city_key": "seoul",
  "location": { "area_en": "Jongno", "area_kr": "종로" },
  "hotel_type": { "label_en": "Hotel", "color": "#CD7F32" },
  "notes": "평점 높은 중소형 호텔",
  "tags": { "list_en": ["#Jongno"], "list_kr": ["#종로"], "display_en": "#Jongno", "display_kr": "#종로" },
  "price_krw": null,
  "rating": null,
  "image_url": "",
  "rooms_left": -1,
  "is_available": true,
  "lat": null,
  "lng": null,
  "coords": { "lat": null, "lng": null }
},
{
  "id": "hotel_gw_0017",
  "name_en": "Hotel Venue Gwanghwamun",
  "city_key": "seoul",
  "location": { "area_en": "Gwanghwamun", "area_kr": "광화문" },
  "hotel_type": { "label_en": "Hotel", "color": "#CD7F32" },
  "notes": "광화문 접근성 우수",
  "tags": { "list_en": ["#Gwanghwamun"], "list_kr": ["#광화문"], "display_en": "#Gwanghwamun", "display_kr": "#광화문" },
  "price_krw": null,
  "rating": null,
  "image_url": "",
  "rooms_left": -1,
  "is_available": true,
  "lat": null,
  "lng": null,
  "coords": { "lat": null, "lng": null }
},
{
  "id": "hotel_gw_0018",
  "name_en": "ibis Ambassador Seoul Insadong",
  "city_key": "seoul",
  "location": { "area_en": "Insadong", "area_kr": "인사동" },
  "hotel_type": { "label_en": "Hotel", "color": "#CD7F32" },
  "notes": "글로벌 체인 가성비",
  "tags": { "list_en": ["#Insadong"], "list_kr": ["#인사동"], "display_en": "#Insadong", "display_kr": "#인사동" },
  "price_krw": null,
  "rating": null,
  "image_url": "",
  "rooms_left": -1,
  "is_available": true,
  "lat": null,
  "lng": null,
  "coords": { "lat": null, "lng": null }
},
{
  "id": "hotel_gw_0019",
  "name_en": "Nostalgia Hanok Hotel",
  "city_key": "seoul",
  "location": { "area_en": "Jongno", "area_kr": "종로" },
  "hotel_type": { "label_en": "Hanok Hotel", "color": "#8B5E3C" },
  "notes": "한옥 스타일",
  "tags": { "list_en": ["#Jongno", "#Hanok"], "list_kr": ["#종로", "#한옥"], "display_en": "#Hanok", "display_kr": "#한옥" },
  "price_krw": null,
  "rating": null,
  "image_url": "",
  "rooms_left": -1,
  "is_available": true,
  "lat": null,
  "lng": null,
  "coords": { "lat": null, "lng": null }
},
{
  "id": "hotel_gw_0020",
  "name_en": "Hanok Hotel Daam Seoul",
  "city_key": "seoul",
  "location": { "area_en": "Jongno", "area_kr": "종로" },
  "hotel_type": { "label_en": "Hanok Hotel", "color": "#8B5E3C" },
  "notes": "전통 한옥 숙소",
  "tags": { "list_en": ["#Jongno", "#Hanok"], "list_kr": ["#종로", "#한옥"], "display_en": "#Hanok", "display_kr": "#한옥" },
  "price_krw": null,
  "rating": null,
  "image_url": "",
  "rooms_left": -1,
  "is_available": true,
  "lat": null,
  "lng": null,
  "coords": { "lat": null, "lng": null }
},
{
  "id": "hotel_gw_0021",
  "name_en": "Aank Hotel & Spa Jongno",
  "city_key": "seoul",
  "location": { "area_en": "Jongno", "area_kr": "종로" },
  "hotel_type": { "label_en": "Hotel", "color": "#CD7F32" },
  "notes": "스파형 호텔",
  "tags": { "list_en": ["#Jongno"], "list_kr": ["#종로"], "display_en": "#Jongno", "display_kr": "#종로" },
  "price_krw": null,
  "rating": null,
  "image_url": "",
  "rooms_left": -1,
  "is_available": true,
  "lat": null,
  "lng": null,
  "coords": { "lat": null, "lng": null }
},
{
  "id": "hotel_gw_0022",
  "name_en": "New Seoul Hotel",
  "city_key": "seoul",
  "location": { "area_en": "Myeongdong", "area_kr": "명동" },
  "hotel_type": { "label_en": "Hotel", "color": "#CD7F32" },
  "notes": "광화문 도보 가능",
  "tags": { "list_en": ["#Myeongdong"], "list_kr": ["#명동"], "display_en": "#Myeongdong", "display_kr": "#명동" },
  "price_krw": null,
  "rating": null,
  "image_url": "",
  "rooms_left": -1,
  "is_available": true,
  "lat": null,
  "lng": null,
  "coords": { "lat": null, "lng": null }
},
{
  "id": "hotel_gw_0023",
  "name_en": "Hotel Midcity Myeongdong",
  "city_key": "seoul",
  "location": { "area_en": "Myeongdong", "area_kr": "명동" },
  "hotel_type": { "label_en": "Hotel", "color": "#CD7F32" },
  "notes": "명동/광화문 중간",
  "tags": { "list_en": ["#Myeongdong"], "list_kr": ["#명동"], "display_en": "#Myeongdong", "display_kr": "#명동" },
  "price_krw": null,
  "rating": null,
  "image_url": "",
  "rooms_left": -1,
  "is_available": true,
  "lat": null,
  "lng": null,
  "coords": { "lat": null, "lng": null }
},
{
  "id": "hotel_gw_0024",
  "name_en": "Top Hotel & Residence",
  "city_key": "seoul",
  "location": { "area_en": "Jongno", "area_kr": "종로" },
  "hotel_type": { "label_en": "Residence", "color": "#87CEEB" },
  "notes": "레지던스형",
  "tags": { "list_en": ["#Jongno"], "list_kr": ["#종로"], "display_en": "#Jongno", "display_kr": "#종로" },
  "price_krw": null,
  "rating": null,
  "image_url": "",
  "rooms_left": -1,
  "is_available": true,
  "lat": null,
  "lng": null,
  "coords": { "lat": null, "lng": null }
},
{
  "id": "hotel_gw_0025",
  "name_en": "Noble Hotel",
  "city_key": "seoul",
  "location": { "area_en": "Jongno", "area_kr": "종로" },
  "hotel_type": { "label_en": "Hotel", "color": "#CD7F32" },
  "notes": "종로 가성비",
  "tags": { "list_en": ["#Jongno"], "list_kr": ["#종로"], "display_en": "#Jongno", "display_kr": "#종로" },
  "price_krw": null,
  "rating": null,
  "image_url": "",
  "rooms_left": -1,
  "is_available": true,
  "lat": null,
  "lng": null,
  "coords": { "lat": null, "lng": null }
},
{
  "id": "hotel_gw_0026",
  "name_en": "Stay In Jongno",
  "city_key": "seoul",
  "location": { "area_en": "Jongno", "area_kr": "종로" },
  "hotel_type": { "label_en": "Guesthouse", "color": "#22C55E" },
  "notes": "게스트하우스",
  "tags": { "list_en": ["#Jongno"], "list_kr": ["#종로"], "display_en": "#Jongno", "display_kr": "#종로" },
  "price_krw": null,
  "rating": null,
  "image_url": "",
  "rooms_left": -1,
  "is_available": true,
  "lat": null,
  "lng": null,
  "coords": { "lat": null, "lng": null }
},
{
  "id": "hotel_gw_0027",
  "name_en": "Soo Song Guesthouse",
  "city_key": "seoul",
  "location": { "area_en": "Jongno", "area_kr": "종로" },
  "hotel_type": { "label_en": "Guesthouse", "color": "#22C55E" },
  "notes": "저예산 숙소",
  "tags": { "list_en": ["#Jongno"], "list_kr": ["#종로"], "display_en": "#Jongno", "display_kr": "#종로" },
  "price_krw": null,
  "rating": null,
  "image_url": "",
  "rooms_left": -1,
  "is_available": true,
  "lat": null,
  "lng": null,
  "coords": { "lat": null, "lng": null }
},
{
  "id": "hotel_gw_0028",
  "name_en": "Beewon Guest House",
  "city_key": "seoul",
  "location": { "area_en": "Jongno", "area_kr": "종로" },
  "hotel_type": { "label_en": "Guesthouse", "color": "#22C55E" },
  "notes": "외국인 이용 많음",
  "tags": { "list_en": ["#Jongno"], "list_kr": ["#종로"], "display_en": "#Jongno", "display_kr": "#종로" },
  "price_krw": null,
  "rating": null,
  "image_url": "",
  "rooms_left": -1,
  "is_available": true,
  "lat": null,
  "lng": null,
  "coords": { "lat": null, "lng": null }
},
{
  "id": "hotel_gw_0029",
  "name_en": "Hostel Chloe",
  "city_key": "seoul",
  "location": { "area_en": "Jongno", "area_kr": "종로" },
  "hotel_type": { "label_en": "Hostel", "color": "#A855F7" },
  "notes": "호스텔",
  "tags": { "list_en": ["#Jongno"], "list_kr": ["#종로"], "display_en": "#Jongno", "display_kr": "#종로" },
  "price_krw": null,
  "rating": null,
  "image_url": "",
  "rooms_left": -1,
  "is_available": true,
  "lat": null,
  "lng": null,
  "coords": { "lat": null, "lng": null }
},
{
  "id": "hotel_gw_0030",
  "name_en": "Saewha Hostel",
  "city_key": "seoul",
  "location": { "area_en": "Jongno", "area_kr": "종로" },
  "hotel_type": { "label_en": "Hostel", "color": "#A855F7" },
  "notes": "초저가",
  "tags": { "list_en": ["#Jongno"], "list_kr": ["#종로"], "display_en": "#Jongno", "display_kr": "#종로" },
  "price_krw": null,
  "rating": null,
  "image_url": "",
  "rooms_left": -1,
  "is_available": true,
  "lat": null,
  "lng": null,
  "coords": { "lat": null, "lng": null }
},
{
  "id": "hotel_gw_0031",
  "name_en": "Hostel Tommy",
  "city_key": "seoul",
  "location": { "area_en": "Jongno", "area_kr": "종로" },
  "hotel_type": { "label_en": "Hostel", "color": "#A855F7" },
  "notes": "백패커용",
  "tags": { "list_en": ["#Jongno"], "list_kr": ["#종로"], "display_en": "#Jongno", "display_kr": "#종로" },
  "price_krw": null,
  "rating": null,
  "image_url": "",
  "rooms_left": -1,
  "is_available": true,
  "lat": null,
  "lng": null,
  "coords": { "lat": null, "lng": null }
},
    {
      "id": "hotel_37404",
      "name_en": "동아대병원#부산역#남포동 SYJM Dong-A",
      "price_krw": 147,
      "rating": 0,
      "image_url": "https://cf.bstatic.com/xdata/images/hotel/square240/681767446.webp?k=ca99f144995914a4b92a32c3105c3e69f20630a80f324839f89ca109c2bc87e5&o=",
      "rooms_left": -1,
      "is_available": true,
      "hotel_type": {
        "label_en": "Hotel",
        "color": "#4A90D9"
      },
      "cancellation": {
        "type": "free",
        "label_en": "Free Cancellation",
        "label_kr": "무료 취소",
        "is_refundable": true
      },
      "tags": {
        "list_en": [
          "#FreeCancellation",
          "#ARMYPopular",
          "#WalkToVenue"
        ],
        "list_kr": [
          "#취소가능",
          "#아미인기",
          "#도보가능"
        ],
        "display_en": "#FreeCancellation #ARMYPopular #WalkToVenue",
        "display_kr": "#취소가능 #아미인기 #도보가능"
      },
      "lat": 37.65663076095539,
      "lng": 126.7718650943732,
      "location": {
        "area_en": "Busan",
        "area_kr": "부산",
        "address_en": "Busan, Busan",
        "address_kr": "부산 부산"
      },
      "city_key": "busan",
      "army_density": {
        "value": 65,
        "level_en": "High",
        "level_kr": "높음",
        "label_en": "ARMY 65%",
        "label_kr": "아미 65%"
      },
      "distance": {
        "type": "walk",
        "display_en": "Walk 1min",
        "minutes": 1,
        "distance_km": 0.1
      },
      "transport": {
        "station_en": "Jeongbalsan",
        "line_en": "Line 3",
        "line_color": "#EF7C1C",
        "display_en": "Jeongbalsan (Line 3)"
      },
      "safe_return": {
        "venue_en": "Goyang Stadium",
        "route_en": "Walk from Goyang Stadium → Hotel",
        "transport": "walk",
        "time_min": 1,
        "last_train": "23:50",
        "taxi_krw": 0
      },
      "army_local_guide": {
        "bts": [
          {
            "name_en": "MBC Sangam",
            "spot_tag": "Music Show",
            "description_en": "Music show filming",
            "distance_km": 13.7,
            "lat": 37.5786,
            "lng": 126.8918
          },
          {
            "name_en": "Hongdae Busking Street",
            "spot_tag": "Trainee Memory",
            "description_en": "Pre-debut busking spot",
            "distance_km": 17.3,
            "lat": 37.5563,
            "lng": 126.922
          },
          {
            "name_en": "Gwangjang Market",
            "spot_tag": "Debut Memory",
            "description_en": "2013 debut location",
            "distance_km": 23.1,
            "lat": 37.57,
            "lng": 127.0098
          }
        ],
        "restaurant": [
          {
            "name_en": "Ilsan Food Street",
            "spot_tag": "Local Eats",
            "description_en": "Local food street",
            "distance_km": 0.2,
            "lat": 37.658,
            "lng": 126.772
          },
          {
            "name_en": "La Festa Restaurants",
            "spot_tag": "Dining Hub",
            "description_en": "Restaurant complex",
            "distance_km": 0.2,
            "lat": 37.6575,
            "lng": 126.7705
          },
          {
            "name_en": "Western Dom Food Court",
            "spot_tag": "Food Court",
            "description_en": "Food court",
            "distance_km": 1.1,
            "lat": 37.663,
            "lng": 126.762
          }
        ],
        "cafe": [
          {
            "name_en": "La Festa Cafes",
            "spot_tag": "Trendy Cafe",
            "description_en": "Trendy cafes",
            "distance_km": 0.1,
            "lat": 37.6572,
            "lng": 126.771
          },
          {
            "name_en": "Ilsan Lake Park Cafe Street",
            "spot_tag": "Lake View",
            "description_en": "Scenic cafes",
            "distance_km": 1.1,
            "lat": 37.659,
            "lng": 126.76
          }
        ],
        "hotspot": [
          {
            "name_en": "Ilsan Lake Park",
            "spot_tag": "Must Visit",
            "description_en": "Beautiful lake park",
            "distance_km": 1.1,
            "lat": 37.658,
            "lng": 126.759
          },
          {
            "name_en": "One Mount",
            "spot_tag": "Entertainment",
            "description_en": "Theme park",
            "distance_km": 2.1,
            "lat": 37.665,
            "lng": 126.751
          },
          {
            "name_en": "Starfield Goyang",
            "spot_tag": "Shopping",
            "description_en": "Shopping mall",
            "distance_km": 10.9,
            "lat": 37.645,
            "lng": 126.895
          }
        ]
      },
      "map_detail": {
        "hotel": {
          "name_en": "동아대병원#부산역#남포동 SYJM Dong-A",
          "lat": 37.65663076095539,
          "lng": 126.7718650943732
        },
        "venue": {
          "name_en": "Goyang Stadium",
          "lat": 37.6556,
          "lng": 126.7714
        },
        "nearby_spots": [
          {
            "name_en": "La Festa Cafes",
            "category": "cafe",
            "spot_tag": "Trendy Cafe",
            "lat": 37.6572,
            "lng": 126.771,
            "distance_km": 0.1
          },
          {
            "name_en": "Ilsan Food Street",
            "category": "restaurant",
            "spot_tag": "Local Eats",
            "lat": 37.658,
            "lng": 126.772,
            "distance_km": 0.2
          },
          {
            "name_en": "La Festa Restaurants",
            "category": "restaurant",
            "spot_tag": "Dining Hub",
            "lat": 37.6575,
            "lng": 126.7705,
            "distance_km": 0.2
          },
          {
            "name_en": "Western Dom Food Court",
            "category": "restaurant",
            "spot_tag": "Food Court",
            "lat": 37.663,
            "lng": 126.762,
            "distance_km": 1.1
          },
          {
            "name_en": "Ilsan Lake Park Cafe Street",
            "category": "cafe",
            "spot_tag": "Lake View",
            "lat": 37.659,
            "lng": 126.76,
            "distance_km": 1.1
          }
        ]
      },
      "platform": {
        "name": "Booking.com",
        "booking_url": "https://www.booking.comhttps://www.booking.com/hotel/kr/syjm-donga-1st.ko.html?aid=304142&label=mkt123sc-821249b2-55f2-44be-a5df-8a3eef410cd7&ucfs=1&arphpl=1&checkin=2026-06-11&checkout=2026-06-13&dest_id=-713900&dest_type=city&group_adults=2&req_adults=2&no_rooms=1&group_children=0&req_children=0&hpos=2&hapos=2&sr_order=price&srpvid=5c35cf66220c6f46c86f096cdd0f0e6e&srepoch=1769973643&all_sr_blocks=1412910401_413033726_2_0_0&highlighted_blocks=1412910401_413033726_2_0_0&matching_block_id=1412910401_413033726_2_0_0&sr_pri_blocks=1412910401_413033726_2_0_0__42327273&from=searchresults"
      },
      "booking_guide": {
        "steps_en": [
          "1. Search Goyang hotels",
          "2. Filter by 'Free Cancellation'",
          "3. Select room and enter info",
          "4. Pay online or at property",
          "5. Show confirmation at check-in"
        ],
        "tips_en": [
          "Genius membership for discounts",
          "Free cancellation options"
        ],
        "payment_methods": [
          "Credit Card",
          "Pay at Property"
        ],
        "foreigner_friendly": true
      },
      "last_update": "2026-02-01 19:20:48",
      "nearby": [
        {
          "id": "hotel_80780",
          "name_en": "BT호텔",
          "price_krw": 156,
          "distance_km": 0.3,
          "image_url": "https://cf.bstatic.com/xdata/images/hotel/square240/525018046.webp?k=be682142dbf75f9a0512ad8bad6f9155e7f812372d81669fc018ebcacd40a5ef&o="
        },
        {
          "id": "hotel_62348",
          "name_en": "Busan Gwangalli Nuri Hotel",
          "price_krw": 279,
          "distance_km": 0.3,
          "image_url": "https://cf.bstatic.com/xdata/images/hotel/square240/803117772.webp?k=e234480c277a0db76c8b05431b34ec58dbaa1358e1941ccec9a098b5eb9fdff6&o="
        },
        {
          "id": "hotel_92639",
          "name_en": "큐브 호텔",
          "price_krw": 237,
          "distance_km": 0.4,
          "image_url": "https://cf.bstatic.com/xdata/images/hotel/square240/388675442.webp?k=7d78587e6c09b5cf1deaac75d1e3e24354e56ee7c10c352fa622c259dd9b8177&o="
        }
      ]
    },
    {
      "id": "hotel_62348",
      "name_en": "Busan Gwangalli Nuri Hotel",
      "price_krw": 279,
      "rating": 0,
      "image_url": "https://cf.bstatic.com/xdata/images/hotel/square240/803117772.webp?k=e234480c277a0db76c8b05431b34ec58dbaa1358e1941ccec9a098b5eb9fdff6&o=",
      "rooms_left": -1,
      "is_available": true,
      "hotel_type": {
        "label_en": "Hotel",
        "color": "#4A90D9"
      },
      "cancellation": {
        "type": "free",
        "label_en": "Free Cancellation",
        "label_kr": "무료 취소",
        "is_refundable": true
      },
      "tags": {
        "list_en": [
          "#FreeCancellation",
          "#ARMYPopular",
          "#WalkToVenue"
        ],
        "list_kr": [
          "#취소가능",
          "#아미인기",
          "#도보가능"
        ],
        "display_en": "#FreeCancellation #ARMYPopular #WalkToVenue",
        "display_kr": "#취소가능 #아미인기 #도보가능"
      },
      "lat": 37.65370970953464,
      "lng": 126.77062750661402,
      "location": {
        "area_en": "Busan",
        "area_kr": "부산",
        "address_en": "Busan, Busan",
        "address_kr": "부산 부산"
      },
      "city_key": "busan",
      "army_density": {
        "value": 65,
        "level_en": "High",
        "level_kr": "높음",
        "label_en": "ARMY 65%",
        "label_kr": "아미 65%"
      },
      "distance": {
        "type": "walk",
        "display_en": "Walk 2min",
        "minutes": 2,
        "distance_km": 0.2
      },
      "transport": {
        "station_en": "Jeongbalsan",
        "line_en": "Line 3",
        "line_color": "#EF7C1C",
        "display_en": "Jeongbalsan (Line 3)"
      },
      "safe_return": {
        "venue_en": "Goyang Stadium",
        "route_en": "Walk from Goyang Stadium → Hotel",
        "transport": "walk",
        "time_min": 2,
        "last_train": "23:50",
        "taxi_krw": 0
      },
      "army_local_guide": {
        "bts": [
          {
            "name_en": "MBC Sangam",
            "spot_tag": "Music Show",
            "description_en": "Music show filming",
            "distance_km": 13.6,
            "lat": 37.5786,
            "lng": 126.8918
          },
          {
            "name_en": "Hongdae Busking Street",
            "spot_tag": "Trainee Memory",
            "description_en": "Pre-debut busking spot",
            "distance_km": 17.2,
            "lat": 37.5563,
            "lng": 126.922
          },
          {
            "name_en": "Gwangjang Market",
            "spot_tag": "Debut Memory",
            "description_en": "2013 debut location",
            "distance_km": 23.0,
            "lat": 37.57,
            "lng": 127.0098
          }
        ],
        "restaurant": [
          {
            "name_en": "La Festa Restaurants",
            "spot_tag": "Dining Hub",
            "description_en": "Restaurant complex",
            "distance_km": 0.4,
            "lat": 37.6575,
            "lng": 126.7705
          },
          {
            "name_en": "Ilsan Food Street",
            "spot_tag": "Local Eats",
            "description_en": "Local food street",
            "distance_km": 0.5,
            "lat": 37.658,
            "lng": 126.772
          },
          {
            "name_en": "Western Dom Food Court",
            "spot_tag": "Food Court",
            "description_en": "Food court",
            "distance_km": 1.3,
            "lat": 37.663,
            "lng": 126.762
          }
        ],
        "cafe": [
          {
            "name_en": "La Festa Cafes",
            "spot_tag": "Trendy Cafe",
            "description_en": "Trendy cafes",
            "distance_km": 0.4,
            "lat": 37.6572,
            "lng": 126.771
          },
          {
            "name_en": "Ilsan Lake Park Cafe Street",
            "spot_tag": "Lake View",
            "description_en": "Scenic cafes",
            "distance_km": 1.1,
            "lat": 37.659,
            "lng": 126.76
          }
        ],
        "hotspot": [
          {
            "name_en": "Ilsan Lake Park",
            "spot_tag": "Must Visit",
            "description_en": "Beautiful lake park",
            "distance_km": 1.1,
            "lat": 37.658,
            "lng": 126.759
          },
          {
            "name_en": "One Mount",
            "spot_tag": "Entertainment",
            "description_en": "Theme park",
            "distance_km": 2.1,
            "lat": 37.665,
            "lng": 126.751
          },
          {
            "name_en": "Starfield Goyang",
            "spot_tag": "Shopping",
            "description_en": "Shopping mall",
            "distance_km": 11.0,
            "lat": 37.645,
            "lng": 126.895
          }
        ]
      },
      "map_detail": {
        "hotel": {
          "name_en": "Busan Gwangalli Nuri Hotel",
          "lat": 37.65370970953464,
          "lng": 126.77062750661402
        },
        "venue": {
          "name_en": "Goyang Stadium",
          "lat": 37.6556,
          "lng": 126.7714
        },
        "nearby_spots": [
          {
            "name_en": "La Festa Restaurants",
            "category": "restaurant",
            "spot_tag": "Dining Hub",
            "lat": 37.6575,
            "lng": 126.7705,
            "distance_km": 0.4
          },
          {
            "name_en": "La Festa Cafes",
            "category": "cafe",
            "spot_tag": "Trendy Cafe",
            "lat": 37.6572,
            "lng": 126.771,
            "distance_km": 0.4
          },
          {
            "name_en": "Ilsan Food Street",
            "category": "restaurant",
            "spot_tag": "Local Eats",
            "lat": 37.658,
            "lng": 126.772,
            "distance_km": 0.5
          },
          {
            "name_en": "Ilsan Lake Park Cafe Street",
            "category": "cafe",
            "spot_tag": "Lake View",
            "lat": 37.659,
            "lng": 126.76,
            "distance_km": 1.1
          },
          {
            "name_en": "Ilsan Lake Park",
            "category": "hotspot",
            "spot_tag": "Must Visit",
            "lat": 37.658,
            "lng": 126.759,
            "distance_km": 1.1
          }
        ]
      },
      "platform": {
        "name": "Booking.com",
        "booking_url": "https://www.booking.comhttps://www.booking.com/hotel/kr/busan-gwangalli-nuri.ko.html?aid=304142&label=mkt123sc-821249b2-55f2-44be-a5df-8a3eef410cd7&ucfs=1&arphpl=1&checkin=2026-06-11&checkout=2026-06-13&dest_id=-713900&dest_type=city&group_adults=2&req_adults=2&no_rooms=1&group_children=0&req_children=0&hpos=16&hapos=16&sr_order=price&srpvid=5c35cf66220c6f46c86f096cdd0f0e6e&srepoch=1769973643&all_sr_blocks=1557161909_426947074_0_1_0&highlighted_blocks=1557161909_426947074_0_1_0&matching_block_id=1557161909_426947074_0_1_0&sr_pri_blocks=1557161909_426947074_0_1_0__80382545&from=searchresults"
      },
      "booking_guide": {
        "steps_en": [
          "1. Search Goyang hotels",
          "2. Filter by 'Free Cancellation'",
          "3. Select room and enter info",
          "4. Pay online or at property",
          "5. Show confirmation at check-in"
        ],
        "tips_en": [
          "Genius membership for discounts",
          "Free cancellation options"
        ],
        "payment_methods": [
          "Credit Card",
          "Pay at Property"
        ],
        "foreigner_friendly": true
      },
      "last_update": "2026-02-01 19:20:48",
      "nearby": [
        {
          "id": "hotel_37404",
          "name_en": "동아대병원#부산역#남포동 SYJM Dong-A",
          "price_krw": 147,
          "distance_km": 0.3,
          "image_url": "https://cf.bstatic.com/xdata/images/hotel/square240/681767446.webp?k=ca99f144995914a4b92a32c3105c3e69f20630a80f324839f89ca109c2bc87e5&o="
        },
        {
          "id": "hotel_80780",
          "name_en": "BT호텔",
          "price_krw": 156,
          "distance_km": 0.3,
          "image_url": "https://cf.bstatic.com/xdata/images/hotel/square240/525018046.webp?k=be682142dbf75f9a0512ad8bad6f9155e7f812372d81669fc018ebcacd40a5ef&o="
        },
        {
          "id": "hotel_59291",
          "name_en": "부산 송정 스테이",
          "price_krw": 253,
          "distance_km": 0.3,
          "image_url": "https://cf.bstatic.com/xdata/images/hotel/square240/738687419.webp?k=e8003c974a6757eb70b30d97c0ee2c6742f050d80ee75489d38db3c0ef4f31a7&o="
        }
      ]
    },
    {
      "id": "hotel_80780",
      "name_en": "BT호텔",
      "price_krw": 156,
      "rating": 6.76,
      "image_url": "https://cf.bstatic.com/xdata/images/hotel/square240/525018046.webp?k=be682142dbf75f9a0512ad8bad6f9155e7f812372d81669fc018ebcacd40a5ef&o=",
      "rooms_left": -1,
      "is_available": true,
      "hotel_type": {
        "label_en": "Hotel",
        "color": "#4A90D9"
      },
      "cancellation": {
        "type": "free",
        "label_en": "Free Cancellation",
        "label_kr": "무료 취소",
        "is_refundable": true
      },
      "tags": {
        "list_en": [
          "#FreeCancellation",
          "#ARMYPopular",
          "#WalkToVenue"
        ],
        "list_kr": [
          "#취소가능",
          "#아미인기",
          "#도보가능"
        ],
        "display_en": "#FreeCancellation #ARMYPopular #WalkToVenue",
        "display_kr": "#취소가능 #아미인기 #도보가능"
      },
      "lat": 37.656319334625096,
      "lng": 126.76864861657901,
      "location": {
        "area_en": "Busan",
        "area_kr": "부산",
        "address_en": "Busan, Busan",
        "address_kr": "부산 부산"
      },
      "city_key": "busan",
      "army_density": {
        "value": 65,
        "level_en": "High",
        "level_kr": "높음",
        "label_en": "ARMY 65%",
        "label_kr": "아미 65%"
      },
      "distance": {
        "type": "walk",
        "display_en": "Walk 3min",
        "minutes": 3,
        "distance_km": 0.3
      },
      "transport": {
        "station_en": "Jeongbalsan",
        "line_en": "Line 3",
        "line_color": "#EF7C1C",
        "display_en": "Jeongbalsan (Line 3)"
      },
      "safe_return": {
        "venue_en": "Goyang Stadium",
        "route_en": "Walk from Goyang Stadium → Hotel",
        "transport": "walk",
        "time_min": 3,
        "last_train": "23:50",
        "taxi_krw": 0
      },
      "army_local_guide": {
        "bts": [
          {
            "name_en": "MBC Sangam",
            "spot_tag": "Music Show",
            "description_en": "Music show filming",
            "distance_km": 13.9,
            "lat": 37.5786,
            "lng": 126.8918
          },
          {
            "name_en": "Hongdae Busking Street",
            "spot_tag": "Trainee Memory",
            "description_en": "Pre-debut busking spot",
            "distance_km": 17.5,
            "lat": 37.5563,
            "lng": 126.922
          },
          {
            "name_en": "Gwangjang Market",
            "spot_tag": "Debut Memory",
            "description_en": "2013 debut location",
            "distance_km": 23.3,
            "lat": 37.57,
            "lng": 127.0098
          }
        ],
        "restaurant": [
          {
            "name_en": "La Festa Restaurants",
            "spot_tag": "Dining Hub",
            "description_en": "Restaurant complex",
            "distance_km": 0.2,
            "lat": 37.6575,
            "lng": 126.7705
          },
          {
            "name_en": "Ilsan Food Street",
            "spot_tag": "Local Eats",
            "description_en": "Local food street",
            "distance_km": 0.3,
            "lat": 37.658,
            "lng": 126.772
          },
          {
            "name_en": "Western Dom Food Court",
            "spot_tag": "Food Court",
            "description_en": "Food court",
            "distance_km": 0.9,
            "lat": 37.663,
            "lng": 126.762
          }
        ],
        "cafe": [
          {
            "name_en": "La Festa Cafes",
            "spot_tag": "Trendy Cafe",
            "description_en": "Trendy cafes",
            "distance_km": 0.2,
            "lat": 37.6572,
            "lng": 126.771
          },
          {
            "name_en": "Ilsan Lake Park Cafe Street",
            "spot_tag": "Lake View",
            "description_en": "Scenic cafes",
            "distance_km": 0.8,
            "lat": 37.659,
            "lng": 126.76
          }
        ],
        "hotspot": [
          {
            "name_en": "Ilsan Lake Park",
            "spot_tag": "Must Visit",
            "description_en": "Beautiful lake park",
            "distance_km": 0.9,
            "lat": 37.658,
            "lng": 126.759
          },
          {
            "name_en": "One Mount",
            "spot_tag": "Entertainment",
            "description_en": "Theme park",
            "distance_km": 1.8,
            "lat": 37.665,
            "lng": 126.751
          },
          {
            "name_en": "Starfield Goyang",
            "spot_tag": "Shopping",
            "description_en": "Shopping mall",
            "distance_km": 11.2,
            "lat": 37.645,
            "lng": 126.895
          }
        ]
      },
      "map_detail": {
        "hotel": {
          "name_en": "BT호텔",
          "lat": 37.656319334625096,
          "lng": 126.76864861657901
        },
        "venue": {
          "name_en": "Goyang Stadium",
          "lat": 37.6556,
          "lng": 126.7714
        },
        "nearby_spots": [
          {
            "name_en": "La Festa Restaurants",
            "category": "restaurant",
            "spot_tag": "Dining Hub",
            "lat": 37.6575,
            "lng": 126.7705,
            "distance_km": 0.2
          },
          {
            "name_en": "La Festa Cafes",
            "category": "cafe",
            "spot_tag": "Trendy Cafe",
            "lat": 37.6572,
            "lng": 126.771,
            "distance_km": 0.2
          },
          {
            "name_en": "Ilsan Food Street",
            "category": "restaurant",
            "spot_tag": "Local Eats",
            "lat": 37.658,
            "lng": 126.772,
            "distance_km": 0.3
          },
          {
            "name_en": "Ilsan Lake Park Cafe Street",
            "category": "cafe",
            "spot_tag": "Lake View",
            "lat": 37.659,
            "lng": 126.76,
            "distance_km": 0.8
          },
          {
            "name_en": "Western Dom Food Court",
            "category": "restaurant",
            "spot_tag": "Food Court",
            "lat": 37.663,
            "lng": 126.762,
            "distance_km": 0.9
          }
        ]
      },
      "platform": {
        "name": "Booking.com",
        "booking_url": "https://www.booking.comhttps://www.booking.com/hotel/kr/bthotel.ko.html?aid=304142&label=mkt123sc-821249b2-55f2-44be-a5df-8a3eef410cd7&ucfs=1&arphpl=1&checkin=2026-06-11&checkout=2026-06-13&dest_id=-713900&dest_type=city&group_adults=2&req_adults=2&no_rooms=1&group_children=0&req_children=0&hpos=3&hapos=3&sr_order=price&srpvid=5c35cf66220c6f46c86f096cdd0f0e6e&srepoch=1769973643&all_sr_blocks=1147787601_387615134_2_0_0&highlighted_blocks=1147787601_387615134_2_0_0&matching_block_id=1147787601_387615134_2_0_0&sr_pri_blocks=1147787601_387615134_2_0_0__45000000&from=searchresults"
      },
      "booking_guide": {
        "steps_en": [
          "1. Search Goyang hotels",
          "2. Filter by 'Free Cancellation'",
          "3. Select room and enter info",
          "4. Pay online or at property",
          "5. Show confirmation at check-in"
        ],
        "tips_en": [
          "Genius membership for discounts",
          "Free cancellation options"
        ],
        "payment_methods": [
          "Credit Card",
          "Pay at Property"
        ],
        "foreigner_friendly": true
      },
      "last_update": "2026-02-01 19:20:48",
      "nearby": [
        {
          "id": "hotel_83094",
          "name_en": "엘모멘토 오시리아",
          "price_krw": 318,
          "distance_km": 0.1,
          "image_url": "https://cf.bstatic.com/xdata/images/hotel/square240/487544692.webp?k=4e263cca54514805e93172a96d5874a80db92e961926f0fc8c471db243cd60f0&o="
        },
        {
          "id": "hotel_37404",
          "name_en": "동아대병원#부산역#남포동 SYJM Dong-A",
          "price_krw": 147,
          "distance_km": 0.3,
          "image_url": "https://cf.bstatic.com/xdata/images/hotel/square240/681767446.webp?k=ca99f144995914a4b92a32c3105c3e69f20630a80f324839f89ca109c2bc87e5&o="
        },
        {
          "id": "hotel_01962",
          "name_en": "Shire Hotel Signature Seomyeon",
          "price_krw": 196,
          "distance_km": 0.3,
          "image_url": "https://cf.bstatic.com/xdata/images/hotel/square240/507241504.webp?k=e453411a45c9e28e83be19585d504d03570933f9393288ac756199d2d43f13d5&o="
        }
      ]
    },
    {
      "id": "hotel_59291",
      "name_en": "부산 송정 스테이",
      "price_krw": 253,
      "rating": 4.04,
      "image_url": "https://cf.bstatic.com/xdata/images/hotel/square240/738687419.webp?k=e8003c974a6757eb70b30d97c0ee2c6742f050d80ee75489d38db3c0ef4f31a7&o=",
      "rooms_left": -1,
      "is_available": true,
      "hotel_type": {
        "label_en": "Hotel",
        "color": "#4A90D9"
      },
      "cancellation": {
        "type": "free",
        "label_en": "Free Cancellation",
        "label_kr": "무료 취소",
        "is_refundable": true
      },
      "tags": {
        "list_en": [
          "#FreeCancellation",
          "#ARMYPopular",
          "#WalkToVenue"
        ],
        "list_kr": [
          "#취소가능",
          "#아미인기",
          "#도보가능"
        ],
        "display_en": "#FreeCancellation #ARMYPopular #WalkToVenue",
        "display_kr": "#취소가능 #아미인기 #도보가능"
      },
      "lat": 37.65346546599435,
      "lng": 126.77405876817136,
      "location": {
        "area_en": "Busan",
        "area_kr": "부산",
        "address_en": "Busan, Busan",
        "address_kr": "부산 부산"
      },
      "city_key": "busan",
      "army_density": {
        "value": 65,
        "level_en": "High",
        "level_kr": "높음",
        "label_en": "ARMY 65%",
        "label_kr": "아미 65%"
      },
      "distance": {
        "type": "walk",
        "display_en": "Walk 4min",
        "minutes": 4,
        "distance_km": 0.3
      },
      "transport": {
        "station_en": "Jeongbalsan",
        "line_en": "Line 3",
        "line_color": "#EF7C1C",
        "display_en": "Jeongbalsan (Line 3)"
      },
      "safe_return": {
        "venue_en": "Goyang Stadium",
        "route_en": "Walk from Goyang Stadium → Hotel",
        "transport": "walk",
        "time_min": 4,
        "last_train": "23:50",
        "taxi_krw": 0
      },
      "army_local_guide": {
        "bts": [
          {
            "name_en": "MBC Sangam",
            "spot_tag": "Music Show",
            "description_en": "Music show filming",
            "distance_km": 13.3,
            "lat": 37.5786,
            "lng": 126.8918
          },
          {
            "name_en": "Hongdae Busking Street",
            "spot_tag": "Trainee Memory",
            "description_en": "Pre-debut busking spot",
            "distance_km": 16.9,
            "lat": 37.5563,
            "lng": 126.922
          },
          {
            "name_en": "Gwangjang Market",
            "spot_tag": "Debut Memory",
            "description_en": "2013 debut location",
            "distance_km": 22.7,
            "lat": 37.57,
            "lng": 127.0098
          }
        ],
        "restaurant": [
          {
            "name_en": "Ilsan Food Street",
            "spot_tag": "Local Eats",
            "description_en": "Local food street",
            "distance_km": 0.5,
            "lat": 37.658,
            "lng": 126.772
          },
          {
            "name_en": "La Festa Restaurants",
            "spot_tag": "Dining Hub",
            "description_en": "Restaurant complex",
            "distance_km": 0.5,
            "lat": 37.6575,
            "lng": 126.7705
          },
          {
            "name_en": "Western Dom Food Court",
            "spot_tag": "Food Court",
            "description_en": "Food court",
            "distance_km": 1.5,
            "lat": 37.663,
            "lng": 126.762
          }
        ],
        "cafe": [
          {
            "name_en": "La Festa Cafes",
            "spot_tag": "Trendy Cafe",
            "description_en": "Trendy cafes",
            "distance_km": 0.5,
            "lat": 37.6572,
            "lng": 126.771
          },
          {
            "name_en": "Ilsan Lake Park Cafe Street",
            "spot_tag": "Lake View",
            "description_en": "Scenic cafes",
            "distance_km": 1.4,
            "lat": 37.659,
            "lng": 126.76
          }
        ],
        "hotspot": [
          {
            "name_en": "Ilsan Lake Park",
            "spot_tag": "Must Visit",
            "description_en": "Beautiful lake park",
            "distance_km": 1.4,
            "lat": 37.658,
            "lng": 126.759
          },
          {
            "name_en": "One Mount",
            "spot_tag": "Entertainment",
            "description_en": "Theme park",
            "distance_km": 2.4,
            "lat": 37.665,
            "lng": 126.751
          },
          {
            "name_en": "Starfield Goyang",
            "spot_tag": "Shopping",
            "description_en": "Shopping mall",
            "distance_km": 10.7,
            "lat": 37.645,
            "lng": 126.895
          }
        ]
      },
      "map_detail": {
        "hotel": {
          "name_en": "부산 송정 스테이",
          "lat": 37.65346546599435,
          "lng": 126.77405876817136
        },
        "venue": {
          "name_en": "Goyang Stadium",
          "lat": 37.6556,
          "lng": 126.7714
        },
        "nearby_spots": [
          {
            "name_en": "Ilsan Food Street",
            "category": "restaurant",
            "spot_tag": "Local Eats",
            "lat": 37.658,
            "lng": 126.772,
            "distance_km": 0.5
          },
          {
            "name_en": "La Festa Restaurants",
            "category": "restaurant",
            "spot_tag": "Dining Hub",
            "lat": 37.6575,
            "lng": 126.7705,
            "distance_km": 0.5
          },
          {
            "name_en": "La Festa Cafes",
            "category": "cafe",
            "spot_tag": "Trendy Cafe",
            "lat": 37.6572,
            "lng": 126.771,
            "distance_km": 0.5
          },
          {
            "name_en": "Ilsan Lake Park Cafe Street",
            "category": "cafe",
            "spot_tag": "Lake View",
            "lat": 37.659,
            "lng": 126.76,
            "distance_km": 1.4
          },
          {
            "name_en": "Ilsan Lake Park",
            "category": "hotspot",
            "spot_tag": "Must Visit",
            "lat": 37.658,
            "lng": 126.759,
            "distance_km": 1.4
          }
        ]
      },
      "platform": {
        "name": "Booking.com",
        "booking_url": "https://www.booking.comhttps://www.booking.com/hotel/kr/busan-songjeongseutei.ko.html?aid=304142&label=mkt123sc-821249b2-55f2-44be-a5df-8a3eef410cd7&ucfs=1&arphpl=1&checkin=2026-06-11&checkout=2026-06-13&dest_id=-713900&dest_type=city&group_adults=2&req_adults=2&no_rooms=1&group_children=0&req_children=0&hpos=10&hapos=10&sr_order=price&srpvid=5c35cf66220c6f46c86f096cdd0f0e6e&srepoch=1769973643&all_sr_blocks=1484237301_420018216_2_0_0&highlighted_blocks=1484237301_420018216_2_0_0&matching_block_id=1484237301_420018216_2_0_0&sr_pri_blocks=1484237301_420018216_2_0_0__72727273&from=searchresults"
      },
      "booking_guide": {
        "steps_en": [
          "1. Search Goyang hotels",
          "2. Filter by 'Free Cancellation'",
          "3. Select room and enter info",
          "4. Pay online or at property",
          "5. Show confirmation at check-in"
        ],
        "tips_en": [
          "Genius membership for discounts",
          "Free cancellation options"
        ],
        "payment_methods": [
          "Credit Card",
          "Pay at Property"
        ],
        "foreigner_friendly": true
      },
      "last_update": "2026-02-01 19:20:48",
      "nearby": [
        {
          "id": "hotel_76474",
          "name_en": "준 하우스 (외국인 전용)",
          "price_krw": 300,
          "distance_km": 0.0,
          "image_url": "https://cf.bstatic.com/xdata/images/hotel/square240/471795559.webp?k=9cf66739686fc32f2bb47216f673fe554a70fe044160055f3188d90ddd0aa8bd&o="
        },
        {
          "id": "hotel_62348",
          "name_en": "Busan Gwangalli Nuri Hotel",
          "price_krw": 279,
          "distance_km": 0.3,
          "image_url": "https://cf.bstatic.com/xdata/images/hotel/square240/803117772.webp?k=e234480c277a0db76c8b05431b34ec58dbaa1358e1941ccec9a098b5eb9fdff6&o="
        },
        {
          "id": "hotel_37404",
          "name_en": "동아대병원#부산역#남포동 SYJM Dong-A",
          "price_krw": 147,
          "distance_km": 0.4,
          "image_url": "https://cf.bstatic.com/xdata/images/hotel/square240/681767446.webp?k=ca99f144995914a4b92a32c3105c3e69f20630a80f324839f89ca109c2bc87e5&o="
        }
      ]
    },
    {
      "id": "hotel_76474",
      "name_en": "준 하우스 (외국인 전용)",
      "price_krw": 300,
      "rating": 7.47,
      "image_url": "https://cf.bstatic.com/xdata/images/hotel/square240/471795559.webp?k=9cf66739686fc32f2bb47216f673fe554a70fe044160055f3188d90ddd0aa8bd&o=",
      "rooms_left": -1,
      "is_available": true,
      "hotel_type": {
        "label_en": "Hotel",
        "color": "#4A90D9"
      },
      "cancellation": {
        "type": "free",
        "label_en": "Free Cancellation",
        "label_kr": "무료 취소",
        "is_refundable": true
      },
      "tags": {
        "list_en": [
          "#FreeCancellation",
          "#ARMYPopular",
          "#WalkToVenue"
        ],
        "list_kr": [
          "#취소가능",
          "#아미인기",
          "#도보가능"
        ],
        "display_en": "#FreeCancellation #ARMYPopular #WalkToVenue",
        "display_kr": "#취소가능 #아미인기 #도보가능"
      },
      "lat": 37.65320193561588,
      "lng": 126.77404418165337,
      "location": {
        "area_en": "Busan",
        "area_kr": "부산",
        "address_en": "Busan, Busan",
        "address_kr": "부산 부산"
      },
      "city_key": "busan",
      "army_density": {
        "value": 65,
        "level_en": "High",
        "level_kr": "높음",
        "label_en": "ARMY 65%",
        "label_kr": "아미 65%"
      },
      "distance": {
        "type": "walk",
        "display_en": "Walk 4min",
        "minutes": 4,
        "distance_km": 0.4
      },
      "transport": {
        "station_en": "Jeongbalsan",
        "line_en": "Line 3",
        "line_color": "#EF7C1C",
        "display_en": "Jeongbalsan (Line 3)"
      },
      "safe_return": {
        "venue_en": "Goyang Stadium",
        "route_en": "Walk from Goyang Stadium → Hotel",
        "transport": "walk",
        "time_min": 4,
        "last_train": "23:50",
        "taxi_krw": 0
      },
      "army_local_guide": {
        "bts": [
          {
            "name_en": "MBC Sangam",
            "spot_tag": "Music Show",
            "description_en": "Music show filming",
            "distance_km": 13.3,
            "lat": 37.5786,
            "lng": 126.8918
          },
          {
            "name_en": "Hongdae Busking Street",
            "spot_tag": "Trainee Memory",
            "description_en": "Pre-debut busking spot",
            "distance_km": 16.9,
            "lat": 37.5563,
            "lng": 126.922
          },
          {
            "name_en": "Gwangjang Market",
            "spot_tag": "Debut Memory",
            "description_en": "2013 debut location",
            "distance_km": 22.7,
            "lat": 37.57,
            "lng": 127.0098
          }
        ],
        "restaurant": [
          {
            "name_en": "Ilsan Food Street",
            "spot_tag": "Local Eats",
            "description_en": "Local food street",
            "distance_km": 0.6,
            "lat": 37.658,
            "lng": 126.772
          },
          {
            "name_en": "La Festa Restaurants",
            "spot_tag": "Dining Hub",
            "description_en": "Restaurant complex",
            "distance_km": 0.6,
            "lat": 37.6575,
            "lng": 126.7705
          },
          {
            "name_en": "Western Dom Food Court",
            "spot_tag": "Food Court",
            "description_en": "Food court",
            "distance_km": 1.5,
            "lat": 37.663,
            "lng": 126.762
          }
        ],
        "cafe": [
          {
            "name_en": "La Festa Cafes",
            "spot_tag": "Trendy Cafe",
            "description_en": "Trendy cafes",
            "distance_km": 0.5,
            "lat": 37.6572,
            "lng": 126.771
          },
          {
            "name_en": "Ilsan Lake Park Cafe Street",
            "spot_tag": "Lake View",
            "description_en": "Scenic cafes",
            "distance_km": 1.4,
            "lat": 37.659,
            "lng": 126.76
          }
        ],
        "hotspot": [
          {
            "name_en": "Ilsan Lake Park",
            "spot_tag": "Must Visit",
            "description_en": "Beautiful lake park",
            "distance_km": 1.4,
            "lat": 37.658,
            "lng": 126.759
          },
          {
            "name_en": "One Mount",
            "spot_tag": "Entertainment",
            "description_en": "Theme park",
            "distance_km": 2.4,
            "lat": 37.665,
            "lng": 126.751
          },
          {
            "name_en": "Starfield Goyang",
            "spot_tag": "Shopping",
            "description_en": "Shopping mall",
            "distance_km": 10.7,
            "lat": 37.645,
            "lng": 126.895
          }
        ]
      },
      "map_detail": {
        "hotel": {
          "name_en": "준 하우스 (외국인 전용)",
          "lat": 37.65320193561588,
          "lng": 126.77404418165337
        },
        "venue": {
          "name_en": "Goyang Stadium",
          "lat": 37.6556,
          "lng": 126.7714
        },
        "nearby_spots": [
          {
            "name_en": "La Festa Cafes",
            "category": "cafe",
            "spot_tag": "Trendy Cafe",
            "lat": 37.6572,
            "lng": 126.771,
            "distance_km": 0.5
          },
          {
            "name_en": "Ilsan Food Street",
            "category": "restaurant",
            "spot_tag": "Local Eats",
            "lat": 37.658,
            "lng": 126.772,
            "distance_km": 0.6
          },
          {
            "name_en": "La Festa Restaurants",
            "category": "restaurant",
            "spot_tag": "Dining Hub",
            "lat": 37.6575,
            "lng": 126.7705,
            "distance_km": 0.6
          },
          {
            "name_en": "Ilsan Lake Park Cafe Street",
            "category": "cafe",
            "spot_tag": "Lake View",
            "lat": 37.659,
            "lng": 126.76,
            "distance_km": 1.4
          },
          {
            "name_en": "Ilsan Lake Park",
            "category": "hotspot",
            "spot_tag": "Must Visit",
            "lat": 37.658,
            "lng": 126.759,
            "distance_km": 1.4
          }
        ]
      },
      "platform": {
        "name": "Booking.com",
        "booking_url": "https://www.booking.comhttps://www.booking.com/hotel/kr/jun-house-busan.ko.html?aid=304142&label=mkt123sc-821249b2-55f2-44be-a5df-8a3eef410cd7&ucfs=1&arphpl=1&checkin=2026-06-11&checkout=2026-06-13&dest_id=-713900&dest_type=city&group_adults=2&req_adults=2&no_rooms=1&group_children=0&req_children=0&hpos=18&hapos=18&sr_order=price&srpvid=5c35cf66220c6f46c86f096cdd0f0e6e&srepoch=1769973643&all_sr_blocks=1022624001_374727880_2_2_0&highlighted_blocks=1022624001_374727880_2_2_0&matching_block_id=1022624001_374727880_2_2_0&sr_pri_blocks=1022624001_374727880_2_2_0__86363636&from=searchresults"
      },
      "booking_guide": {
        "steps_en": [
          "1. Search Goyang hotels",
          "2. Filter by 'Free Cancellation'",
          "3. Select room and enter info",
          "4. Pay online or at property",
          "5. Show confirmation at check-in"
        ],
        "tips_en": [
          "Genius membership for discounts",
          "Free cancellation options"
        ],
        "payment_methods": [
          "Credit Card",
          "Pay at Property"
        ],
        "foreigner_friendly": true
      },
      "last_update": "2026-02-01 19:20:48",
      "nearby": [
        {
          "id": "hotel_59291",
          "name_en": "부산 송정 스테이",
          "price_krw": 253,
          "distance_km": 0.0,
          "image_url": "https://cf.bstatic.com/xdata/images/hotel/square240/738687419.webp?k=e8003c974a6757eb70b30d97c0ee2c6742f050d80ee75489d38db3c0ef4f31a7&o="
        },
        {
          "id": "hotel_62348",
          "name_en": "Busan Gwangalli Nuri Hotel",
          "price_krw": 279,
          "distance_km": 0.3,
          "image_url": "https://cf.bstatic.com/xdata/images/hotel/square240/803117772.webp?k=e234480c277a0db76c8b05431b34ec58dbaa1358e1941ccec9a098b5eb9fdff6&o="
        },
        {
          "id": "hotel_37404",
          "name_en": "동아대병원#부산역#남포동 SYJM Dong-A",
          "price_krw": 147,
          "distance_km": 0.4,
          "image_url": "https://cf.bstatic.com/xdata/images/hotel/square240/681767446.webp?k=ca99f144995914a4b92a32c3105c3e69f20630a80f324839f89ca109c2bc87e5&o="
        }
      ]
    },
    {
      "id": "hotel_83094",
      "name_en": "엘모멘토 오시리아",
      "price_krw": 318,
      "rating": 8.78,
      "image_url": "https://cf.bstatic.com/xdata/images/hotel/square240/487544692.webp?k=4e263cca54514805e93172a96d5874a80db92e961926f0fc8c471db243cd60f0&o=",
      "rooms_left": -1,
      "is_available": true,
      "hotel_type": {
        "label_en": "Hotel",
        "color": "#4A90D9"
      },
      "cancellation": {
        "type": "free",
        "label_en": "Free Cancellation",
        "label_kr": "무료 취소",
        "is_refundable": true
      },
      "tags": {
        "list_en": [
          "#FreeCancellation",
          "#ARMYPopular",
          "#WalkToVenue"
        ],
        "list_kr": [
          "#취소가능",
          "#아미인기",
          "#도보가능"
        ],
        "display_en": "#FreeCancellation #ARMYPopular #WalkToVenue",
        "display_kr": "#취소가능 #아미인기 #도보가능"
      },
      "lat": 37.65727286387567,
      "lng": 126.76746968647842,
      "location": {
        "area_en": "Busan",
        "area_kr": "부산",
        "address_en": "Busan, Busan",
        "address_kr": "부산 부산"
      },
      "city_key": "busan",
      "army_density": {
        "value": 65,
        "level_en": "High",
        "level_kr": "높음",
        "label_en": "ARMY 65%",
        "label_kr": "아미 65%"
      },
      "distance": {
        "type": "walk",
        "display_en": "Walk 4min",
        "minutes": 4,
        "distance_km": 0.4
      },
      "transport": {
        "station_en": "Jeongbalsan",
        "line_en": "Line 3",
        "line_color": "#EF7C1C",
        "display_en": "Jeongbalsan (Line 3)"
      },
      "safe_return": {
        "venue_en": "Goyang Stadium",
        "route_en": "Walk from Goyang Stadium → Hotel",
        "transport": "walk",
        "time_min": 4,
        "last_train": "23:50",
        "taxi_krw": 0
      },
      "army_local_guide": {
        "bts": [
          {
            "name_en": "MBC Sangam",
            "spot_tag": "Music Show",
            "description_en": "Music show filming",
            "distance_km": 14.0,
            "lat": 37.5786,
            "lng": 126.8918
          },
          {
            "name_en": "Hongdae Busking Street",
            "spot_tag": "Trainee Memory",
            "description_en": "Pre-debut busking spot",
            "distance_km": 17.6,
            "lat": 37.5563,
            "lng": 126.922
          },
          {
            "name_en": "Gwangjang Market",
            "spot_tag": "Debut Memory",
            "description_en": "2013 debut location",
            "distance_km": 23.4,
            "lat": 37.57,
            "lng": 127.0098
          }
        ],
        "restaurant": [
          {
            "name_en": "La Festa Restaurants",
            "spot_tag": "Dining Hub",
            "description_en": "Restaurant complex",
            "distance_km": 0.3,
            "lat": 37.6575,
            "lng": 126.7705
          },
          {
            "name_en": "Ilsan Food Street",
            "spot_tag": "Local Eats",
            "description_en": "Local food street",
            "distance_km": 0.4,
            "lat": 37.658,
            "lng": 126.772
          },
          {
            "name_en": "Western Dom Food Court",
            "spot_tag": "Food Court",
            "description_en": "Food court",
            "distance_km": 0.8,
            "lat": 37.663,
            "lng": 126.762
          }
        ],
        "cafe": [
          {
            "name_en": "La Festa Cafes",
            "spot_tag": "Trendy Cafe",
            "description_en": "Trendy cafes",
            "distance_km": 0.3,
            "lat": 37.6572,
            "lng": 126.771
          },
          {
            "name_en": "Ilsan Lake Park Cafe Street",
            "spot_tag": "Lake View",
            "description_en": "Scenic cafes",
            "distance_km": 0.7,
            "lat": 37.659,
            "lng": 126.76
          }
        ],
        "hotspot": [
          {
            "name_en": "Ilsan Lake Park",
            "spot_tag": "Must Visit",
            "description_en": "Beautiful lake park",
            "distance_km": 0.7,
            "lat": 37.658,
            "lng": 126.759
          },
          {
            "name_en": "One Mount",
            "spot_tag": "Entertainment",
            "description_en": "Theme park",
            "distance_km": 1.7,
            "lat": 37.665,
            "lng": 126.751
          },
          {
            "name_en": "Starfield Goyang",
            "spot_tag": "Shopping",
            "description_en": "Shopping mall",
            "distance_km": 11.3,
            "lat": 37.645,
            "lng": 126.895
          }
        ]
      },
      "map_detail": {
        "hotel": {
          "name_en": "엘모멘토 오시리아",
          "lat": 37.65727286387567,
          "lng": 126.76746968647842
        },
        "venue": {
          "name_en": "Goyang Stadium",
          "lat": 37.6556,
          "lng": 126.7714
        },
        "nearby_spots": [
          {
            "name_en": "La Festa Restaurants",
            "category": "restaurant",
            "spot_tag": "Dining Hub",
            "lat": 37.6575,
            "lng": 126.7705,
            "distance_km": 0.3
          },
          {
            "name_en": "La Festa Cafes",
            "category": "cafe",
            "spot_tag": "Trendy Cafe",
            "lat": 37.6572,
            "lng": 126.771,
            "distance_km": 0.3
          },
          {
            "name_en": "Ilsan Food Street",
            "category": "restaurant",
            "spot_tag": "Local Eats",
            "lat": 37.658,
            "lng": 126.772,
            "distance_km": 0.4
          },
          {
            "name_en": "Ilsan Lake Park Cafe Street",
            "category": "cafe",
            "spot_tag": "Lake View",
            "lat": 37.659,
            "lng": 126.76,
            "distance_km": 0.7
          },
          {
            "name_en": "Ilsan Lake Park",
            "category": "hotspot",
            "spot_tag": "Must Visit",
            "lat": 37.658,
            "lng": 126.759,
            "distance_km": 0.7
          }
        ]
      },
      "platform": {
        "name": "Booking.com",
        "booking_url": "https://www.booking.comhttps://www.booking.com/hotel/kr/sota-collection-the-osiria.ko.html?aid=304142&label=mkt123sc-821249b2-55f2-44be-a5df-8a3eef410cd7&ucfs=1&arphpl=1&checkin=2026-06-11&checkout=2026-06-13&dest_id=-713900&dest_type=city&group_adults=2&req_adults=2&no_rooms=1&group_children=0&req_children=0&hpos=25&hapos=25&sr_order=price&srpvid=5c35cf66220c6f46c86f096cdd0f0e6e&srepoch=1769973643&all_sr_blocks=910581101_411021663_4_0_0&highlighted_blocks=910581101_411021663_4_0_0&matching_block_id=910581101_411021663_4_0_0&sr_pri_blocks=910581101_411021663_4_0_0__91554545&from=searchresults"
      },
      "booking_guide": {
        "steps_en": [
          "1. Search Goyang hotels",
          "2. Filter by 'Free Cancellation'",
          "3. Select room and enter info",
          "4. Pay online or at property",
          "5. Show confirmation at check-in"
        ],
        "tips_en": [
          "Genius membership for discounts",
          "Free cancellation options"
        ],
        "payment_methods": [
          "Credit Card",
          "Pay at Property"
        ],
        "foreigner_friendly": true
      },
      "last_update": "2026-02-01 19:20:48",
      "nearby": [
        {
          "id": "hotel_80780",
          "name_en": "BT호텔",
          "price_krw": 156,
          "distance_km": 0.1,
          "image_url": "https://cf.bstatic.com/xdata/images/hotel/square240/525018046.webp?k=be682142dbf75f9a0512ad8bad6f9155e7f812372d81669fc018ebcacd40a5ef&o="
        },
        {
          "id": "hotel_37404",
          "name_en": "동아대병원#부산역#남포동 SYJM Dong-A",
          "price_krw": 147,
          "distance_km": 0.4,
          "image_url": "https://cf.bstatic.com/xdata/images/hotel/square240/681767446.webp?k=ca99f144995914a4b92a32c3105c3e69f20630a80f324839f89ca109c2bc87e5&o="
        },
        {
          "id": "hotel_01962",
          "name_en": "Shire Hotel Signature Seomyeon",
          "price_krw": 196,
          "distance_km": 0.4,
          "image_url": "https://cf.bstatic.com/xdata/images/hotel/square240/507241504.webp?k=e453411a45c9e28e83be19585d504d03570933f9393288ac756199d2d43f13d5&o="
        }
      ]
    },
    {
      "id": "hotel_01962",
      "name_en": "Shire Hotel Signature Seomyeon",
      "price_krw": 196,
      "rating": 8.28,
      "image_url": "https://cf.bstatic.com/xdata/images/hotel/square240/507241504.webp?k=e453411a45c9e28e83be19585d504d03570933f9393288ac756199d2d43f13d5&o=",
      "rooms_left": -1,
      "is_available": true,
      "hotel_type": {
        "label_en": "Hotel",
        "color": "#4A90D9"
      },
      "cancellation": {
        "type": "free",
        "label_en": "Free Cancellation",
        "label_kr": "무료 취소",
        "is_refundable": true
      },
      "tags": {
        "list_en": [
          "#FreeCancellation",
          "#ARMYPopular",
          "#WalkToVenue"
        ],
        "list_kr": [
          "#취소가능",
          "#아미인기",
          "#도보가능"
        ],
        "display_en": "#FreeCancellation #ARMYPopular #WalkToVenue",
        "display_kr": "#취소가능 #아미인기 #도보가능"
      },
      "lat": 37.65398801886381,
      "lng": 126.76641406672383,
      "location": {
        "area_en": "Busan",
        "area_kr": "부산",
        "address_en": "Busan, Busan",
        "address_kr": "부산 부산"
      },
      "city_key": "busan",
      "army_density": {
        "value": 65,
        "level_en": "High",
        "level_kr": "높음",
        "label_en": "ARMY 65%",
        "label_kr": "아미 65%"
      },
      "distance": {
        "type": "walk",
        "display_en": "Walk 5min",
        "minutes": 5,
        "distance_km": 0.5
      },
      "transport": {
        "station_en": "Jeongbalsan",
        "line_en": "Line 3",
        "line_color": "#EF7C1C",
        "display_en": "Jeongbalsan (Line 3)"
      },
      "safe_return": {
        "venue_en": "Goyang Stadium",
        "route_en": "Walk from Goyang Stadium → Hotel",
        "transport": "walk",
        "time_min": 5,
        "last_train": "23:50",
        "taxi_krw": 0
      },
      "army_local_guide": {
        "bts": [
          {
            "name_en": "MBC Sangam",
            "spot_tag": "Music Show",
            "description_en": "Music show filming",
            "distance_km": 13.9,
            "lat": 37.5786,
            "lng": 126.8918
          },
          {
            "name_en": "Hongdae Busking Street",
            "spot_tag": "Trainee Memory",
            "description_en": "Pre-debut busking spot",
            "distance_km": 17.5,
            "lat": 37.5563,
            "lng": 126.922
          },
          {
            "name_en": "Gwangjang Market",
            "spot_tag": "Debut Memory",
            "description_en": "2013 debut location",
            "distance_km": 23.4,
            "lat": 37.57,
            "lng": 127.0098
          }
        ],
        "restaurant": [
          {
            "name_en": "La Festa Restaurants",
            "spot_tag": "Dining Hub",
            "description_en": "Restaurant complex",
            "distance_km": 0.5,
            "lat": 37.6575,
            "lng": 126.7705
          },
          {
            "name_en": "Ilsan Food Street",
            "spot_tag": "Local Eats",
            "description_en": "Local food street",
            "distance_km": 0.7,
            "lat": 37.658,
            "lng": 126.772
          },
          {
            "name_en": "Western Dom Food Court",
            "spot_tag": "Food Court",
            "description_en": "Food court",
            "distance_km": 1.1,
            "lat": 37.663,
            "lng": 126.762
          }
        ],
        "cafe": [
          {
            "name_en": "La Festa Cafes",
            "spot_tag": "Trendy Cafe",
            "description_en": "Trendy cafes",
            "distance_km": 0.5,
            "lat": 37.6572,
            "lng": 126.771
          },
          {
            "name_en": "Ilsan Lake Park Cafe Street",
            "spot_tag": "Lake View",
            "description_en": "Scenic cafes",
            "distance_km": 0.8,
            "lat": 37.659,
            "lng": 126.76
          }
        ],
        "hotspot": [
          {
            "name_en": "Ilsan Lake Park",
            "spot_tag": "Must Visit",
            "description_en": "Beautiful lake park",
            "distance_km": 0.8,
            "lat": 37.658,
            "lng": 126.759
          },
          {
            "name_en": "One Mount",
            "spot_tag": "Entertainment",
            "description_en": "Theme park",
            "distance_km": 1.8,
            "lat": 37.665,
            "lng": 126.751
          },
          {
            "name_en": "Starfield Goyang",
            "spot_tag": "Shopping",
            "description_en": "Shopping mall",
            "distance_km": 11.4,
            "lat": 37.645,
            "lng": 126.895
          }
        ]
      },
      "map_detail": {
        "hotel": {
          "name_en": "Shire Hotel Signature Seomyeon",
          "lat": 37.65398801886381,
          "lng": 126.76641406672383
        },
        "venue": {
          "name_en": "Goyang Stadium",
          "lat": 37.6556,
          "lng": 126.7714
        },
        "nearby_spots": [
          {
            "name_en": "La Festa Restaurants",
            "category": "restaurant",
            "spot_tag": "Dining Hub",
            "lat": 37.6575,
            "lng": 126.7705,
            "distance_km": 0.5
          },
          {
            "name_en": "La Festa Cafes",
            "category": "cafe",
            "spot_tag": "Trendy Cafe",
            "lat": 37.6572,
            "lng": 126.771,
            "distance_km": 0.5
          },
          {
            "name_en": "Ilsan Food Street",
            "category": "restaurant",
            "spot_tag": "Local Eats",
            "lat": 37.658,
            "lng": 126.772,
            "distance_km": 0.7
          },
          {
            "name_en": "Ilsan Lake Park Cafe Street",
            "category": "cafe",
            "spot_tag": "Lake View",
            "lat": 37.659,
            "lng": 126.76,
            "distance_km": 0.8
          },
          {
            "name_en": "Ilsan Lake Park",
            "category": "hotspot",
            "spot_tag": "Must Visit",
            "lat": 37.658,
            "lng": 126.759,
            "distance_km": 0.8
          }
        ]
      },
      "platform": {
        "name": "Booking.com",
        "booking_url": "https://www.booking.comhttps://www.booking.com/hotel/kr/syaieohotel-seomyeon-busan1.ko.html?aid=304142&label=mkt123sc-821249b2-55f2-44be-a5df-8a3eef410cd7&ucfs=1&arphpl=1&checkin=2026-06-11&checkout=2026-06-13&dest_id=-713900&dest_type=city&group_adults=2&req_adults=2&no_rooms=1&group_children=0&req_children=0&hpos=4&hapos=4&sr_order=price&srpvid=5c35cf66220c6f46c86f096cdd0f0e6e&srepoch=1769973643&all_sr_blocks=1103192803_422720599_2_2_0&highlighted_blocks=1103192803_422720599_2_2_0&matching_block_id=1103192803_422720599_2_2_0&sr_pri_blocks=1103192803_422720599_2_2_0__56363636&from=searchresults"
      },
      "booking_guide": {
        "steps_en": [
          "1. Search Goyang hotels",
          "2. Filter by 'Free Cancellation'",
          "3. Select room and enter info",
          "4. Pay online or at property",
          "5. Show confirmation at check-in"
        ],
        "tips_en": [
          "Genius membership for discounts",
          "Free cancellation options"
        ],
        "payment_methods": [
          "Credit Card",
          "Pay at Property"
        ],
        "foreigner_friendly": true
      },
      "last_update": "2026-02-01 19:20:48",
      "nearby": [
        {
          "id": "hotel_80780",
          "name_en": "BT호텔",
          "price_krw": 156,
          "distance_km": 0.3,
          "image_url": "https://cf.bstatic.com/xdata/images/hotel/square240/525018046.webp?k=be682142dbf75f9a0512ad8bad6f9155e7f812372d81669fc018ebcacd40a5ef&o="
        },
        {
          "id": "hotel_62348",
          "name_en": "Busan Gwangalli Nuri Hotel",
          "price_krw": 279,
          "distance_km": 0.4,
          "image_url": "https://cf.bstatic.com/xdata/images/hotel/square240/803117772.webp?k=e234480c277a0db76c8b05431b34ec58dbaa1358e1941ccec9a098b5eb9fdff6&o="
        },
        {
          "id": "hotel_83094",
          "name_en": "엘모멘토 오시리아",
          "price_krw": 318,
          "distance_km": 0.4,
          "image_url": "https://cf.bstatic.com/xdata/images/hotel/square240/487544692.webp?k=4e263cca54514805e93172a96d5874a80db92e961926f0fc8c471db243cd60f0&o="
        }
      ]
    },
    {
      "id": "hotel_92639",
      "name_en": "큐브 호텔",
      "price_krw": 237,
      "rating": 0,
      "image_url": "https://cf.bstatic.com/xdata/images/hotel/square240/388675442.webp?k=7d78587e6c09b5cf1deaac75d1e3e24354e56ee7c10c352fa622c259dd9b8177&o=",
      "rooms_left": -1,
      "is_available": true,
      "hotel_type": {
        "label_en": "Hotel",
        "color": "#4A90D9"
      },
      "cancellation": {
        "type": "free",
        "label_en": "Free Cancellation",
        "label_kr": "무료 취소",
        "is_refundable": true
      },
      "tags": {
        "list_en": [
          "#FreeCancellation",
          "#ARMYPopular",
          "#WalkToVenue"
        ],
        "list_kr": [
          "#취소가능",
          "#아미인기",
          "#도보가능"
        ],
        "display_en": "#FreeCancellation #ARMYPopular #WalkToVenue",
        "display_kr": "#취소가능 #아미인기 #도보가능"
      },
      "lat": 37.659598612407606,
      "lng": 126.77510466632133,
      "location": {
        "area_en": "Busan",
        "area_kr": "부산",
        "address_en": "Busan, Busan",
        "address_kr": "부산 부산"
      },
      "city_key": "busan",
      "army_density": {
        "value": 65,
        "level_en": "High",
        "level_kr": "높음",
        "label_en": "ARMY 65%",
        "label_kr": "아미 65%"
      },
      "distance": {
        "type": "walk",
        "display_en": "Walk 6min",
        "minutes": 6,
        "distance_km": 0.6
      },
      "transport": {
        "station_en": "Jeongbalsan",
        "line_en": "Line 3",
        "line_color": "#EF7C1C",
        "display_en": "Jeongbalsan (Line 3)"
      },
      "safe_return": {
        "venue_en": "Goyang Stadium",
        "route_en": "Walk from Goyang Stadium → Hotel",
        "transport": "walk",
        "time_min": 6,
        "last_train": "23:50",
        "taxi_krw": 0
      },
      "army_local_guide": {
        "bts": [
          {
            "name_en": "MBC Sangam",
            "spot_tag": "Music Show",
            "description_en": "Music show filming",
            "distance_km": 13.7,
            "lat": 37.5786,
            "lng": 126.8918
          },
          {
            "name_en": "Hongdae Busking Street",
            "spot_tag": "Trainee Memory",
            "description_en": "Pre-debut busking spot",
            "distance_km": 17.3,
            "lat": 37.5563,
            "lng": 126.922
          },
          {
            "name_en": "Gwangjang Market",
            "spot_tag": "Debut Memory",
            "description_en": "2013 debut location",
            "distance_km": 22.9,
            "lat": 37.57,
            "lng": 127.0098
          }
        ],
        "restaurant": [
          {
            "name_en": "Ilsan Food Street",
            "spot_tag": "Local Eats",
            "description_en": "Local food street",
            "distance_km": 0.3,
            "lat": 37.658,
            "lng": 126.772
          },
          {
            "name_en": "La Festa Restaurants",
            "spot_tag": "Dining Hub",
            "description_en": "Restaurant complex",
            "distance_km": 0.5,
            "lat": 37.6575,
            "lng": 126.7705
          },
          {
            "name_en": "Western Dom Food Court",
            "spot_tag": "Food Court",
            "description_en": "Food court",
            "distance_km": 1.2,
            "lat": 37.663,
            "lng": 126.762
          }
        ],
        "cafe": [
          {
            "name_en": "La Festa Cafes",
            "spot_tag": "Trendy Cafe",
            "description_en": "Trendy cafes",
            "distance_km": 0.4,
            "lat": 37.6572,
            "lng": 126.771
          },
          {
            "name_en": "Ilsan Lake Park Cafe Street",
            "spot_tag": "Lake View",
            "description_en": "Scenic cafes",
            "distance_km": 1.3,
            "lat": 37.659,
            "lng": 126.76
          }
        ],
        "hotspot": [
          {
            "name_en": "Ilsan Lake Park",
            "spot_tag": "Must Visit",
            "description_en": "Beautiful lake park",
            "distance_km": 1.4,
            "lat": 37.658,
            "lng": 126.759
          },
          {
            "name_en": "One Mount",
            "spot_tag": "Entertainment",
            "description_en": "Theme park",
            "distance_km": 2.2,
            "lat": 37.665,
            "lng": 126.751
          },
          {
            "name_en": "Starfield Goyang",
            "spot_tag": "Shopping",
            "description_en": "Shopping mall",
            "distance_km": 10.7,
            "lat": 37.645,
            "lng": 126.895
          }
        ]
      },
      "map_detail": {
        "hotel": {
          "name_en": "큐브 호텔",
          "lat": 37.659598612407606,
          "lng": 126.77510466632133
        },
        "venue": {
          "name_en": "Goyang Stadium",
          "lat": 37.6556,
          "lng": 126.7714
        },
        "nearby_spots": [
          {
            "name_en": "Ilsan Food Street",
            "category": "restaurant",
            "spot_tag": "Local Eats",
            "lat": 37.658,
            "lng": 126.772,
            "distance_km": 0.3
          },
          {
            "name_en": "La Festa Cafes",
            "category": "cafe",
            "spot_tag": "Trendy Cafe",
            "lat": 37.6572,
            "lng": 126.771,
            "distance_km": 0.4
          },
          {
            "name_en": "La Festa Restaurants",
            "category": "restaurant",
            "spot_tag": "Dining Hub",
            "lat": 37.6575,
            "lng": 126.7705,
            "distance_km": 0.5
          },
          {
            "name_en": "Western Dom Food Court",
            "category": "restaurant",
            "spot_tag": "Food Court",
            "lat": 37.663,
            "lng": 126.762,
            "distance_km": 1.2
          },
          {
            "name_en": "Ilsan Lake Park Cafe Street",
            "category": "cafe",
            "spot_tag": "Lake View",
            "lat": 37.659,
            "lng": 126.76,
            "distance_km": 1.3
          }
        ]
      },
      "platform": {
        "name": "Booking.com",
        "booking_url": "https://www.booking.comhttps://www.booking.com/hotel/kr/cube-busan-gwangyeogsi.ko.html?aid=304142&label=mkt123sc-821249b2-55f2-44be-a5df-8a3eef410cd7&ucfs=1&arphpl=1&checkin=2026-06-11&checkout=2026-06-13&dest_id=-713900&dest_type=city&group_adults=2&req_adults=2&no_rooms=1&group_children=0&req_children=0&hpos=9&hapos=9&sr_order=price&srpvid=5c35cf66220c6f46c86f096cdd0f0e6e&srepoch=1769973643&all_sr_blocks=900057001_377638251_2_0_0&highlighted_blocks=900057001_377638251_2_0_0&matching_block_id=900057001_377638251_2_0_0&sr_pri_blocks=900057001_377638251_2_0_0__68181818&from=searchresults"
      },
      "booking_guide": {
        "steps_en": [
          "1. Search Goyang hotels",
          "2. Filter by 'Free Cancellation'",
          "3. Select room and enter info",
          "4. Pay online or at property",
          "5. Show confirmation at check-in"
        ],
        "tips_en": [
          "Genius membership for discounts",
          "Free cancellation options"
        ],
        "payment_methods": [
          "Credit Card",
          "Pay at Property"
        ],
        "foreigner_friendly": true
      },
      "last_update": "2026-02-01 19:20:48",
      "nearby": [
        {
          "id": "hotel_86089",
          "name_en": "엘모멘토 송도",
          "price_krw": 272,
          "distance_km": 0.0,
          "image_url": "https://cf.bstatic.com/xdata/images/hotel/square240/582995875.webp?k=2c7789027c8f8452a701cf38931dfe114743f4d45d493af4056c10af925900e0&o="
        },
        {
          "id": "hotel_84317",
          "name_en": "몰디브 호텔&호스텔",
          "price_krw": 316,
          "distance_km": 0.1,
          "image_url": "https://cf.bstatic.com/xdata/images/hotel/square240/487528930.webp?k=011892e317cd15f15d3ac5c72457f8b48e01c696ed01b3a20e1db23406bf21a7&o="
        },
        {
          "id": "hotel_05671",
          "name_en": "혀니네",
          "price_krw": 270,
          "distance_km": 0.2,
          "image_url": "https://cf.bstatic.com/xdata/images/hotel/square240/790445736.webp?k=7e5b69183effbd63c5635e060588531f67d108f0ec52b8b9f44c014c46fe3c56&o="
        }
      ]
    },
    {
      "id": "hotel_05671",
      "name_en": "혀니네",
      "price_krw": 270,
      "rating": 0,
      "image_url": "https://cf.bstatic.com/xdata/images/hotel/square240/790445736.webp?k=7e5b69183effbd63c5635e060588531f67d108f0ec52b8b9f44c014c46fe3c56&o=",
      "rooms_left": -1,
      "is_available": true,
      "hotel_type": {
        "label_en": "Hotel",
        "color": "#4A90D9"
      },
      "cancellation": {
        "type": "free",
        "label_en": "Free Cancellation",
        "label_kr": "무료 취소",
        "is_refundable": true
      },
      "tags": {
        "list_en": [
          "#FreeCancellation",
          "#ARMYPopular",
          "#WalkToVenue"
        ],
        "list_kr": [
          "#취소가능",
          "#아미인기",
          "#도보가능"
        ],
        "display_en": "#FreeCancellation #ARMYPopular #WalkToVenue",
        "display_kr": "#취소가능 #아미인기 #도보가능"
      },
      "lat": 37.65811441312211,
      "lng": 126.77717655180012,
      "location": {
        "area_en": "Busan",
        "area_kr": "부산",
        "address_en": "Busan, Busan",
        "address_kr": "부산 부산"
      },
      "city_key": "busan",
      "army_density": {
        "value": 65,
        "level_en": "High",
        "level_kr": "높음",
        "label_en": "ARMY 65%",
        "label_kr": "아미 65%"
      },
      "distance": {
        "type": "walk",
        "display_en": "Walk 6min",
        "minutes": 6,
        "distance_km": 0.6
      },
      "transport": {
        "station_en": "Jeongbalsan",
        "line_en": "Line 3",
        "line_color": "#EF7C1C",
        "display_en": "Jeongbalsan (Line 3)"
      },
      "safe_return": {
        "venue_en": "Goyang Stadium",
        "route_en": "Walk from Goyang Stadium → Hotel",
        "transport": "walk",
        "time_min": 6,
        "last_train": "23:50",
        "taxi_krw": 0
      },
      "army_local_guide": {
        "bts": [
          {
            "name_en": "MBC Sangam",
            "spot_tag": "Music Show",
            "description_en": "Music show filming",
            "distance_km": 13.4,
            "lat": 37.5786,
            "lng": 126.8918
          },
          {
            "name_en": "Hongdae Busking Street",
            "spot_tag": "Trainee Memory",
            "description_en": "Pre-debut busking spot",
            "distance_km": 17.1,
            "lat": 37.5563,
            "lng": 126.922
          },
          {
            "name_en": "Gwangjang Market",
            "spot_tag": "Debut Memory",
            "description_en": "2013 debut location",
            "distance_km": 22.7,
            "lat": 37.57,
            "lng": 127.0098
          }
        ],
        "restaurant": [
          {
            "name_en": "Ilsan Food Street",
            "spot_tag": "Local Eats",
            "description_en": "Local food street",
            "distance_km": 0.5,
            "lat": 37.658,
            "lng": 126.772
          },
          {
            "name_en": "La Festa Restaurants",
            "spot_tag": "Dining Hub",
            "description_en": "Restaurant complex",
            "distance_km": 0.6,
            "lat": 37.6575,
            "lng": 126.7705
          },
          {
            "name_en": "Western Dom Food Court",
            "spot_tag": "Food Court",
            "description_en": "Food court",
            "distance_km": 1.4,
            "lat": 37.663,
            "lng": 126.762
          }
        ],
        "cafe": [
          {
            "name_en": "La Festa Cafes",
            "spot_tag": "Trendy Cafe",
            "description_en": "Trendy cafes",
            "distance_km": 0.6,
            "lat": 37.6572,
            "lng": 126.771
          },
          {
            "name_en": "Ilsan Lake Park Cafe Street",
            "spot_tag": "Lake View",
            "description_en": "Scenic cafes",
            "distance_km": 1.5,
            "lat": 37.659,
            "lng": 126.76
          }
        ],
        "hotspot": [
          {
            "name_en": "Ilsan Lake Park",
            "spot_tag": "Must Visit",
            "description_en": "Beautiful lake park",
            "distance_km": 1.6,
            "lat": 37.658,
            "lng": 126.759
          },
          {
            "name_en": "One Mount",
            "spot_tag": "Entertainment",
            "description_en": "Theme park",
            "distance_km": 2.4,
            "lat": 37.665,
            "lng": 126.751
          },
          {
            "name_en": "Starfield Goyang",
            "spot_tag": "Shopping",
            "description_en": "Shopping mall",
            "distance_km": 10.5,
            "lat": 37.645,
            "lng": 126.895
          }
        ]
      },
      "map_detail": {
        "hotel": {
          "name_en": "혀니네",
          "lat": 37.65811441312211,
          "lng": 126.77717655180012
        },
        "venue": {
          "name_en": "Goyang Stadium",
          "lat": 37.6556,
          "lng": 126.7714
        },
        "nearby_spots": [
          {
            "name_en": "Ilsan Food Street",
            "category": "restaurant",
            "spot_tag": "Local Eats",
            "lat": 37.658,
            "lng": 126.772,
            "distance_km": 0.5
          },
          {
            "name_en": "La Festa Restaurants",
            "category": "restaurant",
            "spot_tag": "Dining Hub",
            "lat": 37.6575,
            "lng": 126.7705,
            "distance_km": 0.6
          },
          {
            "name_en": "La Festa Cafes",
            "category": "cafe",
            "spot_tag": "Trendy Cafe",
            "lat": 37.6572,
            "lng": 126.771,
            "distance_km": 0.6
          },
          {
            "name_en": "Western Dom Food Court",
            "category": "restaurant",
            "spot_tag": "Food Court",
            "lat": 37.663,
            "lng": 126.762,
            "distance_km": 1.4
          },
          {
            "name_en": "Ilsan Lake Park Cafe Street",
            "category": "cafe",
            "spot_tag": "Lake View",
            "lat": 37.659,
            "lng": 126.76,
            "distance_km": 1.5
          }
        ]
      },
      "platform": {
        "name": "Booking.com",
        "booking_url": "https://www.booking.comhttps://www.booking.com/hotel/kr/hyeonine.ko.html?aid=304142&label=mkt123sc-821249b2-55f2-44be-a5df-8a3eef410cd7&ucfs=1&arphpl=1&checkin=2026-06-11&checkout=2026-06-13&dest_id=-713900&dest_type=city&group_adults=2&req_adults=2&no_rooms=1&group_children=0&req_children=0&hpos=14&hapos=14&sr_order=price&srpvid=5c35cf66220c6f46c86f096cdd0f0e6e&srepoch=1769973643&all_sr_blocks=1513010801_423051437_3_0_0&highlighted_blocks=1513010801_423051437_3_0_0&matching_block_id=1513010801_423051437_3_0_0&sr_pri_blocks=1513010801_423051437_3_0_0__77727100&from=searchresults"
      },
      "booking_guide": {
        "steps_en": [
          "1. Search Goyang hotels",
          "2. Filter by 'Free Cancellation'",
          "3. Select room and enter info",
          "4. Pay online or at property",
          "5. Show confirmation at check-in"
        ],
        "tips_en": [
          "Genius membership for discounts",
          "Free cancellation options"
        ],
        "payment_methods": [
          "Credit Card",
          "Pay at Property"
        ],
        "foreigner_friendly": true
      },
      "last_update": "2026-02-01 19:20:48",
      "nearby": [
        {
          "id": "hotel_28121",
          "name_en": "하이루프33 레지던스",
          "price_krw": 303,
          "distance_km": 0.1,
          "image_url": "https://cf.bstatic.com/xdata/images/hotel/square240/791648276.webp?k=e1aac59188360971ff396a8f0745f066d59296d560d692e75d309fc664eeefa7&o="
        },
        {
          "id": "hotel_92639",
          "name_en": "큐브 호텔",
          "price_krw": 237,
          "distance_km": 0.2,
          "image_url": "https://cf.bstatic.com/xdata/images/hotel/square240/388675442.webp?k=7d78587e6c09b5cf1deaac75d1e3e24354e56ee7c10c352fa622c259dd9b8177&o="
        },
        {
          "id": "hotel_86089",
          "name_en": "엘모멘토 송도",
          "price_krw": 272,
          "distance_km": 0.2,
          "image_url": "https://cf.bstatic.com/xdata/images/hotel/square240/582995875.webp?k=2c7789027c8f8452a701cf38931dfe114743f4d45d493af4056c10af925900e0&o="
        }
      ]
    },
    {
      "id": "hotel_86089",
      "name_en": "엘모멘토 송도",
      "price_krw": 272,
      "rating": 9.19,
      "image_url": "https://cf.bstatic.com/xdata/images/hotel/square240/582995875.webp?k=2c7789027c8f8452a701cf38931dfe114743f4d45d493af4056c10af925900e0&o=",
      "rooms_left": -1,
      "is_available": true,
      "hotel_type": {
        "label_en": "Hotel",
        "color": "#4A90D9"
      },
      "cancellation": {
        "type": "free",
        "label_en": "Free Cancellation",
        "label_kr": "무료 취소",
        "is_refundable": true
      },
      "tags": {
        "list_en": [
          "#FreeCancellation",
          "#ARMYPopular",
          "#WalkToVenue"
        ],
        "list_kr": [
          "#취소가능",
          "#아미인기",
          "#도보가능"
        ],
        "display_en": "#FreeCancellation #ARMYPopular #WalkToVenue",
        "display_kr": "#취소가능 #아미인기 #도보가능"
      },
      "lat": 37.6598169033397,
      "lng": 126.77537984587732,
      "location": {
        "area_en": "Busan",
        "area_kr": "부산",
        "address_en": "Busan, Busan",
        "address_kr": "부산 부산"
      },
      "city_key": "busan",
      "army_density": {
        "value": 65,
        "level_en": "High",
        "level_kr": "높음",
        "label_en": "ARMY 65%",
        "label_kr": "아미 65%"
      },
      "distance": {
        "type": "walk",
        "display_en": "Walk 7min",
        "minutes": 7,
        "distance_km": 0.6
      },
      "transport": {
        "station_en": "Jeongbalsan",
        "line_en": "Line 3",
        "line_color": "#EF7C1C",
        "display_en": "Jeongbalsan (Line 3)"
      },
      "safe_return": {
        "venue_en": "Goyang Stadium",
        "route_en": "Walk from Goyang Stadium → Hotel",
        "transport": "walk",
        "time_min": 7,
        "last_train": "23:50",
        "taxi_krw": 0
      },
      "army_local_guide": {
        "bts": [
          {
            "name_en": "MBC Sangam",
            "spot_tag": "Music Show",
            "description_en": "Music show filming",
            "distance_km": 13.7,
            "lat": 37.5786,
            "lng": 126.8918
          },
          {
            "name_en": "Hongdae Busking Street",
            "spot_tag": "Trainee Memory",
            "description_en": "Pre-debut busking spot",
            "distance_km": 17.3,
            "lat": 37.5563,
            "lng": 126.922
          },
          {
            "name_en": "Gwangjang Market",
            "spot_tag": "Debut Memory",
            "description_en": "2013 debut location",
            "distance_km": 22.9,
            "lat": 37.57,
            "lng": 127.0098
          }
        ],
        "restaurant": [
          {
            "name_en": "Ilsan Food Street",
            "spot_tag": "Local Eats",
            "description_en": "Local food street",
            "distance_km": 0.4,
            "lat": 37.658,
            "lng": 126.772
          },
          {
            "name_en": "La Festa Restaurants",
            "spot_tag": "Dining Hub",
            "description_en": "Restaurant complex",
            "distance_km": 0.5,
            "lat": 37.6575,
            "lng": 126.7705
          },